[
    {
        "stop_name": "KL117 BSN LEBUH AMPANG",
        "stop_lat": "3.1492454039518",
        "stop_lon": "101.69737177094",
        "stop_id": "1000383",
        "stop_sequence": "1"
    },
    {
        "stop_name": "KL30 AMANAHRAYA",
        "stop_lat": "3.1519126007803",
        "stop_lon": "101.69799809706",
        "stop_id": "1003683",
        "stop_sequence": "2"
    },
    {
        "stop_name": "(M) KL31 HENTIAN MUNSHI ABDULLAH",
        "stop_lat": "3.1532582998069",
        "stop_lon": "101.69848425418",
        "stop_id": "1000823",
        "stop_sequence": "3"
    },
    {
        "stop_name": "(M) KL32 CAPSQUARE",
        "stop_lat": "3.1546522393082",
        "stop_lon": "101.69837470998",
        "stop_id": "1002560",
        "stop_sequence": "4"
    },
    {
        "stop_name": "(M) KL1940 SOGO KL",
        "stop_lat": "3.1567788096169",
        "stop_lon": "101.69535839244",
        "stop_id": "1003415",
        "stop_sequence": "5"
    },
    {
        "stop_name": "KL40 MEDAN MARA",
        "stop_lat": "3.157724",
        "stop_lon": "101.694556",
        "stop_id": "1001984",
        "stop_sequence": "6"
    },
    {
        "stop_name": "SKPK LELAKI JLN BATU",
        "stop_lat": "3.159643",
        "stop_lon": "101.694843",
        "stop_id": "1003299",
        "stop_sequence": "7"
    },
    {
        "stop_name": "KL41 LRT SULTAN ISMAIL/WISMA SIME DARBY",
        "stop_lat": "3.162154",
        "stop_lon": "101.695526",
        "stop_id": "1003257",
        "stop_sequence": "8"
    },
    {
        "stop_name": "KL42 EDC HOTEL",
        "stop_lat": "3.165085",
        "stop_lon": "101.696133",
        "stop_id": "1002694",
        "stop_sequence": "9"
    },
    {
        "stop_name": "KL46 CHOWKIT/KFC (BARAT)",
        "stop_lat": "3.167208",
        "stop_lon": "101.696275",
        "stop_id": "1001418",
        "stop_sequence": "10"
    },
    {
        "stop_name": "KL47 DAMAI HOSPITAL (OPP)",
        "stop_lat": "3.169272",
        "stop_lon": "101.695689",
        "stop_id": "1002537",
        "stop_sequence": "11"
    },
    {
        "stop_name": "KL47 PICOMS",
        "stop_lat": "3.1704199968614",
        "stop_lon": "101.6941562269",
        "stop_id": "1002415",
        "stop_sequence": "12"
    },
    {
        "stop_name": "KL49 PERKIM/PUSRAWI",
        "stop_lat": "3.171001",
        "stop_lon": "101.693422",
        "stop_id": "1002413",
        "stop_sequence": "13"
    },
    {
        "stop_name": "KL578 TAMAN GOLDEN",
        "stop_lat": "3.174173",
        "stop_lon": "101.690357",
        "stop_id": "1002022",
        "stop_sequence": "14"
    },
    {
        "stop_name": "KL579 SK SRI DHANDAYUTHAPANI",
        "stop_lat": "3.176318",
        "stop_lon": "101.688001",
        "stop_id": "1001710",
        "stop_sequence": "15"
    },
    {
        "stop_name": "(M) KL1580 PETRON SENTUL WEST",
        "stop_lat": "3.178511",
        "stop_lon": "101.685795",
        "stop_id": "1002041",
        "stop_sequence": "16"
    },
    {
        "stop_name": "KL580 RIVERCITY 3RD MILE",
        "stop_lat": "3.180075",
        "stop_lon": "101.683043",
        "stop_id": "1002529",
        "stop_sequence": "17"
    },
    {
        "stop_name": "KL581 BATU COMPLEX BUSINESS CENTRE",
        "stop_lat": "3.183872",
        "stop_lon": "101.681078",
        "stop_id": "1002530",
        "stop_sequence": "18"
    },
    {
        "stop_name": "KL583 SMK (P) JLN IPOH",
        "stop_lat": "3.187494",
        "stop_lon": "101.681611",
        "stop_id": "1003385",
        "stop_sequence": "19"
    },
    {
        "stop_name": "KL584 KOMPLEKS MUTIARA",
        "stop_lat": "3.188964",
        "stop_lon": "101.680933",
        "stop_id": "1001626",
        "stop_sequence": "20"
    },
    {
        "stop_name": "KL585 MRT KENTOMEN PINTU B",
        "stop_lat": "3.194339",
        "stop_lon": "101.679474",
        "stop_id": "1002533",
        "stop_sequence": "21"
    },
    {
        "stop_name": "KL586 KOMPLEKS MIKASA",
        "stop_lat": "3.198519",
        "stop_lon": "101.678381",
        "stop_id": "1002534",
        "stop_sequence": "22"
    },
    {
        "stop_name": "KL1577 SK KAMPUNG BATU (OPP)",
        "stop_lat": "3.201914",
        "stop_lon": "101.676269",
        "stop_id": "1001253",
        "stop_sequence": "23"
    },
    {
        "stop_name": "KL594 MRT KG BATU",
        "stop_lat": "3.205422",
        "stop_lon": "101.675887",
        "stop_id": "1008365",
        "stop_sequence": "24"
    },
    {
        "stop_name": "KL593 PPR BATU MUDA BLOK G (OPP)",
        "stop_lat": "3.206771",
        "stop_lon": "101.679318",
        "stop_id": "1002614",
        "stop_sequence": "25"
    },
    {
        "stop_name": "KL1571 PPR BATU MUDA (OPP)",
        "stop_lat": "3.207703",
        "stop_lon": "101.680257",
        "stop_id": "1002612",
        "stop_sequence": "26"
    },
    {
        "stop_name": "KL2239 SK BATU MUDA (OPP)",
        "stop_lat": "3.213402",
        "stop_lon": "101.684121",
        "stop_id": "1003445",
        "stop_sequence": "27"
    },
    {
        "stop_name": "KL2240 PERUMAHAN TENTERA AMPAT TIN",
        "stop_lat": "3.214803",
        "stop_lon": "101.684633",
        "stop_id": "1002873",
        "stop_sequence": "28"
    },
    {
        "stop_name": "KL2242 PERUMAHAN LOT BATU MUDA",
        "stop_lat": "3.216029",
        "stop_lon": "101.686414",
        "stop_id": "1002872",
        "stop_sequence": "29"
    },
    {
        "stop_name": "KL2275 MASJID SAIDINA HAMZAH (OPP)",
        "stop_lat": "3.217813",
        "stop_lon": "101.688308",
        "stop_id": "1001944",
        "stop_sequence": "30"
    },
    {
        "stop_name": "KL623 TAMAN KOPERASI POLIS",
        "stop_lat": "3.220585",
        "stop_lon": "101.689193",
        "stop_id": "1003994",
        "stop_sequence": "31"
    },
    {
        "stop_name": "(M) KL624 IIC/PICOMS",
        "stop_lat": "3.223146",
        "stop_lon": "101.689189",
        "stop_id": "1001590",
        "stop_sequence": "32"
    },
    {
        "stop_name": "(M) KL625 GIATMARA BATU MUDA",
        "stop_lat": "3.226716",
        "stop_lon": "101.689114",
        "stop_id": "1004270",
        "stop_sequence": "33"
    },
    {
        "stop_name": "KL626 TAMAN BATU MUDA (TIMUR)",
        "stop_lat": "3.227983",
        "stop_lon": "101.688207",
        "stop_id": "1003042",
        "stop_sequence": "34"
    },
    {
        "stop_name": "KL627 TAMAN BATU MUDA",
        "stop_lat": "3.227896",
        "stop_lon": "101.686728",
        "stop_id": "1003008",
        "stop_sequence": "35"
    },
    {
        "stop_name": "KL628 TAMAN BATU MUDA (TENGAH)",
        "stop_lat": "3.227839",
        "stop_lon": "101.685253",
        "stop_id": "1004104",
        "stop_sequence": "36"
    },
    {
        "stop_name": "KL629 HENTIAN BATU MUDA",
        "stop_lat": "3.2277684757764",
        "stop_lon": "101.68340687361",
        "stop_id": "1000843",
        "stop_sequence": "37"
    },
    {
        "stop_name": "SL491 KJCF (OPP)",
        "stop_lat": "3.229023",
        "stop_lon": "101.682252",
        "stop_id": "1001491",
        "stop_sequence": "38"
    },
    {
        "stop_name": "SL492 AMARI BUSINESS PARK",
        "stop_lat": "3.231727805851",
        "stop_lon": "101.68238522469",
        "stop_id": "1002018",
        "stop_sequence": "39"
    },
    {
        "stop_name": "SL493 NISSAN",
        "stop_lat": "3.2340012667277",
        "stop_lon": "101.6825853159",
        "stop_id": "1002755",
        "stop_sequence": "40"
    },
    {
        "stop_name": "SL28 PADANG AWAM BATU CAVES (OPP)",
        "stop_lat": "3.235465",
        "stop_lon": "101.677474",
        "stop_id": "1001445",
        "stop_sequence": "41"
    },
    {
        "stop_name": "SL29 KOMPLEKS AMANIAH (OPP)",
        "stop_lat": "3.235101",
        "stop_lon": "101.675116",
        "stop_id": "1001728",
        "stop_sequence": "42"
    },
    {
        "stop_name": "SL30 KOMERSIAL TAMAN SELAYANG",
        "stop_lat": "3.2359674149813",
        "stop_lon": "101.67359839481",
        "stop_id": "1002356",
        "stop_sequence": "43"
    },
    {
        "stop_name": "SL31 SK TMN SELAYANG",
        "stop_lat": "3.241483",
        "stop_lon": "101.673317",
        "stop_id": "1003330",
        "stop_sequence": "44"
    },
    {
        "stop_name": "SL33 KOMPLEKS SRI SIANTAN",
        "stop_lat": "3.2462734187942",
        "stop_lon": "101.67408086665",
        "stop_id": "1001635",
        "stop_sequence": "45"
    },
    {
        "stop_name": "SL56 BALAI MUKIM BATU",
        "stop_lat": "3.2481543491642",
        "stop_lon": "101.67448658595",
        "stop_id": "1000192",
        "stop_sequence": "46"
    },
    {
        "stop_name": "SL82 SIMPANG MASUK KG NAKHODA",
        "stop_lat": "3.250468",
        "stop_lon": "101.675729",
        "stop_id": "1003566",
        "stop_sequence": "47"
    },
    {
        "stop_name": "SL475 KG BARU SG TUA (BARAT)",
        "stop_lat": "3.2527613196177",
        "stop_lon": "101.6780357229",
        "stop_id": "1001095",
        "stop_sequence": "48"
    },
    {
        "stop_name": "SL68 KG BARU SG TUA (TIMUR)",
        "stop_lat": "3.254213053263",
        "stop_lon": "101.67988312992",
        "stop_id": "1001727",
        "stop_sequence": "49"
    },
    {
        "stop_name": "SL69 RUMAH NO 8970",
        "stop_lat": "3.2534652022462",
        "stop_lon": "101.68245624943",
        "stop_id": "1002967",
        "stop_sequence": "50"
    },
    {
        "stop_name": "SL70 RUMPUN NAKHODA RESIDENCE",
        "stop_lat": "3.2528137554167",
        "stop_lon": "101.68366997064",
        "stop_id": "1002966",
        "stop_sequence": "51"
    },
    {
        "stop_name": "SL71 LORONG NAKHODA 25",
        "stop_lat": "3.249419022952",
        "stop_lon": "101.67927903775",
        "stop_id": "1001781",
        "stop_sequence": "52"
    },
    {
        "stop_name": "SL57 SRA SG TUA (OPP)",
        "stop_lat": "3.252764",
        "stop_lon": "101.674759",
        "stop_id": "1001469",
        "stop_sequence": "53"
    },
    {
        "stop_name": "SL58 KG SG TUA BARU",
        "stop_lat": "3.256723",
        "stop_lon": "101.672816",
        "stop_id": "1003983",
        "stop_sequence": "54"
    },
    {
        "stop_name": "SL472 TAMAN SELAYANG MUTIARA",
        "stop_lat": "3.260413",
        "stop_lon": "101.673384",
        "stop_id": "1001991",
        "stop_sequence": "55"
    },
    {
        "stop_name": "SL60 KG BENDAHARA",
        "stop_lat": "3.261955",
        "stop_lon": "101.675879",
        "stop_id": "1001425",
        "stop_sequence": "56"
    },
    {
        "stop_name": "SL61 BDR BARU SELAYANG FASA 2A",
        "stop_lat": "3.263028",
        "stop_lon": "101.678498",
        "stop_id": "1000240",
        "stop_sequence": "57"
    },
    {
        "stop_name": "SL473 HAB TAMAN JASA UTAMA",
        "stop_lat": "3.268909",
        "stop_lon": "101.681395",
        "stop_id": "1003985",
        "stop_sequence": "58"
    }
]