[
    {
        "stop_name": "SJ629 TAMAN PERINDUSTRIAN USJ1",
        "stop_lat": "3.048568",
        "stop_lon": "101.605762",
        "stop_id": "1004184",
        "stop_sequence": "1"
    },
    {
        "stop_name": "SJ630 SJKC CHEE WEN (OPP)",
        "stop_lat": "3.049619",
        "stop_lon": "101.602492",
        "stop_id": "1003291",
        "stop_sequence": "2"
    },
    {
        "stop_name": "SJ632 PUSAT INDUSTRI IKS USJ1",
        "stop_lat": "3.048505987434",
        "stop_lon": "101.60174838489",
        "stop_id": "1002187",
        "stop_sequence": "3"
    },
    {
        "stop_name": "SJ77 APARTMENT MERANTI",
        "stop_lat": "3.046148",
        "stop_lon": "101.601575",
        "stop_id": "1004306",
        "stop_sequence": "4"
    },
    {
        "stop_name": "SJ78 PANGSAPURI ANGSANA",
        "stop_lat": "3.044505",
        "stop_lon": "101.601982",
        "stop_id": "1002123",
        "stop_sequence": "5"
    },
    {
        "stop_name": "SJ81 APARTMENT ANGSANA (SELATAN)",
        "stop_lat": "3.04299489717",
        "stop_lon": "101.60075002658",
        "stop_id": "1002758",
        "stop_sequence": "6"
    },
    {
        "stop_name": "SJ690 ZON PERINDUSTRIAN USJ1",
        "stop_lat": "3.043026",
        "stop_lon": "101.596089",
        "stop_id": "1001860",
        "stop_sequence": "7"
    },
    {
        "stop_name": "SJ725 GOODYEAR COURT 6 (SELATAN)",
        "stop_lat": "3.042999",
        "stop_lon": "101.593605",
        "stop_id": "1004185",
        "stop_sequence": "8"
    },
    {
        "stop_name": "SJ82 GOODYEAR COURT 7",
        "stop_lat": "3.042916",
        "stop_lon": "101.590921",
        "stop_id": "1000882",
        "stop_sequence": "9"
    },
    {
        "stop_name": "SJ550 USJ 14 (TIMUR)",
        "stop_lat": "3.0417448875508",
        "stop_lon": "101.58832216768",
        "stop_id": "1003867",
        "stop_sequence": "10"
    },
    {
        "stop_name": "SJ29 USJ 9 (SELATAN)",
        "stop_lat": "3.039213",
        "stop_lon": "101.585062",
        "stop_id": "1002922",
        "stop_sequence": "11"
    },
    {
        "stop_name": "SJ30 ARCADIA APARTMENT (OPP)",
        "stop_lat": "3.039745",
        "stop_lon": "101.577517",
        "stop_id": "1003586",
        "stop_sequence": "12"
    },
    {
        "stop_name": "SJ34 USJ 11 (USJ 4/9)",
        "stop_lat": "3.0470956032656",
        "stop_lon": "101.57615271307",
        "stop_id": "1002953",
        "stop_sequence": "13"
    },
    {
        "stop_name": "SJ40 USJ 5 (UTARA)",
        "stop_lat": "3.056622",
        "stop_lon": "101.577414",
        "stop_id": "1004186",
        "stop_sequence": "14"
    },
    {
        "stop_name": "SJ41 PERUMAHAN USJ 3",
        "stop_lat": "3.0595845142612",
        "stop_lon": "101.57946916498",
        "stop_id": "1002885",
        "stop_sequence": "15"
    },
    {
        "stop_name": "(M) SJ45 PANGSAPURI SS19",
        "stop_lat": "3.067757044987",
        "stop_lon": "101.58007828518",
        "stop_id": "1000787",
        "stop_sequence": "16"
    },
    {
        "stop_name": "SJ51 BALAI BOMBA SS17 (SELATAN)",
        "stop_lat": "3.0734869221947",
        "stop_lon": "101.58391769032",
        "stop_id": "1002512",
        "stop_sequence": "17"
    },
    {
        "stop_name": "SJ52 LRT SS15",
        "stop_lat": "3.076001",
        "stop_lon": "101.585977",
        "stop_id": "1006525",
        "stop_sequence": "18"
    },
    {
        "stop_name": "SJ698 FIRST SUBANG",
        "stop_lat": "3.079366",
        "stop_lon": "101.585067",
        "stop_id": "1002947",
        "stop_sequence": "19"
    },
    {
        "stop_name": "SJ59 SUBANG PARADE",
        "stop_lat": "3.081309",
        "stop_lon": "101.585004",
        "stop_id": "1003696",
        "stop_sequence": "20"
    },
    {
        "stop_name": "SJ60 AEON BIG SUBANG JAYA",
        "stop_lat": "3.082119",
        "stop_lon": "101.587966",
        "stop_id": "1000456",
        "stop_sequence": "21"
    },
    {
        "stop_name": "SJ2 SIME DARBY HEALTH CARE",
        "stop_lat": "3.077851",
        "stop_lon": "101.593269",
        "stop_id": "1003280",
        "stop_sequence": "22"
    },
    {
        "stop_name": "PJ229 KOMPLEKS 3C (OPP)",
        "stop_lat": "3.073384",
        "stop_lon": "101.601469",
        "stop_id": "1000523",
        "stop_sequence": "23"
    },
    {
        "stop_name": "PJ294 SUNWAY CLIO (OPP)",
        "stop_lat": "3.0737225504127",
        "stop_lon": "101.60355896913",
        "stop_id": "1003708",
        "stop_sequence": "24"
    },
    {
        "stop_name": "PJ561 SUNWAY PYRAMID (OPP)",
        "stop_lat": "3.074113",
        "stop_lon": "101.605891",
        "stop_id": "1008430",
        "stop_sequence": "25"
    },
    {
        "stop_name": "(M) PJ614 MASJID AL-HUSNA",
        "stop_lat": "3.074256",
        "stop_lon": "101.608951",
        "stop_id": "1001873",
        "stop_sequence": "26"
    },
    {
        "stop_name": "PJ164 ARENA SELERA LINDUNGAN",
        "stop_lat": "3.076672",
        "stop_lon": "101.616129",
        "stop_id": "1000729",
        "stop_sequence": "27"
    },
    {
        "stop_name": "PJ165 KOMERSIAL LINDUNGAN",
        "stop_lat": "3.078261",
        "stop_lon": "101.615607",
        "stop_id": "1001435",
        "stop_sequence": "28"
    },
    {
        "stop_name": "PJ358 KONTENA NASIONAL",
        "stop_lat": "3.081148",
        "stop_lon": "101.615187",
        "stop_id": "1001669",
        "stop_sequence": "29"
    },
    {
        "stop_name": "PJ622 PERUMAHAN PJS 6",
        "stop_lat": "3.079853",
        "stop_lon": "101.613795",
        "stop_id": "1001437",
        "stop_sequence": "30"
    },
    {
        "stop_name": "(M) PJ615 SUNWAY PYRAMID",
        "stop_lat": "3.073588",
        "stop_lon": "101.605895",
        "stop_id": "1003709",
        "stop_sequence": "31"
    },
    {
        "stop_name": "PJ617 KOMPLEKS 3C",
        "stop_lat": "3.072993",
        "stop_lon": "101.600748",
        "stop_id": "1000522",
        "stop_sequence": "32"
    },
    {
        "stop_name": "SJ697 INTI SUBANG JAYA (OPP)",
        "stop_lat": "3.072972",
        "stop_lon": "101.592328",
        "stop_id": "1000846",
        "stop_sequence": "33"
    },
    {
        "stop_name": "SJ54 SERI KUALA LUMPUR",
        "stop_lat": "3.076459",
        "stop_lon": "101.592849",
        "stop_id": "1003140",
        "stop_sequence": "34"
    },
    {
        "stop_name": "SJ55 SUBANG JAYA MEDICAL CENTRE",
        "stop_lat": "3.079767",
        "stop_lon": "101.592874",
        "stop_id": "1003279",
        "stop_sequence": "35"
    },
    {
        "stop_name": "SJ56 KOMERSIAL SS15",
        "stop_lat": "3.0818374454544",
        "stop_lon": "101.59082467831",
        "stop_id": "1002020",
        "stop_sequence": "36"
    },
    {
        "stop_name": "SJ57 AEON BIG SUBANG JAYA (OPP)",
        "stop_lat": "3.081844",
        "stop_lon": "101.588307",
        "stop_id": "1000457",
        "stop_sequence": "37"
    },
    {
        "stop_name": "(M) SJ58 SUBANG PARADE (OPP)",
        "stop_lat": "3.0812978955176",
        "stop_lon": "101.58560231839",
        "stop_id": "1003695",
        "stop_sequence": "38"
    },
    {
        "stop_name": "SJ53 LRT SS15",
        "stop_lat": "3.076573",
        "stop_lon": "101.586316",
        "stop_id": "1000617",
        "stop_sequence": "39"
    },
    {
        "stop_name": "SJ592 BALAI BOMBA SS17 (OPP)",
        "stop_lat": "3.072939",
        "stop_lon": "101.584061",
        "stop_id": "1003086",
        "stop_sequence": "40"
    },
    {
        "stop_name": "SJ17 SS18",
        "stop_lat": "3.066983",
        "stop_lon": "101.580314",
        "stop_id": "1003666",
        "stop_sequence": "41"
    },
    {
        "stop_name": "SJ18 USJ 2",
        "stop_lat": "3.059481",
        "stop_lon": "101.579814",
        "stop_id": "1003587",
        "stop_sequence": "42"
    },
    {
        "stop_name": "SJ20 USJ 5 (SELATAN)",
        "stop_lat": "3.053656",
        "stop_lon": "101.576694",
        "stop_id": "1003780",
        "stop_sequence": "43"
    },
    {
        "stop_name": "SJ25 USJ 11 PARK",
        "stop_lat": "3.0473865543074",
        "stop_lon": "101.57655345233",
        "stop_id": "1001503",
        "stop_sequence": "44"
    },
    {
        "stop_name": "SJ27 ARCADIA APARTMENT",
        "stop_lat": "3.039971",
        "stop_lon": "101.577693",
        "stop_id": "1000159",
        "stop_sequence": "45"
    },
    {
        "stop_name": "SJ28 USJ 9 (SELATAN)",
        "stop_lat": "3.039514",
        "stop_lon": "101.584697",
        "stop_id": "1004187",
        "stop_sequence": "46"
    },
    {
        "stop_name": "(M) SJ544 GOODYEAR COURT 10",
        "stop_lat": "3.037925",
        "stop_lon": "101.590717",
        "stop_id": "1001529",
        "stop_sequence": "47"
    },
    {
        "stop_name": "GOODYEAR COURT 9C (OPP)",
        "stop_lat": "3.0401184450352",
        "stop_lon": "101.59252720938",
        "stop_id": "1000883",
        "stop_sequence": "48"
    },
    {
        "stop_name": "SJ720 SUBANG PERDANA GOODYEAR COURT 6",
        "stop_lat": "3.043239",
        "stop_lon": "101.593236",
        "stop_id": "1009083",
        "stop_sequence": "49"
    },
    {
        "stop_name": "SJ689 ZON PERINDUSTRIAN USJ1",
        "stop_lat": "3.043265",
        "stop_lon": "101.595543",
        "stop_id": "1001859",
        "stop_sequence": "50"
    },
    {
        "stop_name": "SJ84 APARTMENT ANGSANA (SELATAN)",
        "stop_lat": "3.043265",
        "stop_lon": "101.600073",
        "stop_id": "1002364",
        "stop_sequence": "51"
    },
    {
        "stop_name": "SJ79 PANGSAPURI JATI1",
        "stop_lat": "3.044832",
        "stop_lon": "101.601621",
        "stop_id": "1002122",
        "stop_sequence": "52"
    },
    {
        "stop_name": "SJ628 MEDAN SELERA USJ1",
        "stop_lat": "3.046581",
        "stop_lon": "101.601258",
        "stop_id": "1008641",
        "stop_sequence": "53"
    },
    {
        "stop_name": "SJ80 PUSAT INDUSTRI IKS USJ1",
        "stop_lat": "3.048662",
        "stop_lon": "101.601492",
        "stop_id": "1003290",
        "stop_sequence": "54"
    },
    {
        "stop_name": "SJ629 TAMAN PERINDUSTRIAN USJ1",
        "stop_lat": "3.048568",
        "stop_lon": "101.605762",
        "stop_id": "1004184",
        "stop_sequence": "55"
    }
]