[{"id":"90013763","name":"Kampung Parit Melaka","lat":"2.34113","lon":"102.26268"},{"id":"90013762","name":"Kampung Harmony Belimbing Dalam 3","lat":"2.33778","lon":"102.26263"},{"id":"90013820","name":"Pusat Kegiatan Masyarakat Tangga Batu","lat":"2.24711","lon":"102.1579"},{"id":"90013548","name":"Taman Bertam Perdana 1","lat":"2.24046","lon":"102.2147"},{"id":"90013682","name":"Kampung Buloh Cina","lat":"2.39523","lon":"102.23721"},{"id":"90013903","name":"Kampung Bukit Balai","lat":"2.30524","lon":"102.26929"},{"id":"90013460","name":"Malim Jaya","lat":"2.23365","lon":"102.23163"},{"id":"90013686","name":"Ladang Kemuning","lat":"2.41167","lon":"102.24221"},{"id":"90013678","name":"Taman Seri Bayu","lat":"2.38366","lon":"102.21344"},{"id":"90013381","name":"Zoo Melaka","lat":"2.27595","lon":"102.29807"},{"id":"90013371","name":"Opp Tokong Yui Yang Keong","lat":"2.26682","lon":"102.28102"},{"id":"90013916","name":"Kampung Machap Baru","lat":"2.3798","lon":"102.33066"},{"id":"90013408","name":"Taman Puncak Bukit Katil","lat":"2.23734","lon":"102.3004"},{"id":"90013691","name":"Masjid Al-Najihin Padang Sebang","lat":"2.42104","lon":"102.25159"},{"id":"90013649","name":"Taman Paya Rumput Indah","lat":"2.29962","lon":"102.21635"},{"id":"90013934","name":"Hab Batang Melaka","lat":"2.47411","lon":"102.41833"},{"id":"90013979","name":"Kampung Kesang Luar","lat":"2.31786","lon":"102.40535"},{"id":"90013731","name":"Opp Mydin Ayer Keroh","lat":"2.26837","lon":"102.29307"},{"id":"90013784","name":"Opp Hospital Alor Gajah Luar","lat":"2.39574","lon":"102.20358"},{"id":"90013684","name":"Ayer Panas Gadek","lat":"2.40799","lon":"102.23896"},{"id":"90013734","name":"Opp Galeri Lebah Melaka","lat":"2.27923","lon":"102.3003"},{"id":"90013701","name":"Kampung Pulau Sebang","lat":"2.45275","lon":"102.23196"},{"id":"90013454","name":"Opp Smjk Tinggi Cina Melaka","lat":"2.22095","lon":"102.23674"},{"id":"90014483","name":"Kampung Pengkalan Batu","lat":"2.23354","lon":"102.26684"},{"id":"90013872","name":"SJK (C) Malim Melaka","lat":"2.23872","lon":"102.22456"},{"id":"90013747","name":"Kampung Pulau ","lat":"2.31344","lon":"102.27556"},{"id":"90013434","name":"Kampung Tengah 2","lat":"2.24859","lon":"102.25198"},{"id":"90013537","name":"Taman Melati","lat":"2.21043","lon":"102.2129"},{"id":"90013671","name":"Opp Sk Sungai Petai","lat":"2.35462","lon":"102.20904"},{"id":"90013835","name":"Plaza Sungai Udang","lat":"2.28456","lon":"102.13425"},{"id":"90013418","name":"Opp Aeon Bandaraya Melaka","lat":"2.21463","lon":"102.24812"},{"id":"90013602","name":"Puteri Qashrina Chalet","lat":"2.23502","lon":"102.14553"},{"id":"90013796","name":"Opp Taman Sri Melekek","lat":"2.41305","lon":"102.19455"},{"id":"90013971","name":"Taman Bemban","lat":"2.27616","lon":"102.37779"},{"id":"90013579","name":"PPR Tangga Batu","lat":"2.2466","lon":"102.16162"},{"id":"90013488","name":"Opp Taman Krubong Perdana","lat":"2.32781","lon":"102.24971"},{"id":"90013904","name":"Kampung Gangsa","lat":"2.30429","lon":"102.26831"},{"id":"90014016","name":"Kampung Baru On Lock","lat":"2.4656","lon":"102.37651"},{"id":"90013695","name":"Masjid Al Qaniteen","lat":"2.43337","lon":"102.24671"},{"id":"90013566","name":"Taman Rambai Mutiara","lat":"2.24882","lon":"102.18886"},{"id":"90013964","name":"Kampung Gapam","lat":"2.27523","lon":"102.33066"},{"id":"90013403","name":"Masjid Sayyidina Ali","lat":"2.2311","lon":"102.29261"},{"id":"90013646","name":"Rumah Awam Paya Rumput","lat":"2.29404","lon":"102.21489"},{"id":"90013448","name":"Taman Mas Merah","lat":"2.26493","lon":"102.25462"},{"id":"90013635","name":"Rumah Pangsa Hilir Kota","lat":"2.18692","lon":"102.26306"},{"id":"90013875","name":"Opp Rumah Awam Bertam Malim","lat":"2.24356","lon":"102.22334"},{"id":"90013851","name":"Petronas Masjid Tanah","lat":"2.3475","lon":"102.11023"},{"id":"90013739","name":"Jalan Durian Tunggal","lat":"2.31005","lon":"102.29846"},{"id":"90013982","name":"Kampung Air Barok 1","lat":"2.31178","lon":"102.41755"},{"id":"90013612","name":"Taman Tangga Batu","lat":"2.25434","lon":"102.14814"},{"id":"90013654","name":"SK Rumbia","lat":"2.3173","lon":"102.21666"},{"id":"90013894","name":"Taman Seri Daya","lat":"2.25521","lon":"102.25394"},{"id":"90013499","name":"SMK Malim","lat":"2.25219","lon":"102.22283"},{"id":"90013429","name":"Taman Pasir Puteh","lat":"2.23468","lon":"102.2427"},{"id":"90013837","name":"Pejabat Pos Sungai Udang","lat":"2.28917","lon":"102.13066"},{"id":"90013728","name":"Opp Ampang Steel","lat":"2.25758","lon":"102.2917"},{"id":"90013608","name":"Rumah Anak-Anak Yatim Sultan Salahuddin","lat":"2.24661","lon":"102.13895"},{"id":"90013976","name":"Kampung Kesang Jaya","lat":"2.31517","lon":"102.3963"},{"id":"90013972","name":"Kampung Bemban","lat":"2.28377","lon":"102.37463"},{"id":"90013862","name":"Taman Bidara Indah","lat":"2.33498","lon":"102.08735"},{"id":"90013451","name":"Taman Seri Songket","lat":"2.25955","lon":"102.25342"},{"id":"90013914","name":"Klinik Kesihatan Machap Baru","lat":"2.3771","lon":"102.33823"},{"id":"90013828","name":"Kampung Bukit Salleh","lat":"2.26332","lon":"102.14662"},{"id":"90013461","name":"Opp Malim Jaya","lat":"2.23353","lon":"102.23171"},{"id":"90013563","name":"Rumah Awam Bukit Rambai","lat":"2.24607","lon":"102.1922"},{"id":"90013749","name":"Jalan Pulau Melaka","lat":"2.31215","lon":"102.27268"},{"id":"90013475","name":"Taman Sri Krubong 2","lat":"2.2798","lon":"102.23096"},{"id":"90013871","name":"Taman Balai Panjang","lat":"2.23507","lon":"102.22437"},{"id":"90013688","name":"Taman Bukit Nangka","lat":"2.41594","lon":"102.24829"},{"id":"90013517","name":"Bertam Ulu Batu 10","lat":"2.2916","lon":"102.18273"},{"id":"90013974","name":"Taman Kesang Jaya","lat":"2.31176","lon":"102.39031"},{"id":"90014471","name":"SJK C Bukit Beruang","lat":"2.24262","lon":"102.27774"},{"id":"90014002","name":"Selera Simpang Bekoh","lat":"2.35675","lon":"102.51163"},{"id":"90013727","name":"Ampang Steel","lat":"2.25755","lon":"102.29181"},{"id":"90013513","name":"Opp Balai Raya Kampung Cheng","lat":"2.27831","lon":"102.21506"},{"id":"90013696","name":"SM Arab Al Asyraf","lat":"2.4388","lon":"102.241"},{"id":"90013777","name":"Kampung Balai","lat":"2.36585","lon":"102.22358"},{"id":"90013929","name":"Kampung Jus","lat":"2.42521","lon":"102.39841"},{"id":"90013585","name":"SJK(C) Ek Te","lat":"2.22197","lon":"102.17404"},{"id":"90013764","name":"Masjid Ar Rahman","lat":"2.3432","lon":"102.25768"},{"id":"90013536","name":"Oriental Melaka Straits Medical Centre","lat":"2.2095","lon":"102.21447"},{"id":"90013748","name":"Taman Cempaka 3","lat":"2.31428","lon":"102.27752"},{"id":"90013484","name":"Taman 1 Krubong","lat":"2.30361","lon":"102.2528"},{"id":"90013555","name":"Balai Polis Batang Tiga","lat":"2.22084","lon":"102.18733"},{"id":"90013736","name":"Pintu Gerbang Melaka","lat":"2.28765","lon":"102.30424"},{"id":"90014013","name":"Taman Gunung Asahan","lat":"2.39509","lon":"102.55097"},{"id":"90013589","name":"Kampung Tanjung Kling","lat":"2.2217","lon":"102.16488"},{"id":"90013873","name":"Opp SJK (C) Malim Melaka","lat":"2.23869","lon":"102.22447"},{"id":"90013665","name":"Taman Sungai Petai Bahagia","lat":"2.33785","lon":"102.20942"},{"id":"90013359","name":"SK Batu Berendam 1","lat":"2.24807","lon":"102.25553"},{"id":"90013415","name":"Opp Lotus Melaka","lat":"2.21665","lon":"102.2481"},{"id":"90013821","name":"Balai Raya Tangga Batu","lat":"2.24931","lon":"102.15611"},{"id":"90013772","name":"Klinik Desa Melaka Pindah","lat":"2.35799","lon":"102.22994"},{"id":"90013416","name":"Lotus Melaka","lat":"2.21668","lon":"102.24798"},{"id":"90013557","name":"Dhammacakka Buddist Vihara","lat":"2.23211","lon":"102.19051"},{"id":"90013388","name":"Perbadanan Perpustakaan Awam Melaka","lat":"2.21645","lon":"102.26958"},{"id":"90013572","name":"Klinik Kesihatan Bukit Rambai","lat":"2.25471","lon":"102.18017"},{"id":"90013619","name":"Hotel Orkid","lat":"2.20096","lon":"102.25278"},{"id":"90013760","name":"Kampung Harmony Belimbing Dalam 1","lat":"2.33477","lon":"102.26256"},{"id":"90013853","name":"SK Bukit Beringin","lat":"2.35247","lon":"102.09921"},{"id":"90013462","name":"Pasar Malim Jaya","lat":"2.23891","lon":"102.23369"},{"id":"90013829","name":"Surau Sungai Udang Jaya","lat":"2.26885","lon":"102.14357"},{"id":"90007918","name":"Melaka Sentral","lat":"2.22045","lon":"102.2507"},{"id":"90013769","name":"Taman Sri Tuah","lat":"2.34631","lon":"102.25142"},{"id":"90013498","name":"SK Malim","lat":"2.25058","lon":"102.2229"},{"id":"90013674","name":"SMK Dato Dol Said","lat":"2.37416","lon":"102.20784"},{"id":"90013597","name":"Kampung Pengkalan Perigi ","lat":"2.22633","lon":"102.15228"},{"id":"90013673","name":"Taman Perindustrian Kelemak","lat":"2.36387","lon":"102.20867"},{"id":"90014480","name":"Opp Kolej Komuniti Bukit Berung","lat":"2.25605","lon":"102.27835"},{"id":"90013832","name":"Retoran Cahaya Bugis","lat":"2.28067","lon":"102.13562"},{"id":"90013627","name":"Kampung Bandar Hilir/Jalan Imam Jh Mohd ","lat":"2.18902","lon":"102.26053"},{"id":"90013600","name":"Medan Selera Pantai Rombang","lat":"2.22975","lon":"102.14824"},{"id":"90013906","name":"Smk Durian Tunggal","lat":"2.30857","lon":"102.27577"},{"id":"90014469","name":"SK Bukit Beruang","lat":"2.23958","lon":"102.27955"},{"id":"90013657","name":"Opp Taman Rembia Perkasa","lat":"2.32254","lon":"102.21346"},{"id":"90013699","name":"Kampung Pulau Sebang Selatan 1","lat":"2.44478","lon":"102.23504"},{"id":"90013958","name":"Seri Negeri","lat":"2.26523","lon":"102.30071"},{"id":"90013966","name":"Durable Farm & Resort Bemban","lat":"2.27601","lon":"102.35444"},{"id":"90013771","name":"Simpang Jalan Wajib","lat":"2.3507","lon":"102.24458"},{"id":"90013680","name":"Klinik Desa Pegoh","lat":"2.38756","lon":"102.21742"},{"id":"90013876","name":"Klinik Desa Belimbing","lat":"2.31838","lon":"102.2592"},{"id":"90013358","name":"Opp SK Batu Berendam 2","lat":"2.24343","lon":"102.25749"},{"id":"90013895","name":"Taman Seri Bayan","lat":"2.27927","lon":"102.26034"},{"id":"90013937","name":"Taman Negeri Melaka","lat":"2.41167","lon":"102.34733"},{"id":"90013355","name":"Taman Ara","lat":"2.24679","lon":"102.25638"},{"id":"90013638","name":"Pasar Besar Mbsb","lat":"2.23501","lon":"102.24822"},{"id":"90013539","name":"Masjid Saad Ibni Abi Waqqas","lat":"2.21653","lon":"102.20421"},{"id":"90013516","name":"Taman Bertam Indah","lat":"2.2827","lon":"102.19687"},{"id":"90013636","name":"Opp Petronas Bachang","lat":"2.23721","lon":"102.24699"},{"id":"90013985","name":"Terminal Jasin Sentral","lat":"2.31327","lon":"102.43113"},{"id":"90013793","name":"Opp Surau Kampung Solok Sinda Paya Datok","lat":"2.41043","lon":"102.19513"},{"id":"90013754","name":"Simpang Jalan Bunga Ros","lat":"2.31534","lon":"102.25958"},{"id":"90014003","name":"Klinik Kesihatan Simpang Bekoh","lat":"2.35842","lon":"102.51197"},{"id":"90013831","name":"SK Sungai Udang","lat":"2.27728","lon":"102.13959"},{"id":"90013720","name":"SMS Muzaffar Shah","lat":"2.24358","lon":"102.29075"},{"id":"90013928","name":"Empangan Jus","lat":"2.45288","lon":"102.40832"},{"id":"90013870","name":"Opp Taman Balai Panjang","lat":"2.23533","lon":"102.2244"},{"id":"90013471","name":"Taman Teknologi Cheng","lat":"2.25732","lon":"102.23096"},{"id":"90013819","name":"Klinik Kesihatan Seri Tanjung","lat":"2.24303","lon":"102.15865"},{"id":"90013779","name":"Rumah Awam Seri Pengkalan","lat":"2.3728","lon":"102.22186"},{"id":"90013410","name":"Kampung Desa Tersusun","lat":"2.24414","lon":"102.30006"},{"id":"90013705","name":"Opp Desa Pulau Sebang","lat":"2.45741","lon":"102.23104"},{"id":"90013596","name":"Kampung Balik Bukit 1","lat":"2.21824","lon":"102.15762"},{"id":"90013813","name":"Taman Bukit Gedong 1","lat":"2.22602","lon":"102.1588"},{"id":"90013582","name":"Seri Bayan Condominium","lat":"2.22132","lon":"102.18227"},{"id":"90013847","name":"Kampung Pulau Semut","lat":"2.334","lon":"102.1188"},{"id":"90013787","name":"Hospital Alor Gajah","lat":"2.39603","lon":"102.20174"},{"id":"90013605","name":"Kampung Pantai Kundor","lat":"2.24614","lon":"102.14051"},{"id":"90013562","name":"Kampung Setulang Daing","lat":"2.24438","lon":"102.19307"},{"id":"90013975","name":"Kesang Damai","lat":"2.31414","lon":"102.3942"},{"id":"90013348","name":"Opp Sirim Melaka","lat":"2.22818","lon":"102.26185"},{"id":"90014484","name":"Putra Height Melaka","lat":"2.23177","lon":"102.26775"},{"id":"90013959","name":"Opp Taman Hang Tuah","lat":"2.26762","lon":"102.30662"},{"id":"90013740","name":"Taman Kenari Jaya","lat":"2.31301","lon":"102.29183"},{"id":"90013672","name":"Taman Sri Kelemak","lat":"2.36632","lon":"102.20747"},{"id":"90013576","name":"Taman Pizza Idaman","lat":"2.25768","lon":"102.16985"},{"id":"90013956","name":"Opp World Youth Foundation","lat":"2.26864","lon":"102.2956"},{"id":"90013468","name":"Pos Logistic","lat":"2.2483","lon":"102.22953"},{"id":"90013919","name":"Kampung Bera Bukit Sedanan","lat":"2.38048","lon":"102.35333"},{"id":"90013419","name":"Wisma Air","lat":"2.20419","lon":"102.24617"},{"id":"90013440","name":"Taman Merdeka","lat":"2.26703","lon":"102.24418"},{"id":"90013978","name":"Masjid Al Barakah Kampung Kesang Luar","lat":"2.31852","lon":"102.40321"},{"id":"90013918","name":"Kampung Ayer Pasir","lat":"2.37977","lon":"102.34604"},{"id":"90013505","name":"Opp Taman Cheng Permai","lat":"2.26682","lon":"102.2177"},{"id":"90013700","name":"Kampung Pulau Sebang Selatan 3","lat":"2.45049","lon":"102.2323"},{"id":"90013577","name":"Paya Luboh 2","lat":"2.25132","lon":"102.15928"},{"id":"90013856","name":"Kampung Londang 2","lat":"2.34697","lon":"102.09382"},{"id":"90013550","name":"Taman Mayfair","lat":"2.21808","lon":"102.19827"},{"id":"90013920","name":"Klinik Kesihatan Selandar","lat":"2.38754","lon":"102.37253"},{"id":"90013623","name":"Muzium Samudera","lat":"2.19202","lon":"102.24686"},{"id":"90013483","name":"Opp Taman Krubong Indah","lat":"2.29631","lon":"102.24719"},{"id":"90013954","name":"Taman Seribu Bunga","lat":"2.26652","lon":"102.29766"},{"id":"90013927","name":"Kolej Komuniti Selandar","lat":"2.40009","lon":"102.38514"},{"id":"90013529","name":"Taman Siantan / Masjid Tengkera","lat":"2.20385","lon":"102.23201"},{"id":"90014010","name":"Kampung Bukit Asahan","lat":"2.38833","lon":"102.53766"},{"id":"90013567","name":"Taman Rambai Mesra","lat":"2.25075","lon":"102.18552"},{"id":"90013792","name":"Balai Raya JPKK Kampung Paya Datok","lat":"2.40476","lon":"102.19786"},{"id":"90013962","name":"Opp Melaka Golf & Country Club","lat":"2.26863","lon":"102.32056"},{"id":"90013507","name":"Opp Gerai MBMB Taman Cheng Baru","lat":"2.26905","lon":"102.21716"},{"id":"90013661","name":"Taman Rembia Jaya","lat":"2.32769","lon":"102.20885"},{"id":"90013773","name":"SK Melaka Pindah","lat":"2.35936","lon":"102.22999"},{"id":"90013949","name":"Taman Seri Hilir","lat":"2.46368","lon":"102.37861"},{"id":"90013980","name":"Kampung Ayer Perah","lat":"2.31514","lon":"102.40902"},{"id":"90013893","name":"Opp Taman Seri Daya","lat":"2.25525","lon":"102.25403"},{"id":"90013444","name":"Opp Taman Angkasa Nuri","lat":"2.27384","lon":"102.24772"},{"id":"90013543","name":"Taman Pulau Gadong Jaya","lat":"2.22792","lon":"102.20736"},{"id":"90013393","name":"Balai Polis Bukit Baru","lat":"2.22462","lon":"102.27636"},{"id":"90013826","name":"Kampung Paya Rumput Jaya","lat":"2.26218","lon":"102.14968"},{"id":"90013713","name":"Opp International College Of Yayasan Mel","lat":"2.22695","lon":"102.26674"},{"id":"90014014","name":"Masjid Kariah Asahan","lat":"2.39575","lon":"102.554"},{"id":"90013534","name":"Kuih Keria Haji Jalil","lat":"2.20463","lon":"102.22326"},{"id":"90013797","name":"Opp SMK Naning","lat":"2.42522","lon":"102.19164"},{"id":"90013551","name":"Taman Kenanga","lat":"2.218","lon":"102.20077"},{"id":"90013802","name":"Opp Muzium Warisan Naning Melaka","lat":"2.43571","lon":"102.1846"},{"id":"90013969","name":"Kompleks Japerun Bemban","lat":"2.2706","lon":"102.37648"},{"id":"90013369","name":"Taman Putat Indah","lat":"2.2566","lon":"102.26789"},{"id":"90013487","name":"Jalan 1 Krubong Gate 2","lat":"2.30662","lon":"102.25182"},{"id":"90014015","name":"Taman Seri Asahan","lat":"2.39999","lon":"102.56399"},{"id":"90013578","name":"Paya Luboh 3","lat":"2.24807","lon":"102.16033"},{"id":"90013986","name":"Sjk(C) Yu Hsien","lat":"2.31357","lon":"102.43363"},{"id":"90013464","name":"Perindustrian Malim Jaya","lat":"2.24148","lon":"102.23498"},{"id":"90013663","name":"Taman Bukit Rumbia","lat":"2.33298","lon":"102.20945"},{"id":"90013616","name":"RTM Melaka","lat":"2.21233","lon":"102.25583"},{"id":"90013472","name":"Nsk Trade City (Melaka)","lat":"2.2612","lon":"102.23394"},{"id":"90013710","name":"Terminal Bas Tampin","lat":"2.46479","lon":"102.22641"},{"id":"90013857","name":"Dewan Londang","lat":"2.34536","lon":"102.09344"},{"id":"90013868","name":"Pantai Pengkalan Balak","lat":"2.32272","lon":"102.06982"},{"id":"90013430","name":"Taman Bachang Baru 1","lat":"2.2423","lon":"102.24731"},{"id":"90014468","name":"Opp SK Bukit Beruang","lat":"2.2395","lon":"102.2796"},{"id":"90013741","name":"Madrasah Nahdatul Hasanah","lat":"2.31353","lon":"102.29047"},{"id":"90013481","name":"Kampung Ladang Melaka","lat":"2.29226","lon":"102.24322"},{"id":"90013607","name":"SK Pantai Kundor","lat":"2.2522","lon":"102.1384"},{"id":"90013724","name":"Rumah Pangsa Murni","lat":"2.25112","lon":"102.29164"},{"id":"90013963","name":"Opp Kampung Gapam","lat":"2.27497","lon":"102.32977"},{"id":"90013840","name":"SMK Sungai Udang","lat":"2.29451","lon":"102.1339"},{"id":"90013502","name":"Taman Cheng Utama","lat":"2.25723","lon":"102.22213"},{"id":"90013411","name":"Ins. Lat. Perindustrian Bukit Katil","lat":"2.2402","lon":"102.29994"},{"id":"90013814","name":"Taman Bukit Gedong 2","lat":"2.22919","lon":"102.15835"},{"id":"90013761","name":"Kampung Harmony Belimbing Dalam 2","lat":"2.33606","lon":"102.26261"},{"id":"90014006","name":"Taman Kasturi","lat":"2.36579","lon":"102.51541"},{"id":"90013743","name":"Balai Polis Durian Tunggal","lat":"2.31213","lon":"102.28374"},{"id":"90013603","name":"Masjid Km13","lat":"2.23663","lon":"102.1447"},{"id":"90013689","name":"Taman Sebang Mutiara","lat":"2.41786","lon":"102.25083"},{"id":"90013479","name":"Lt Hardware","lat":"2.28578","lon":"102.24152"},{"id":"90013405","name":"Opp Taman Merak","lat":"2.22967","lon":"102.29405"},{"id":"90013827","name":"Kampung Sungai Udang Jaya","lat":"2.26789","lon":"102.14492"},{"id":"90013905","name":"Kampung Baru Bukit Balai","lat":"2.30955","lon":"102.27825"},{"id":"90013424","name":"Taman Widuri","lat":"2.22814","lon":"102.24206"},{"id":"90013549","name":"Taman Bertam Perdana 2","lat":"2.24321","lon":"102.21646"},{"id":"90014478","name":"MMU Melaka","lat":"2.25233","lon":"102.27595"},{"id":"90013465","name":"Opp Perindustrian Malim Jaya","lat":"2.24151","lon":"102.2349"},{"id":"90013786","name":"Taman Ind. Kecik & Sederhana Paya Datok","lat":"2.3908","lon":"102.20604"},{"id":"90013960","name":"Taman Hang Tuah","lat":"2.26743","lon":"102.30652"},{"id":"90013815","name":"Kampung Bukit Darat","lat":"2.23191","lon":"102.15929"},{"id":"90013425","name":"Kampung Baroh","lat":"2.22558","lon":"102.24182"},{"id":"90013931","name":"SBPI Batang Melaka","lat":"2.46381","lon":"102.4118"},{"id":"90013442","name":"Taman Merdeka Jaya","lat":"2.27131","lon":"102.24631"},{"id":"90013946","name":"Klinik Desa Tebong","lat":"2.45471","lon":"102.34043"},{"id":"90013352","name":"Opp Kiara Apartment Taman Mutiara","lat":"2.2376","lon":"102.26036"},{"id":"90013664","name":"Opp Taman Sungai Petai Bahagia","lat":"2.338","lon":"102.20956"},{"id":"90013397","name":"Opp Kompleks Mahkamah Melaka","lat":"2.23489","lon":"102.28528"},{"id":"90013759","name":"Jalan Bunga Kesuang","lat":"2.33381","lon":"102.26254"},{"id":"90013655","name":"Opp SK Rumbia","lat":"2.31744","lon":"102.21679"},{"id":"90013568","name":"Kampung Paya Mengkuang Melaka","lat":"2.25151","lon":"102.18472"},{"id":"90013667","name":"Opp Rumah Awam Sungai Petai","lat":"2.34649","lon":"102.20505"},{"id":"90013723","name":"Opp Rumah Pangsa Murni","lat":"2.25103","lon":"102.29176"},{"id":"90013843","name":"Kem Masjid Tanah","lat":"2.32258","lon":"102.13235"},{"id":"90013610","name":"Kawasan Perindustrian Tangga Batu","lat":"2.25479","lon":"102.14374"},{"id":"90013729","name":"Opp Dewan Kasturi Ayer Keroh","lat":"2.25933","lon":"102.29185"},{"id":"90013366","name":"Opp Taman Beringin Melaka","lat":"2.257","lon":"102.25997"},{"id":"90013626","name":"Pangsapuri Seri Bukit","lat":"2.18921","lon":"102.26558"},{"id":"90013737","name":"Serama Camps & Resort","lat":"2.30879","lon":"102.30018"},{"id":"90013987","name":"Masjid At Taqwa Kampung Rim","lat":"2.31131","lon":"102.44062"},{"id":"90013452","name":"Opp Taman Seri Songket","lat":"2.25954","lon":"102.2533"},{"id":"90013702","name":"Taman Mahsuri","lat":"2.45579","lon":"102.23155"},{"id":"90013708","name":"Stesen Keretapi Pulau Sebang","lat":"2.46243","lon":"102.23019"},{"id":"90013399","name":"Pantai Hospital Meaka","lat":"2.2371","lon":"102.28748"},{"id":"90013450","name":"Opp Airport Fire And Rescue","lat":"2.26219","lon":"102.25394"},{"id":"90013501","name":"Opp Taman Cheng Utama","lat":"2.25715","lon":"102.22203"},{"id":"90013463","name":"Opp Pasar Malim Jaya","lat":"2.23895","lon":"102.23383"},{"id":"90013670","name":"Sk Sungai Petai","lat":"2.35463","lon":"102.20886"},{"id":"90013480","name":"Opp Lt Hardware","lat":"2.28585","lon":"102.24142"},{"id":"90013776","name":"Masjid Ubaidah Melaka","lat":"2.36171","lon":"102.22828"},{"id":"90013363","name":"SMK Tun Mahathir","lat":"2.25601","lon":"102.25664"},{"id":"90013367","name":"Mango Float Royale","lat":"2.25585","lon":"102.26387"},{"id":"90013768","name":"Kampung Pachor","lat":"2.34989","lon":"102.24845"},{"id":"90013584","name":"Taman Panjang Impian","lat":"2.22157","lon":"102.18122"},{"id":"90013901","name":"Kampung Tualang","lat":"2.29463","lon":"102.26278"},{"id":"90013838","name":"Melaka Tropical Fruit Farm","lat":"2.29052","lon":"102.13116"},{"id":"90013357","name":"SK Batu Berendam 2","lat":"2.24436","lon":"102.25718"},{"id":"90013453","name":"Taman Mekar","lat":"2.2709","lon":"102.25799"},{"id":"90013807","name":"Rumah Asam Pedas Melaka","lat":"2.45791","lon":"102.17955"},{"id":"90013968","name":"SK Sri Bemban","lat":"2.26954","lon":"102.37468"},{"id":"90013445","name":"Opp Taman Angkasa Nuri 2","lat":"2.28004","lon":"102.25348"},{"id":"90013676","name":"Kampung Kelemak","lat":"2.37681","lon":"102.20923"},{"id":"90013527","name":"Persatuan Badminton Melaka","lat":"2.2027","lon":"102.23574"},{"id":"90013965","name":"Anjung Gapam","lat":"2.27487","lon":"102.36219"},{"id":"90013489","name":"Taman Krubong Perdana","lat":"2.3278","lon":"102.24962"},{"id":"90014474","name":"Taman Kerjasama","lat":"2.24519","lon":"102.27153"},{"id":"90013692","name":"Sk Padang Sebang","lat":"2.42678","lon":"102.25009"},{"id":"90013800","name":"Klinik Desa Melekek","lat":"2.43026","lon":"102.187"},{"id":"90013382","name":"Mini Malaysia","lat":"2.28355","lon":"102.30352"},{"id":"90013970","name":"SMK Seri Bemban","lat":"2.27211","lon":"102.37683"},{"id":"90013811","name":"Kampung Solok Biak","lat":"2.22389","lon":"102.16008"},{"id":"90013941","name":"SJK (T) Pekan Tebong","lat":"2.44083","lon":"102.34006"},{"id":"90013354","name":"Opp Taman Mutiara Melaka","lat":"2.24047","lon":"102.2589"},{"id":"90013874","name":"Rumah Awam Bertam Malim","lat":"2.24355","lon":"102.22322"},{"id":"90013373","name":"Kampung Baru Ayer Keroh","lat":"2.26561","lon":"102.28275"},{"id":"90013349","name":"Texas Instrument","lat":"2.23301","lon":"102.26207"},{"id":"90013651","name":"Opp Paya Rumput","lat":"2.30526","lon":"102.21431"},{"id":"90013436","name":"Klinik Desa Batu Beremdam","lat":"2.24981","lon":"102.25178"},{"id":"90013640","name":"Opp Taman Paya Rumput Bistari","lat":"2.28459","lon":"102.21439"},{"id":"90013685","name":"SK Ganun","lat":"2.4094","lon":"102.23965"},{"id":"90013432","name":"Kampung Tengah 1","lat":"2.24716","lon":"102.25078"},{"id":"90013553","name":"Pantai Klebang","lat":"2.2195","lon":"102.19184"},{"id":"90013652","name":"Opp Taman Permai","lat":"2.31064","lon":"102.21752"},{"id":"90013394","name":"Jabatan Pendidikan Melaka Bukit Baru","lat":"2.22649","lon":"102.27666"},{"id":"90013732","name":"Mydin Ayer Keroh","lat":"2.2688","lon":"102.29305"},{"id":"90013554","name":"Opp Pantai Klebang","lat":"2.21946","lon":"102.19225"},{"id":"90013697","name":"Kampung Tanjung Rimau","lat":"2.44041","lon":"102.23895"},{"id":"90013639","name":"Taman Pasir Puteh/Lorong Haji Salleh","lat":"2.23456","lon":"102.24269"},{"id":"90013726","name":"Ayer Keroh Heights","lat":"2.2547","lon":"102.29167"},{"id":"90013730","name":"Dewan Kasturi Ayer Keroh","lat":"2.25927","lon":"102.29173"},{"id":"90014473","name":"Taman Faridah","lat":"2.24674","lon":"102.27508"},{"id":"90013992","name":"Bukit Katong","lat":"2.31977","lon":"102.46066"},{"id":"90013744","name":"Medan Selera Durian Tunggal","lat":"2.312","lon":"102.28298"},{"id":"90013662","name":"Opp Taman Bukit Rumbia","lat":"2.33361","lon":"102.20953"},{"id":"90013412","name":"SK Kg Tun Razak","lat":"2.24323","lon":"102.30957"},{"id":"90013803","name":"Sultan Salai","lat":"2.44922","lon":"102.18173"},{"id":"90014479","name":"Kolej Komuniti Bukit Berung","lat":"2.25602","lon":"102.27841"},{"id":"90013379","name":"MITC","lat":"2.27156","lon":"102.28601"},{"id":"90013525","name":"Jalan Ong Kim Wee","lat":"2.20227","lon":"102.24353"},{"id":"90013594","name":"Kampung Hailam","lat":"2.21796","lon":"102.16034"},{"id":"90013569","name":"Kampung Daya Wawasan","lat":"2.25318","lon":"102.18126"},{"id":"90013712","name":"Opp Kampung Batu Hampar","lat":"2.2257","lon":"102.26342"},{"id":"90013400","name":"Taman Baru Bukit Katil","lat":"2.23242","lon":"102.29069"},{"id":"90013530","name":"SMK (P) Methodist","lat":"2.20346","lon":"102.23385"},{"id":"90013666","name":"Rumah Awam Sungai Petai","lat":"2.34644","lon":"102.20519"},{"id":"90013633","name":"Hotel Coastal Park","lat":"2.1874","lon":"102.26991"},{"id":"90013854","name":"Kampung Londang","lat":"2.34988","lon":"102.09647"},{"id":"90013869","name":"Melaka Sentral 2","lat":"2.22009","lon":"102.25072"},{"id":"90013794","name":"Surau Kampung Solok Sinda Paya Datok","lat":"2.41039","lon":"102.19525"},{"id":"90013606","name":"Pantai Kundor","lat":"2.2397","lon":"102.14299"},{"id":"90013609","name":"Jalan Solok Haji Othman","lat":"2.25427","lon":"102.1413"},{"id":"90013428","name":"Kampung Bachang Barat","lat":"2.23742","lon":"102.24295"},{"id":"90013722","name":"Opp Mamee Ayer Keroh","lat":"2.24696","lon":"102.29249"},{"id":"90013391","name":"Kampung Bukit Baru Dalam","lat":"2.21901","lon":"102.27432"},{"id":"90013395","name":"Opp Aeon Ayer Keroh","lat":"2.23288","lon":"102.28268"},{"id":"90013455","name":"Smjk Tinggi Cina Melaka","lat":"2.22082","lon":"102.23679"},{"id":"90013790","name":"Masjid Al-Jauhari","lat":"2.40268","lon":"102.19975"},{"id":"90013377","name":"Wisma Negeri","lat":"2.27186","lon":"102.28909"},{"id":"90013496","name":"Taman Bertam Malim","lat":"2.24796","lon":"102.22297"},{"id":"90013742","name":"Poliklinik Durian Tunggal","lat":"2.3124","lon":"102.28494"},{"id":"90013681","name":"Jalan Haji Mat Top","lat":"2.40102","lon":"102.23796"},{"id":"90013948","name":"Balai Polis Tebong","lat":"2.46441","lon":"102.3438"},{"id":"90013447","name":"Opp Taman Mas Merah","lat":"2.265","lon":"102.25455"},{"id":"90013613","name":"Taman Saujana Seksyen 2","lat":"2.23711","lon":"102.30193"},{"id":"90013989","name":"Dodol Warisan Abah Taman Rim","lat":"2.31176","lon":"102.44714"},{"id":"90013350","name":"Opp Texas Instrument","lat":"2.23222","lon":"102.2619"},{"id":"90013765","name":"Kampung Beringin","lat":"2.34109","lon":"102.25962"},{"id":"90013907","name":"Durian Tunggal","lat":"2.31723","lon":"102.28456"},{"id":"90013628","name":"Pangsapuri Pasir Mutiara","lat":"2.18709","lon":"102.27137"},{"id":"90013491","name":"Taman Inang Sari","lat":"2.33423","lon":"102.25168"},{"id":"90013459","name":"Balai Panjang","lat":"2.22659","lon":"102.23037"},{"id":"90013392","name":"Sekolah Tinggi St David","lat":"2.22123","lon":"102.27663"},{"id":"90013809","name":"UniKL Melaka","lat":"2.45684","lon":"102.17099"},{"id":"90013538","name":"Lagenda Condo","lat":"2.21201","lon":"102.21004"},{"id":"90013409","name":"Kolej Vokasional Melaka Tengah","lat":"2.23577","lon":"102.3006"},{"id":"90013750","name":"Kampung Tengah Durian Tunggal","lat":"2.31152","lon":"102.27007"},{"id":"90012965","name":"Aeon Ayer Keroh","lat":"2.23296","lon":"102.28259"},{"id":"90013372","name":"Tokong Yui Yang Keong","lat":"2.26612","lon":"102.2806"},{"id":"90013439","name":"Opp Taman Merdeka","lat":"2.26717","lon":"102.24417"},{"id":"90013645","name":"Opp Taman Seri Paya Rumput","lat":"2.28992","lon":"102.213"},{"id":"90013446","name":"Opp Taman Mekar","lat":"2.27096","lon":"102.25794"},{"id":"90013523","name":"Persatuan Low Melaka","lat":"2.19774","lon":"102.24347"},{"id":"90013561","name":"Masjid Al Falah","lat":"2.24287","lon":"102.19344"},{"id":"90013757","name":"Jalan Bunga Anggerik","lat":"2.32697","lon":"102.2605"},{"id":"90013532","name":"SK Tengkera 1 & 2","lat":"2.20443","lon":"102.2268"},{"id":"90014004","name":"Sjk(C) Simpang Bekoh","lat":"2.35903","lon":"102.51206"},{"id":"90013656","name":"Taman Rembia Perkasa","lat":"2.32264","lon":"102.21366"},{"id":"90013925","name":"Balai Polis Selandar","lat":"2.39066","lon":"102.37976"},{"id":"90013953","name":"Opp Taman Seribu Bunga","lat":"2.2665","lon":"102.29753"},{"id":"90013389","name":"Taman Bahagia","lat":"2.21669","lon":"102.27061"},{"id":"90013531","name":"Kampong Sembilan","lat":"2.20448","lon":"102.22846"},{"id":"90013694","name":"Kampung Tanjong Rimau Luar","lat":"2.43019","lon":"102.24911"},{"id":"90013402","name":"Opp Masjid Sayyidina Ali","lat":"2.23115","lon":"102.29237"},{"id":"90013413","name":"Opp SK Kg Tun Razakk","lat":"2.24298","lon":"102.31028"},{"id":"90013775","name":"Simpang Jalan Ujong Padang 2","lat":"2.36222","lon":"102.22706"},{"id":"90013457","name":"Taman Malim Indah","lat":"2.22439","lon":"102.23227"},{"id":"90013900","name":"Sra Gangsa","lat":"2.28362","lon":"102.2625"},{"id":"90013675","name":"Balai Raya Jkkk Kelemak Jaya","lat":"2.37163","lon":"102.20638"},{"id":"90013755","name":"SK Belimbing Dalam","lat":"2.31967","lon":"102.25917"},{"id":"90013841","name":"Akademi Rela Malaysia Sungai Udang","lat":"2.29731","lon":"102.13282"},{"id":"90013565","name":"Maahad Tahfiz Kasyfu Al Ulum","lat":"2.24975","lon":"102.18675"},{"id":"90013427","name":"Masjid Ar-Razzaq","lat":"2.23166","lon":"102.24243"},{"id":"90013611","name":"Klinik Kesihatan Tangga Batu","lat":"2.25361","lon":"102.15104"},{"id":"90013924","name":"ILP Selandar","lat":"2.39586","lon":"102.38212"},{"id":"90013716","name":"Taman Sentosa Melaka","lat":"2.23042","lon":"102.27573"},{"id":"90013512","name":"Rumah Seri Kenangan Taman Cheng","lat":"2.27446","lon":"102.21578"},{"id":"90013799","name":"Opp Klinik Desa Melekek","lat":"2.43035","lon":"102.18711"},{"id":"90013735","name":"Opp Pintu Gerbang Melaka","lat":"2.28765","lon":"102.30433"},{"id":"90013824","name":"Masjid Batu 10 Tangga Batu","lat":"2.25935","lon":"102.1525"},{"id":"90013867","name":"Giat Mara Pengkalan Balak","lat":"2.32363","lon":"102.07273"},{"id":"90013615","name":"Opp Mahkota Medical Centre","lat":"2.186982862202488","lon":"102.251318"},{"id":"90013995","name":"Pondak Polis Chabau","lat":"2.33388","lon":"102.50516"},{"id":"90013560","name":"Taman Rambai Tengah","lat":"2.23701","lon":"102.19223"},{"id":"90013473","name":"Taman Sri Krubong/Goldsta","lat":"2.26838","lon":"102.23161"},{"id":"90013850","name":"Surau Ad Diniah Kampung Masjid Tanah","lat":"2.34471","lon":"102.11203"},{"id":"90013766","name":"Jalan Imam Abu","lat":"2.34441","lon":"102.2526"},{"id":"90013940","name":"Ladang Tebong","lat":"2.4347","lon":"102.33912"},{"id":"90013899","name":"Opp Sra Gangsa","lat":"2.28365","lon":"102.26259"},{"id":"90013433","name":"Taman Bachang Baru 2","lat":"2.24547","lon":"102.24969"},{"id":"90013658","name":"Opp Taman Rembia Cemerlang","lat":"2.32583","lon":"102.21019"},{"id":"90013514","name":"Balai Raya Kampung Cheng","lat":"2.27836","lon":"102.21496"},{"id":"90013467","name":"Taman Bertam Mutiara","lat":"2.24577","lon":"102.23402"},{"id":"90013486","name":"Opp Jalan 1 Krubong Gate 2","lat":"2.30671","lon":"102.25191"},{"id":"90013644","name":"Taman Seri Paya Rumput","lat":"2.28991","lon":"102.21311"},{"id":"90013865","name":"Taman Perindustrian Masjid Tanah","lat":"2.32613","lon":"102.08205"},{"id":"90013533","name":"Warung Hajjah Robiah","lat":"2.20449","lon":"102.22526"},{"id":"90013789","name":"Opp Masjid Al-Jauhari","lat":"2.40287","lon":"102.19974"},{"id":"90013643","name":"Rumah Panjang Paya Rumput","lat":"2.28741","lon":"102.21357"},{"id":"90013839","name":"Opp SMK Sungai Udang","lat":"2.29451","lon":"102.13381"},{"id":"90013441","name":"Opp Taman Merdeka Jaya","lat":"2.27134","lon":"102.24644"},{"id":"90013909","name":"Kampung Padang Kerbau","lat":"2.31985","lon":"102.28742"},{"id":"90013497","name":"Opp SK Malim","lat":"2.25055","lon":"102.22284"},{"id":"90013804","name":"Kedai Makan Che Som 3 Beradik","lat":"2.44622","lon":"102.18242"},{"id":"90013506","name":"Taman Cheng Permai","lat":"2.26645","lon":"102.21766"},{"id":"90013521","name":"SJK (C) Yok Bin","lat":"2.20029","lon":"102.24632"},{"id":"90014001","name":"Simpang Parit Keliling","lat":"2.35308","lon":"102.50995"},{"id":"90013707","name":"Mydin Pulau Sebang","lat":"2.462","lon":"102.23112"},{"id":"90013921","name":"Kampung Desa Mesra Sedanan","lat":"2.38152","lon":"102.35589"},{"id":"90013632","name":"Taman Kampong Atap","lat":"2.1882","lon":"102.26463"},{"id":"90014477","name":"Opp MMU Melaka","lat":"2.25195","lon":"102.27552"},{"id":"90013435","name":"Lapangan Terbang Antarabangsa Melaka","lat":"2.25546","lon":"102.25095"},{"id":"90013930","name":"Taman Batang Melaka","lat":"2.46677","lon":"102.41182"},{"id":"90013810","name":"ADTEC Melaka","lat":"2.45652","lon":"102.16932"},{"id":"90013421","name":"Medan Selera Tun Ali","lat":"2.20546","lon":"102.2478"},{"id":"90013510","name":"Opp Taman Cheng Perdana","lat":"2.27073","lon":"102.21665"},{"id":"90013714","name":"International College Of Yayasan Melaka/","lat":"2.22699","lon":"102.26662"},{"id":"90013896","name":"Opp Taman Seri Bayan","lat":"2.27923","lon":"102.2604"},{"id":"90013390","name":"Pangsapuri Seri Siantan","lat":"2.21701","lon":"102.27222"},{"id":"90013902","name":"Angsa Mas","lat":"2.29082","lon":"102.26247"},{"id":"90013845","name":"HRSB Holding","lat":"2.32853","lon":"102.12598"},{"id":"90013961","name":"Melaka Golf & Country Club","lat":"2.26869","lon":"102.32047"},{"id":"90013830","name":"Bilik Gerakan Tangga Batu","lat":"2.27316","lon":"102.14246"},{"id":"90013955","name":"World Youth Foundation","lat":"2.26867","lon":"102.29548"},{"id":"90013923","name":"SMK Selandar","lat":"2.38848","lon":"102.37515"},{"id":"90013544","name":"Simpang Lorong Pokok Manggis","lat":"2.22647","lon":"102.20699"},{"id":"90014005","name":"Simpang Bekoh","lat":"2.35982","lon":"102.51217"},{"id":"90014008","name":"Wemstar","lat":"2.37283","lon":"102.53267"},{"id":"90013753","name":"Kampung Bunga Kertas","lat":"2.31221","lon":"102.26057"},{"id":"90013717","name":"Opp Makmal Perubatan Pantai","lat":"2.23833","lon":"102.28887"},{"id":"90013581","name":"Marina Point","lat":"2.22102","lon":"102.18387"},{"id":"90013860","name":"SRA Londang","lat":"2.3394","lon":"102.08916"},{"id":"90013945","name":"SK Ladang Kemuning","lat":"2.45947","lon":"102.33884"},{"id":"90013913","name":"Kampung Simpang Garing","lat":"2.33054","lon":"102.31252"},{"id":"90013733","name":"Galeri Lebah Melaka","lat":"2.27928","lon":"102.3002"},{"id":"90014467","name":"Opp Pantai Hospital Melaka 2","lat":"2.23852","lon":"102.28708"},{"id":"90013385","name":"Taman Sin Hoe","lat":"2.21539","lon":"102.26662"},{"id":"90013524","name":"SMK Gajah Berang","lat":"2.20256","lon":"102.24108"},{"id":"90013926","name":"Taman Jus Perdana","lat":"2.40301","lon":"102.38519"},{"id":"90013950","name":"Genting Plantation","lat":"2.46323","lon":"102.38327"},{"id":"90013420","name":"Plaza Hang Tuah 2","lat":"2.20299","lon":"102.24803"},{"id":"90013999","name":"Chabau Estate","lat":"2.34875","lon":"102.50836"},{"id":"90013746","name":"Taman Cempaka 2","lat":"2.31446","lon":"102.2805"},{"id":"90013767","name":"Pekan Pantai Belimbing","lat":"2.34336","lon":"102.25632"},{"id":"90013782","name":"Pejabat Perikanan Daerah Alor Gajah","lat":"2.38044","lon":"102.2184"},{"id":"90013774","name":"Opp Masjid Ubaidah Melaka","lat":"2.36166","lon":"102.22825"},{"id":"90013356","name":"Opp Taman Ara","lat":"2.24676","lon":"102.25629"},{"id":"90013910","name":"LTK","lat":"2.32775","lon":"102.30098"},{"id":"90013474","name":"Umw Toyota","lat":"2.2735","lon":"102.22937"},{"id":"90013943","name":"Kampung Tebong Km24","lat":"2.44534","lon":"102.3423"},{"id":"90013522","name":"Melaka International School","lat":"2.19766","lon":"102.24431"},{"id":"90013485","name":"Opp Taman 1 Krubong","lat":"2.30367","lon":"102.25293"},{"id":"90013932","name":"SK Batang Melaka","lat":"2.47015","lon":"102.41206"},{"id":"90013494","name":"Opp Nsk Trade City (Melaka)","lat":"2.26028","lon":"102.22938"},{"id":"90013542","name":"SK Klebang Besar","lat":"2.22267","lon":"102.20562"},{"id":"90013703","name":"Kampung Pulau Sebang Utara","lat":"2.45483","lon":"102.23174"},{"id":"90013641","name":"Taman Paya Rumput Bistari","lat":"2.28457","lon":"102.21451"},{"id":"90013715","name":"Opp Taman Sentosa Melaka","lat":"2.23034","lon":"102.27566"},{"id":"90013861","name":"Jalan Hamid Othman","lat":"2.3386","lon":"102.08863"},{"id":"90013751","name":"Tadika Jaim Kampung Pulau","lat":"2.31089","lon":"102.26693"},{"id":"90013957","name":"Opp Seri Negeri","lat":"2.26515","lon":"102.30057"},{"id":"90013360","name":"Opp SK Batu Berendam 1","lat":"2.24813","lon":"102.2556"},{"id":"90013855","name":"Kampung Londang Batu 19","lat":"2.34885","lon":"102.09491"},{"id":"90013806","name":"Warong Asam Pedas P. Ramli","lat":"2.45547","lon":"102.1803"},{"id":"90013556","name":"Taman Muhibbah","lat":"2.21991","lon":"102.18982"},{"id":"90013647","name":"Opp Rumah Awam Paya Rumput","lat":"2.29417","lon":"102.21485"},{"id":"90013805","name":"Tanah Perkuburan Islam Taboh Naning","lat":"2.45311","lon":"102.18108"},{"id":"90013967","name":"Masjid Nurul Iman","lat":"2.27291","lon":"102.36701"},{"id":"90013466","name":"Opp Taman Bertam Mutiara","lat":"2.24583","lon":"102.23409"},{"id":"90013384","name":"UTEM","lat":"2.3135","lon":"102.3199"},{"id":"90014472","name":"Opp Taman Faridah","lat":"2.24662","lon":"102.27503"},{"id":"90014466","name":"Pantai Hospital Melaka 2","lat":"2.23844","lon":"102.28698"},{"id":"90013791","name":"Opp Balai Raya JPKK Kampung Paya Datok","lat":"2.4048","lon":"102.19798"},{"id":"90013586","name":"Sekolah Tunas Bakti / Ocean Palm Condo","lat":"2.22216","lon":"102.1762"},{"id":"90013587","name":"Taman Spring Garden","lat":"2.22181","lon":"102.17183"},{"id":"90013758","name":"Kampung Bunga Mawar","lat":"2.33045","lon":"102.26208"},{"id":"90013380","name":"Opp Zoo Melaka","lat":"2.27589","lon":"102.29796"},{"id":"90013898","name":"Taman Gangsa","lat":"2.28106","lon":"102.2617"},{"id":"90013816","name":"SMK Kampung Gelam","lat":"2.23315","lon":"102.16004"},{"id":"90013990","name":"Kastu Car Wash Taman Rim","lat":"2.31509","lon":"102.45154"},{"id":"90013668","name":"Opp Gajah Mati Sungai Petai","lat":"2.35211","lon":"102.20654"},{"id":"90013798","name":"SMK Naning","lat":"2.42528","lon":"102.19174"},{"id":"90013998","name":"Masjid Al Hidayah","lat":"2.34711","lon":"102.5076"},{"id":"90013981","name":"Kampung Ayer Perah 2","lat":"2.31339","lon":"102.41021"},{"id":"90013634","name":"CIMB Taman Kota Laksamana","lat":"2.19526","lon":"102.23791"},{"id":"90013495","name":"Opp Taman Bertam Malim","lat":"2.24791","lon":"102.22307"},{"id":"90013687","name":"Kampung Bukit Nangka","lat":"2.4137","lon":"102.24438"},{"id":"90013917","name":"Taman Rekreasi Datuk Wira Poh Ah Tiam","lat":"2.37981","lon":"102.32906"},{"id":"90013414","name":"Taman Bukit Katil Damai 2","lat":"2.24283","lon":"102.31353"},{"id":"90013912","name":"The Touch City","lat":"2.33076","lon":"102.32216"},{"id":"90013780","name":"Kuil Sri Sithi Vinayagar Sri Bala Subram","lat":"2.37676","lon":"102.22192"},{"id":"90013368","name":"Opp Mango Float Royale","lat":"2.25597","lon":"102.26343"},{"id":"90013361","name":"Coconut Shake Batu Berendam","lat":"2.25162","lon":"102.2539"},{"id":"90013778","name":"Taman Melaka Pindah","lat":"2.36828","lon":"102.22256"},{"id":"90013353","name":"Taman Mutiara Melaka","lat":"2.24074","lon":"102.25886"},{"id":"90013588","name":"SK Lereh","lat":"2.22172","lon":"102.16958"},{"id":"90013528","name":"Balai Polis Tengkera","lat":"2.20066","lon":"102.23955"},{"id":"90013508","name":"Gerai MBMB Taman Cheng Baru","lat":"2.269","lon":"102.21707"},{"id":"90014475","name":"Regal Park","lat":"2.24962","lon":"102.27414"},{"id":"90013374","name":"Klinik Kesihatan Air Keroh","lat":"2.26649","lon":"102.28455"},{"id":"90013592","name":"Masjid Bilal Bin Rabah Tanjong Kling","lat":"2.22131","lon":"102.16236"},{"id":"90014012","name":"Pejabat Pos Asahan","lat":"2.39345","lon":"102.54741"},{"id":"90013422","name":"Kampung Lapang Bachang","lat":"2.21433","lon":"102.24029"},{"id":"90013437","name":"Opp Taman Datuk Tamby Chik Karim","lat":"2.26316","lon":"102.24221"},{"id":"90013858","name":"Tabika Kemas Kampung Londang","lat":"2.34247","lon":"102.09126"},{"id":"90013650","name":"Paya Rumput","lat":"2.30541","lon":"102.21417"},{"id":"90013706","name":"Opp Mydin Pulau Sebang","lat":"2.4619","lon":"102.23108"},{"id":"90013922","name":"Pekan Selandar","lat":"2.38972","lon":"102.37873"},{"id":"90013833","name":"SJK (C) Sungai Udang","lat":"2.28224","lon":"102.13475"},{"id":"90013721","name":"Mamee Ayer Keroh","lat":"2.24694","lon":"102.29239"},{"id":"90013493","name":"Opp Taman Sri Krubong/Goldsta","lat":"2.26802","lon":"102.22754"},{"id":"90013908","name":"Surau Al Ehsan","lat":"2.32174","lon":"102.28916"},{"id":"90013574","name":"MJ Construction","lat":"2.2597","lon":"102.17621"},{"id":"90013370","name":"Opp Taman Putat Indah","lat":"2.25653","lon":"102.26751"},{"id":"90013364","name":"Opp SMK Tun Mahathir","lat":"2.25591","lon":"102.25627"},{"id":"90013783","name":"Pusat Perniagaan Jelatang","lat":"2.38349","lon":"102.21591"},{"id":"90013407","name":"JPJ Melaka","lat":"2.22907","lon":"102.29681"},{"id":"90013449","name":"Airport Fire And Rescue","lat":"2.26227","lon":"102.25384"},{"id":"90013683","name":"Balai Raya Kampung Gadek","lat":"2.40657","lon":"102.23828"},{"id":"90013490","name":"Kedai Nasi Ayam Jalan Pantai","lat":"2.33226","lon":"102.25011"},{"id":"90013515","name":"Opp Taman Bertam Indah","lat":"2.28989","lon":"102.20039"},{"id":"90013406","name":"Opp JPJ Melaka","lat":"2.22899","lon":"102.29694"},{"id":"90013637","name":"Security Force Bachang","lat":"2.23916","lon":"102.24394"},{"id":"90013598","name":"Kampung Lereh","lat":"2.22338","lon":"102.15508"},{"id":"90013426","name":"Jalan Salmah Baba","lat":"2.23343","lon":"102.24259"},{"id":"90013984","name":"Bulatan Kampung Air Barok","lat":"2.31039","lon":"102.42776"},{"id":"90013846","name":"Seri Emas Seafood","lat":"2.33026","lon":"102.12148"},{"id":"90013423","name":"Kampung Bakar Batu","lat":"2.22226","lon":"102.24154"},{"id":"90013951","name":"Kampung Batang Melaka 1","lat":"2.4696","lon":"102.39753"},{"id":"90013503","name":"Opp Kampung Cheng","lat":"2.26313","lon":"102.21955"},{"id":"90013547","name":"Kompleks Pertanian Pulau Gadong","lat":"2.2357","lon":"102.21167"},{"id":"90013704","name":"Desa Pulau Sebang","lat":"2.45746","lon":"102.23092"},{"id":"90013991","name":"SJK (C) Pay Chuin","lat":"2.31758","lon":"102.45604"},{"id":"90014470","name":"Opp SJK C Bukit Beruang","lat":"2.24262","lon":"102.27766"},{"id":"90013642","name":"Opp Rumah Panjang Paya Rumput","lat":"2.28743","lon":"102.21367"},{"id":"90013842","name":"Kampung Tanah Merah Baru","lat":"2.30012","lon":"102.13066"},{"id":"90013016","name":"Hospital Melaka","lat":"2.21716","lon":"102.2603"},{"id":"90013801","name":"Muzium Warisan Naning Melaka","lat":"2.43573","lon":"102.18471"},{"id":"90013541","name":"Taman Sri Gadong","lat":"2.22081","lon":"102.20517"},{"id":"90013431","name":"Security Force","lat":"2.2391","lon":"102.24388"},{"id":"90013401","name":"Opp Taman Baru Bukit Katil","lat":"2.23245","lon":"102.29081"},{"id":"90013540","name":"Kampung Tengah Melaka","lat":"2.21765","lon":"102.20424"},{"id":"90013679","name":"Kampung Jelatang","lat":"2.38922","lon":"102.22137"},{"id":"90013977","name":"Sk Kesang Tua","lat":"2.31717","lon":"102.39793"},{"id":"90013993","name":"Taman Jarim Jaya","lat":"2.3228","lon":"102.46514"},{"id":"90013848","name":"Restoran Astana Puteh","lat":"2.33966","lon":"102.11675"},{"id":"90013825","name":"SK Tangga Batu","lat":"2.26248","lon":"102.14874"},{"id":"90013795","name":"Taman Sri Melekek","lat":"2.41302","lon":"102.19442"},{"id":"90013545","name":"Rumah Awam 2 Pulau Gadong","lat":"2.22921","lon":"102.20784"},{"id":"90014011","name":"Rtc Asahan","lat":"2.39257","lon":"102.54494"},{"id":"90013599","name":"Tanjung Samudera","lat":"2.22811","lon":"102.14902"},{"id":"90013756","name":"Taman Belimbing Indah","lat":"2.32509","lon":"102.25965"},{"id":"90013660","name":"Opp Taman Rembia Jaya","lat":"2.32768","lon":"102.20902"},{"id":"90014000","name":"Kampung Baru Parit Keliling","lat":"2.3594","lon":"102.5016"},{"id":"90013996","name":"Tanah Perkuburan Kristian","lat":"2.32791","lon":"102.48975"},{"id":"90013622","name":"Menara Tamingsari","lat":"2.19051","lon":"102.24748"},{"id":"90013818","name":"Kampung Gelam","lat":"2.2404","lon":"102.15966"},{"id":"90013593","name":"Kampung Kelongkong","lat":"2.21985","lon":"102.16129"},{"id":"90013519","name":"Tanjung Minyak Perdana","lat":"2.28583","lon":"102.18205"},{"id":"90013518","name":"Opp Bertam Ulu Batu 10","lat":"2.29175","lon":"102.18285"},{"id":"90013564","name":"Kampung Bukit Rambai","lat":"2.24752","lon":"102.19072"},{"id":"90013546","name":"Taman Gadong Bahagia","lat":"2.23301","lon":"102.21005"},{"id":"90013752","name":"Kampung Harmoni","lat":"2.31033","lon":"102.26378"},{"id":"90013659","name":"Taman Rembia Cemerlang","lat":"2.32577","lon":"102.21005"},{"id":"90013709","name":"Pekan Tampin","lat":"2.46495","lon":"102.23102"},{"id":"90013933","name":"Pasar Awam Batang Melaka","lat":"2.47332","lon":"102.417"},{"id":"90013492","name":"Opp Taman Teknologi Cheng","lat":"2.25692","lon":"102.22988"},{"id":"90013478","name":"Taman Perindustrian Krubong","lat":"2.27916","lon":"102.23772"},{"id":"90013711","name":"Kampung Batu Hampar","lat":"2.22557","lon":"102.26375"},{"id":"90013719","name":"Opp SMS Muzaffar Shah","lat":"2.24359","lon":"102.2909"},{"id":"90013362","name":"Medan Selera batu Berendam","lat":"2.25366","lon":"102.25457"},{"id":"90013558","name":"Smk Klebang","lat":"2.2252","lon":"102.18804"},{"id":"90013595","name":"Kampung Balik Bukit 2","lat":"2.22012","lon":"102.1565"},{"id":"90013477","name":"Kampung Tampoi","lat":"2.27872","lon":"102.23456"},{"id":"90013365","name":"Taman Beringin Melaka","lat":"2.25692","lon":"102.26065"},{"id":"90013808","name":"Dusun Acik Apau","lat":"2.46149","lon":"102.17862"},{"id":"90013500","name":"Opp SMK Malim","lat":"2.25227","lon":"102.2227"},{"id":"90013745","name":"Pekan Durian Tunggal","lat":"2.31326","lon":"102.28226"},{"id":"90013859","name":"Jalan Haji Mad Arif","lat":"2.3403","lon":"102.08986"},{"id":"90013653","name":"Taman Permai","lat":"2.31058","lon":"102.21739"},{"id":"90013476","name":"Masjid As Salam","lat":"2.27979","lon":"102.23346"},{"id":"90013580","name":"Opp Balai Polis Batang Tiga","lat":"2.22027","lon":"102.18787"},{"id":"90013571","name":"Pejabat Mca Bukit Rambai","lat":"2.25759","lon":"102.17823"},{"id":"90013852","name":"Terminal Masjid Tanah Sentral","lat":"2.35179","lon":"102.11045"},{"id":"90013677","name":"Terminal Alor Gajah Sentral","lat":"2.38215","lon":"102.21151"},{"id":"90013648","name":"Opp Taman Paya Rumput Indah","lat":"2.29954","lon":"102.21624"},{"id":"90013698","name":"Kampung Pulau Sebang Selatan 2","lat":"2.44691","lon":"102.23287"},{"id":"90013888","name":"Masjid Lama Batang Tiga","lat":"2.22055","lon":"102.18603"},{"id":"90013469","name":"Xepa - Soul Pattinson","lat":"2.25134","lon":"102.22912"},{"id":"90013443","name":"Taman Angkasa Nuri","lat":"2.274","lon":"102.2477"},{"id":"90013770","name":"Simpang Jalan Makmur","lat":"2.35013","lon":"102.24675"},{"id":"90013346","name":"Opp Hospital Melaka","lat":"2.21849","lon":"102.26008"},{"id":"90013482","name":"Taman Krubong Indah","lat":"2.29638","lon":"102.24713"},{"id":"90013630","name":"Padang Temu","lat":"2.18522","lon":"102.27707"},{"id":"90013417","name":"Aeon Bandaraya Melaka","lat":"2.21458","lon":"102.24802"},{"id":"90013404","name":"Taman Merak","lat":"2.22961","lon":"102.29394"},{"id":"90013590","name":"Surau Tengah","lat":"2.22171","lon":"102.16588"},{"id":"90013617","name":"Petron Jalan Taming Sari","lat":"2.21307","lon":"102.25646"},{"id":"90013604","name":"Medan Selera Pantai Puteri","lat":"2.23809","lon":"102.14386"},{"id":"90013939","name":"Kampung Tebong","lat":"2.43205","lon":"102.33936"},{"id":"90013601","name":"Taman Pantai Puteri","lat":"2.23145","lon":"102.14742"},{"id":"90013396","name":"Kompleks Mahkamah Melaka","lat":"2.23487","lon":"102.28512"},{"id":"90013877","name":"Opp Taman Seri Bayu","lat":"2.38336","lon":"102.21259"},{"id":"90013911","name":"Scientex Durian Tunggal","lat":"2.32589","lon":"102.29514"},{"id":"90013738","name":"Taman Cempaka Heights","lat":"2.30367","lon":"102.30233"},{"id":"90014009","name":"TK Tani","lat":"2.38524","lon":"102.53715"},{"id":"90013378","name":"Opp Wisma Negeri","lat":"2.27196","lon":"102.2891"},{"id":"90014482","name":"SMKA Sultan Muhammad","lat":"2.23478","lon":"102.26344"},{"id":"90013942","name":"Taman Seri Cahaya","lat":"2.43936","lon":"102.33945"},{"id":"90013625","name":"SMK Convent Melaka","lat":"2.18932","lon":"102.25639"},{"id":"90013618","name":"Hotel Ibis","lat":"2.19795","lon":"102.252"},{"id":"90013438","name":"Taman Datuk Tamby Chik Karim","lat":"2.26319","lon":"102.24214"},{"id":"90013509","name":"Taman Cheng Perdana","lat":"2.27081","lon":"102.21673"},{"id":"90013836","name":"Pekan Sungai Udang","lat":"2.28668","lon":"102.13283"},{"id":"90013520","name":"Plaza Hang Tuah 1","lat":"2.20197","lon":"102.24721"},{"id":"90013535","name":"Kuih Keria Hajah Rahmah","lat":"2.20613","lon":"102.21908"},{"id":"90013817","name":"SK Kampung Gelam","lat":"2.23759","lon":"102.16104"},{"id":"90013844","name":"Taman Masjid Tanah","lat":"2.32747","lon":"102.13038"},{"id":"90013834","name":"Kampung Baru Sungai Udang","lat":"2.28379","lon":"102.13438"},{"id":"90013690","name":"Taman Sebang Gemilang","lat":"2.41924","lon":"102.2513"},{"id":"90013785","name":"Hospital Alor Gajah Luar","lat":"2.39572","lon":"102.20349"},{"id":"90013781","name":"Opp Pejabat Perikanan Daerah Alor Gajah","lat":"2.38043","lon":"102.21848"},{"id":"90013376","name":"Mydin MITC","lat":"2.27078","lon":"102.29163"},{"id":"90013621","name":"Pejabat Pos Jalan Laksamana","lat":"2.19504","lon":"102.24971"},{"id":"90013947","name":"Pekan Kampung Tebong","lat":"2.4616","lon":"102.34039"},{"id":"90013629","name":"Kampung Ujong Pasir","lat":"2.18755","lon":"102.26946"},{"id":"90013864","name":"Kampung Air Hitam Darat","lat":"2.3267","lon":"102.08436"},{"id":"90013866","name":"SK Pengkalan Balak","lat":"2.32628","lon":"102.07946"},{"id":"90013375","name":"Opp Mydin MITC","lat":"2.2706","lon":"102.29171"},{"id":"90013458","name":"Opp Balai Panjang","lat":"2.22651","lon":"102.2303"},{"id":"90013863","name":"Kolej Matrikulasi Melaka","lat":"2.33103","lon":"102.08551"},{"id":"90013552","name":"Kampung Pesaran Balik Buluk Klebang","lat":"2.21829","lon":"102.19603"},{"id":"90013511","name":"Opp Rumah Seri Kenangan Taman Cheng","lat":"2.27443","lon":"102.21588"},{"id":"90014007","name":"Surau Kampung Sungai Dua","lat":"2.36719","lon":"102.52544"},{"id":"90013456","name":"Opp Taman Malim Indah","lat":"2.22399","lon":"102.23257"},{"id":"90013559","name":"Kampung Rambai Tengah","lat":"2.23409","lon":"102.1914"},{"id":"90013788","name":"Kampung Paya Datok","lat":"2.39878","lon":"102.20319"},{"id":"90013892","name":"Opp Medan Selera Batu Berendam","lat":"2.25374","lon":"102.25444"},{"id":"90013725","name":"Opp Ayer Keroh Heights","lat":"2.25476","lon":"102.29179"},{"id":"90013983","name":"Kampung Air Barok 2","lat":"2.31168","lon":"102.42221"},{"id":"90013952","name":"Kampung Batang Melaka 2","lat":"2.46789","lon":"102.40163"},{"id":"90013669","name":"Gajah Mati Sungai Petai","lat":"2.35233","lon":"102.20654"},{"id":"90013573","name":"SMK Bukit Rambai","lat":"2.259","lon":"102.17328"},{"id":"90013693","name":"Kampung Padang Sebang","lat":"2.42282","lon":"102.25136"},{"id":"90013812","name":"Pan Pacific Straptek","lat":"2.22321","lon":"102.16089"},{"id":"90013583","name":"Zill Golden Village","lat":"2.22194","lon":"102.17926"},{"id":"90013631","name":"Taman Jaya Padang Temu","lat":"2.18643","lon":"102.27567"},{"id":"90013526","name":"SJK(T) Melaka (Kubu)","lat":"2.20378","lon":"102.24451"},{"id":"90013944","name":"SJK (C) Khiaw Wah","lat":"2.44737","lon":"102.34237"},{"id":"90013935","name":"Kampung Ayer Bangkong","lat":"2.38768","lon":"102.34628"},{"id":"90013988","name":"Kampung Rim","lat":"2.30934","lon":"102.44553"},{"id":"90013470","name":"Aik Cheong Beverage","lat":"2.25468","lon":"102.22869"},{"id":"90013973","name":"Kampung Ayer Panas","lat":"2.28891","lon":"102.37631"},{"id":"90013938","name":"Kampung Tebong Division","lat":"2.42194","lon":"102.34046"},{"id":"90013614","name":"Taman Saujana Puri","lat":"2.23392","lon":"102.30103"},{"id":"90013822","name":"Taman Tangga Batu 1","lat":"2.25307","lon":"102.15309"},{"id":"90014476","name":"Opp Regal Park","lat":"2.24973","lon":"102.27408"},{"id":"90013504","name":"Kampung Cheng","lat":"2.26316","lon":"102.21941"},{"id":"90013915","name":"Taman Machap Bestari","lat":"2.37139","lon":"102.34464"},{"id":"90013575","name":"Paya Luboh 1","lat":"2.25303","lon":"102.15904"},{"id":"90013620","name":"Jongker Walk/Stadhuys","lat":"2.1945","lon":"102.24902"},{"id":"90013718","name":"Makmal Perubatan Pantai","lat":"2.23848","lon":"102.28888"},{"id":"90013936","name":"Kampung Machap","lat":"2.3838","lon":"102.34283"},{"id":"90013387","name":"Taman Goodwood","lat":"2.21613","lon":"102.26822"},{"id":"90013591","name":"Tanjung Kling","lat":"2.2219","lon":"102.16347"},{"id":"90013398","name":"Opp Pantai Hospital Melaka","lat":"2.23707","lon":"102.2876"},{"id":"90013347","name":"Sirim Melaka","lat":"2.22803","lon":"102.26197"},{"id":"90013849","name":"Tomyam Dzarfan","lat":"2.34305","lon":"102.11393"},{"id":"90013624","name":"Dataran Pahlawan","lat":"2.18987","lon":"102.25026"},{"id":"90013383","name":"Opp Mini Malaysia","lat":"2.28357","lon":"102.30339"},{"id":"90013351","name":"Kiara Apartment Taman Mutiara","lat":"2.23769","lon":"102.26043"},{"id":"90013997","name":"Green One/Kampung Betis","lat":"2.33526","lon":"102.50671"},{"id":"90013994","name":"Sime Darby Plantation Jasin","lat":"2.32309","lon":"102.48341"},{"id":"90013823","name":"Taman Tangga Batu 2","lat":"2.25346","lon":"102.15294"},{"id":"90013897","name":"Opp Taman Gangsa","lat":"2.28102","lon":"102.26179"},{"id":"90013570","name":"MPKK Bukit Rambai","lat":"2.2523","lon":"102.18306"}]