[
  {
    "id": 1005840,
    "name": "BRT SETIA JAYA",
    "desc": "BRT LALUAN SUNWAY",
    "lat": "3.082856",
    "lon": "101.612238"
  },
  {
    "id": 1005839,
    "name": "BRT MENTARI",
    "desc": "BRT LALUAN SUNWAY",
    "lat": "3.076159",
    "lon": "101.610292"
  },
  {
    "id": 1005838,
    "name": "BRT SUNWAY LAGOON",
    "desc": "BRT LALUAN SUNWAY",
    "lat": "3.070841",
    "lon": "101.610653"
  },
  {
    "id": 1005837,
    "name": "BRT SUNMED",
    "desc": "BRT LALUAN SUNWAY",
    "lat": "3.065602",
    "lon": "101.608629"
  },
  {
    "id": 1005836,
    "name": "BRT SUNU-MONASH",
    "desc": "BRT LALUAN SUNWAY",
    "lat": "3.065424",
    "lon": "101.601212"
  },
  {
    "id": 1005835,
    "name": "BRT SOUTH QUAY",
    "desc": "BRT LALUAN SUNWAY",
    "lat": "3.061581",
    "lon": "101.596826"
  },
  {
    "id": 1005834,
    "name": "BRT USJ7",
    "desc": "BRT LALUAN SUNWAY",
    "lat": "3.055246",
    "lon": "101.591972"
  },
  {
    "id": 1001828,
    "name": "LRT TAMAN JAYA",
    "desc": "PERS BARAT",
    "lat": "3.103876",
    "lon": "101.644993"
  },
  {
    "id": 1006035,
    "name": "PJ WALK",
    "desc": "JLN SULTAN",
    "lat": "3.100201666",
    "lon": "101.6452966"
  },
  {
    "id": 1001979,
    "name": "DEWAN SIVIK MBPJ",
    "desc": "JLN YONG SHOOK LIN",
    "lat": "3.098113",
    "lon": "101.645854"
  },
  {
    "id": 1006036,
    "name": "WISMA IEM",
    "desc": "JLN SELANGOR",
    "lat": "3.098985",
    "lon": "101.646956"
  },
  {
    "id": 1006206,
    "name": "WISMA PERKESO",
    "desc": "JLN SELANGOR",
    "lat": "3.094789",
    "lon": "101.646736"
  },
  {
    "id": 1003674,
    "name": "KOMPLEKS ARENA PJ",
    "desc": "JLN SELANGOR",
    "lat": "3.092533",
    "lon": "101.645975"
  },
  {
    "id": 1002425,
    "name": "PERPUSTAKAAN KOMUNITI PJ",
    "desc": "JLN SELANGOR",
    "lat": "3.0908059472778",
    "lon": "101.64604883686"
  },
  {
    "id": 1003891,
    "name": "PJ469 TERMINAL BAS",
    "desc": "JLN OTHMAN",
    "lat": "3.087051",
    "lon": "101.647131"
  },
  {
    "id": 1001844,
    "name": "MAHKAMAH SYARIAH",
    "desc": "JLN OTHMAN",
    "lat": "3.086795",
    "lon": "101.650753"
  },
  {
    "id": 1001000,
    "name": "APT INAI COURT (OPP)",
    "desc": "JLN TEMPLER",
    "lat": "3.085194",
    "lon": "101.654585"
  },
  {
    "id": 1000942,
    "name": "FLAT TAMAN PERANSANG",
    "desc": "JLN KLANG LAMA",
    "lat": "3.0814378714851",
    "lon": "101.64831904603"
  },
  {
    "id": 1000528,
    "name": "TAMAN DATO HARUN",
    "desc": "JLN KLANG LAMA",
    "lat": "3.083589507932",
    "lon": "101.63527896574"
  },
  {
    "id": 1003570,
    "name": "DESA MENTARI FASA 4 (UTARA)",
    "desc": "JLN KLANG LAMA",
    "lat": "3.0843778280735",
    "lon": "101.62811647765"
  },
  {
    "id": 1000840,
    "name": "GERAI PJS 2C",
    "desc": "JLN PJS 2",
    "lat": "3.081736",
    "lon": "101.627329"
  },
  {
    "id": 1003149,
    "name": "PJ SOUTH CITY",
    "desc": "JLN PJS 2",
    "lat": "3.079994",
    "lon": "101.627322"
  },
  {
    "id": 1002339,
    "name": "PJCC",
    "desc": "JLN PJS 2",
    "lat": "3.077964",
    "lon": "101.627341"
  },
  {
    "id": 1002272,
    "name": "PJS 4 (BARAT)",
    "desc": "JLN PJS 4/27A",
    "lat": "3.0766227551742",
    "lon": "101.62790886161"
  },
  {
    "id": 1001765,
    "name": "PJS 4 (TIMUR)",
    "desc": "JLN PJS 4/27 A",
    "lat": "3.076324",
    "lon": "101.629378"
  },
  {
    "id": 1006037,
    "name": "TERMINAL TAMAN MEDAN",
    "desc": "JLN PJS 3/2",
    "lat": "3.075537",
    "lon": "101.633102"
  },
  {
    "id": 1002554,
    "name": "PJS 4 (TIMUR)",
    "desc": "JLN PJS 4/27",
    "lat": "3.076043",
    "lon": "101.629572"
  },
  {
    "id": 1003446,
    "name": "PJS 4 (BARAT)",
    "desc": "JLN PJS 4/27A",
    "lat": "3.0763448090071",
    "lon": "101.62789897956"
  },
  {
    "id": 1002851,
    "name": "PJCC",
    "desc": "JLN PJS 2",
    "lat": "3.078428",
    "lon": "101.627186"
  },
  {
    "id": 1000839,
    "name": "PJ SOUTH CITY",
    "desc": "JLN PJS 2",
    "lat": "3.080845",
    "lon": "101.627209"
  },
  {
    "id": 1003745,
    "name": "SURAU MADRASATUL IMANIYA",
    "desc": "JLN PJS 2",
    "lat": "3.083289",
    "lon": "101.627176"
  },
  {
    "id": 1003075,
    "name": "FLAT DESA MENTARI",
    "desc": "JLN KLANG LAMA",
    "lat": "3.084916",
    "lon": "101.627607"
  },
  {
    "id": 1003685,
    "name": "KTM KG DATO HARUN (UTARA)",
    "desc": "JLN KLANG LAMA",
    "lat": "3.084208",
    "lon": "101.633581"
  },
  {
    "id": 1002254,
    "name": "TAMAN MAJU JAYA",
    "desc": "JLN KLANG LAMA",
    "lat": "3.0831545080372",
    "lon": "101.64062877884"
  },
  {
    "id": 1000943,
    "name": "TAMAN PETALING UTAMA",
    "desc": "JLN KLANG LAMA",
    "lat": "3.081794",
    "lon": "101.649809"
  },
  {
    "id": 1000999,
    "name": "APT INAI COURT",
    "desc": "JLN TEMPLER",
    "lat": "3.085098",
    "lon": "101.654377"
  },
  {
    "id": 1004161,
    "name": "UITM PJ (OPP)",
    "desc": "JLN OTHMAN",
    "lat": "3.086949",
    "lon": "101.652272"
  },
  {
    "id": 1001981,
    "name": "TERMINAL BAS (OPP)",
    "desc": "JLN OTHMAN",
    "lat": "3.086895",
    "lon": "101.646789"
  },
  {
    "id": 1006205,
    "name": "PERPUSTAKAAN KOMUNITI PJ (OPP)",
    "desc": "JLN SELANGOR",
    "lat": "3.090344",
    "lon": "101.64598"
  },
  {
    "id": 1006033,
    "name": "KOMPLEKS ARENA PJ (OPP)",
    "desc": "JLN SELANGOR",
    "lat": "3.09203",
    "lon": "101.6455333"
  },
  {
    "id": 1006034,
    "name": "WISMA PERKESO (OPP)",
    "desc": "JLN SELANGOR",
    "lat": "3.095074",
    "lon": "101.646502"
  },
  {
    "id": 1001509,
    "name": "WISMA MCIS",
    "desc": "JLN BARAT",
    "lat": "3.101044",
    "lon": "101.641252"
  },
  {
    "id": 1001785,
    "name": "LRT ASIA JAYA",
    "desc": "JLN UTARA",
    "lat": "3.1038828935882",
    "lon": "101.63914593158"
  },
  {
    "id": 1003320,
    "name": "SK SRI PETALING (OPP)",
    "desc": "JLN PROF KHOO KAY KIM",
    "lat": "3.108625",
    "lon": "101.639152"
  },
  {
    "id": 1000484,
    "name": "DIGITAL MALL SEKSYEN 14",
    "desc": "JLN PROF KHOO KAY KIM",
    "lat": "3.110474",
    "lon": "101.636336"
  },
  {
    "id": 1005034,
    "name": "QUILL 9",
    "desc": "JLN PROF KHOO KAY KIM",
    "lat": "3.114216",
    "lon": "101.632624"
  },
  {
    "id": 1000944,
    "name": "HOTEL LISA DE INN",
    "desc": "JLN UNIVERSITI",
    "lat": "3.118249",
    "lon": "101.630639"
  },
  {
    "id": 1003538,
    "name": "FLAT SEKSYEN 17 (SELATAN)",
    "desc": "JLN UNIVERSITI",
    "lat": "3.118937",
    "lon": "101.633375"
  },
  {
    "id": 1004190,
    "name": "JAYA ONE MALL (OPP)",
    "desc": "JLN UNIVERSITI",
    "lat": "3.118939",
    "lon": "101.635496"
  },
  {
    "id": 1002675,
    "name": "PUSAT ASASI UIA (SELATAN)",
    "desc": "JLN PROF DIRAJA UNGKU AZIZ",
    "lat": "3.118802",
    "lon": "101.639562"
  },
  {
    "id": 1001955,
    "name": "MASJID KOLEJ ISLAM",
    "desc": "JLN PROF UNGKU AZIZ",
    "lat": "3.118732",
    "lon": "101.640579"
  },
  {
    "id": 1003407,
    "name": "SMK SULTAN ABD SAMAD (TIMUR)",
    "desc": "JLN UNIVERSITI",
    "lat": "3.118566",
    "lon": "101.645001"
  },
  {
    "id": 1001007,
    "name": "MAHSA UNIVERSITY (TIMUR)",
    "desc": "JLN UNIVERSITI",
    "lat": "3.1170217390042",
    "lon": "101.6497825531"
  },
  {
    "id": 1002619,
    "name": "PPUM MAIN GATE",
    "desc": "JLN UNIVERSITI",
    "lat": "3.1144523951478",
    "lon": "101.65100238888"
  },
  {
    "id": 1002617,
    "name": "PPUM (UTARA)",
    "desc": "JLN UNIVERSITI",
    "lat": "3.1132947310948",
    "lon": "101.651397545"
  },
  {
    "id": 1001729,
    "name": "PJ CHURCH",
    "desc": "JLN GASING",
    "lat": "3.107376541027",
    "lon": "101.65380659344"
  },
  {
    "id": 1003129,
    "name": "SK LA SALLE (SELATAN)",
    "desc": "JLN GASING",
    "lat": "3.100103",
    "lon": "101.652639"
  },
  {
    "id": 1003339,
    "name": "SMK (P) ASSUNTA (OPP)",
    "desc": "JLN CHANGGAI",
    "lat": "3.0988006231217",
    "lon": "101.65038859623"
  },
  {
    "id": 1000165,
    "name": "SHERATON PJ",
    "desc": "L/RAYA PERSEKUTUAN",
    "lat": "3.103207",
    "lon": "101.640056"
  },
  {
    "id": 1002556,
    "name": "WISMA MCIS",
    "desc": "PERS BARAT",
    "lat": "3.1010266331046",
    "lon": "101.64223527584"
  },
  {
    "id": 1002012,
    "name": "MENARA AMFIRST",
    "desc": "JLN HARAPAN",
    "lat": "3.118122",
    "lon": "101.629172"
  },
  {
    "id": 1000836,
    "name": "MEDAN SELERA SEKSYEN 19",
    "desc": "JLN 19/3",
    "lat": "3.118849",
    "lon": "101.628699"
  },
  {
    "id": 1000980,
    "name": "KOMERSIAL SEKSYEN 19",
    "desc": "JLN 19/8",
    "lat": "3.1182813451754",
    "lon": "101.62627247048"
  },
  {
    "id": 1006038,
    "name": "KOMERSIAL SS2 (PUBLIC BANK)",
    "desc": "JLN SS 2/75",
    "lat": "3.120713",
    "lon": "101.621792"
  },
  {
    "id": 1001276,
    "name": "KOMERSIAL SS2 (POH KONG)",
    "desc": "JLN SS 2/55",
    "lat": "3.1172538268936",
    "lon": "101.62088640147"
  },
  {
    "id": 1900004,
    "name": "",
    "desc": "",
    "lat": "3.116222",
    "lon": "101.622244"
  },
  {
    "id": 1000204,
    "name": "BALAI POLIS SEAPARK",
    "desc": "JLN SS 2/24",
    "lat": "3.117036",
    "lon": "101.623111"
  },
  {
    "id": 1002865,
    "name": "MEDAN SELERA SEKSYEN 19",
    "desc": "JLN SS 19/8",
    "lat": "3.119018",
    "lon": "101.628689"
  },
  {
    "id": 1004179,
    "name": "UNIVERSITY TOWER",
    "desc": "JLN BUKIT 11/2",
    "lat": "3.113503",
    "lon": "101.650419"
  },
  {
    "id": 1003630,
    "name": "SK SULTAN ALAM SHAH 2",
    "desc": "JLN BUKIT 11/2",
    "lat": "3.112273",
    "lon": "101.647177"
  },
  {
    "id": 1002142,
    "name": "GERAK BUDAYA",
    "desc": "JLN BUKIT 11/2",
    "lat": "3.111712",
    "lon": "101.646397"
  },
  {
    "id": 1004272,
    "name": "YAYASAN CANCERLINK",
    "desc": "JLN UTARA",
    "lat": "3.108473",
    "lon": "101.645841"
  },
  {
    "id": 1001830,
    "name": "LRT TAMAN BAHAGIA",
    "desc": "JLN SS 2/3",
    "lat": "3.1107429326435",
    "lon": "101.61301934275"
  },
  {
    "id": 1002952,
    "name": "RUMAH NO 57",
    "desc": "JLN SS 4A/1",
    "lat": "3.1078518701893",
    "lon": "101.61127771644"
  },
  {
    "id": 1006208,
    "name": "(OPP)",
    "desc": "JLN SS 4B/10",
    "lat": "3.10816",
    "lon": "101.60637"
  },
  {
    "id": 1006209,
    "name": "NO 28",
    "desc": "JLN SS 4B/10",
    "lat": "3.10945",
    "lon": "101.60324"
  },
  {
    "id": 1006210,
    "name": "PDRM",
    "desc": "JLN SS 4B/10",
    "lat": "3.10943",
    "lon": "101.60006"
  },
  {
    "id": 1003347,
    "name": "SMK KELANA JAYA",
    "desc": "LDP",
    "lat": "3.1090534541627",
    "lon": "101.59607154107"
  },
  {
    "id": 1001381,
    "name": "HIGHPARK SUITES",
    "desc": "JLN SS 6/2",
    "lat": "3.1017526230211",
    "lon": "101.60002442637"
  },
  {
    "id": 1006211,
    "name": "PANGSAPURI PKNS (OPP)",
    "desc": "JLN SS 6/3",
    "lat": "3.102563",
    "lon": "101.600384"
  },
  {
    "id": 1006212,
    "name": "GLOMAC",
    "desc": "JLN SS 6/3",
    "lat": "3.10455",
    "lon": "101.6003233"
  },
  {
    "id": 1002198,
    "name": "PERUMAHAN PDRM (OPP)",
    "desc": "JLN SS 5/2",
    "lat": "3.105075",
    "lon": "101.600731"
  },
  {
    "id": 1003137,
    "name": "WISMA REHDA",
    "desc": "JLN SS 5/2",
    "lat": "3.1051840616149",
    "lon": "101.60657921929"
  },
  {
    "id": 1006213,
    "name": "NO 24",
    "desc": "JLN SS 5/1",
    "lat": "3.10305",
    "lon": "101.606737"
  },
  {
    "id": 1000032,
    "name": "ELEVEN",
    "desc": "JLN SS 5/1",
    "lat": "3.1008293895738",
    "lon": "101.60540618171"
  },
  {
    "id": 1006214,
    "name": "NO 159 (OPP)",
    "desc": "JLN SS 5A/1",
    "lat": "3.099316",
    "lon": "101.60424"
  },
  {
    "id": 1006227,
    "name": "NO 52",
    "desc": "JLN SS 5A/14",
    "lat": "3.096950597",
    "lon": "101.6049881"
  },
  {
    "id": 1006216,
    "name": "NO 28",
    "desc": "JLN SS 5A/14",
    "lat": "3.096366",
    "lon": "101.6057627"
  },
  {
    "id": 1003501,
    "name": "TAIWAN BUDDIST (OPP)",
    "desc": "JLN SS 5A/14",
    "lat": "3.0961147309678",
    "lon": "101.60702123187"
  },
  {
    "id": 1001910,
    "name": "PERUMAHAN SS 5B",
    "desc": "JLN MAJLIS",
    "lat": "3.100139",
    "lon": "101.607028"
  },
  {
    "id": 1002914,
    "name": "PERUMAHAN SS 3",
    "desc": "JLN SS 3/80",
    "lat": "3.101656",
    "lon": "101.609481"
  },
  {
    "id": 1006217,
    "name": "SMK SRI PERMATA",
    "desc": "JLN SS 3/80",
    "lat": "3.101638",
    "lon": "101.613569"
  },
  {
    "id": 1003552,
    "name": "PERUMAHAN SS 1",
    "desc": "JLN SS 1/36",
    "lat": "3.104662",
    "lon": "101.616327"
  },
  {
    "id": 1002107,
    "name": "SPG SS 1/32",
    "desc": "JLN SS 1/36",
    "lat": "3.108606",
    "lon": "101.616488"
  },
  {
    "id": 1003411,
    "name": "SMK TAMAN SEA (OPP)",
    "desc": "JLN SS 2/3",
    "lat": "3.110045",
    "lon": "101.616185"
  },
  {
    "id": 1006218,
    "name": "RUMAH NO 107",
    "desc": "JLN SS 3/39",
    "lat": "3.104773",
    "lon": "101.612841"
  },
  {
    "id": 1001134,
    "name": "SMK SRI PERMATA (OPP)",
    "desc": "SPG JLN 3/80",
    "lat": "3.101495",
    "lon": "101.614212"
  },
  {
    "id": 1002341,
    "name": "PERUMAHAN SS 3",
    "desc": "JLN SS 3/29",
    "lat": "3.099624",
    "lon": "101.610988"
  },
  {
    "id": 1000031,
    "name": "KOMERSIAL SS 3",
    "desc": "JLN SS 3/29",
    "lat": "3.096785",
    "lon": "101.610994"
  },
  {
    "id": 1002879,
    "name": "NO 1",
    "desc": "JLN SS 3/29",
    "lat": "3.0915189770129",
    "lon": "101.61117726789"
  },
  {
    "id": 1002192,
    "name": "PJ ECO RECYCLE PLAZA",
    "desc": "JLN SS 8/39",
    "lat": "3.088571",
    "lon": "101.614094"
  },
  {
    "id": 1002167,
    "name": "PUSAT KOMERSIAL PJ21",
    "desc": "JLN SS 8/39",
    "lat": "3.090166",
    "lon": "101.614831"
  },
  {
    "id": 1002969,
    "name": "RUMAH NO 9",
    "desc": "JLN SS 1/11",
    "lat": "3.093237",
    "lon": "101.616548"
  },
  {
    "id": 1002933,
    "name": "RUMAH NO 35",
    "desc": "JLN SS 1/11",
    "lat": "3.095271",
    "lon": "101.617346"
  },
  {
    "id": 1003551,
    "name": "SPG SS 1/1D",
    "desc": "JLN SS 1/1",
    "lat": "3.095649",
    "lon": "101.618487"
  },
  {
    "id": 1004256,
    "name": "WISMA SKPPK",
    "desc": "JLN SS 9A/1",
    "lat": "3.092249",
    "lon": "101.620683"
  },
  {
    "id": 1002817,
    "name": "PBMM SJKC SG WAY (OPP)",
    "desc": "JLN SS 9A/1",
    "lat": "3.0902357938885",
    "lon": "101.62072133016"
  },
  {
    "id": 1003626,
    "name": "SJKC SUNGAI WAY",
    "desc": "JLN SS 9A/1",
    "lat": "3.0881056103752",
    "lon": "101.62077673948"
  },
  {
    "id": 1000837,
    "name": "SEKSYEN 51A",
    "desc": "JLN 51A/225",
    "lat": "3.088626",
    "lon": "101.625297"
  },
  {
    "id": 1002331,
    "name": "PADANG PERMAINAN",
    "desc": "JLN 51A/229",
    "lat": "3.093704",
    "lon": "101.627914"
  },
  {
    "id": 1003205,
    "name": "PJ318 SHELL SEKSYEN 51A",
    "desc": "PERS PP NARAYANAN",
    "lat": "3.096406",
    "lon": "101.630603"
  },
  {
    "id": 1003403,
    "name": "SMK SRI UTAMA",
    "desc": "JLN 51A/227",
    "lat": "3.09848",
    "lon": "101.632262"
  },
  {
    "id": 1000813,
    "name": "BANGUNAN O'CONNOR (OPP)",
    "desc": "JLN 51A/227",
    "lat": "3.100253969883",
    "lon": "101.6321280802"
  },
  {
    "id": 1000897,
    "name": "SEKSYEN 51A (UTARA)",
    "desc": "JLN 51A/227",
    "lat": "3.101374",
    "lon": "101.630668"
  },
  {
    "id": 1003414,
    "name": "SMK (P) SRI AMAN",
    "desc": "JLN 14/47",
    "lat": "3.103313",
    "lon": "101.629204"
  },
  {
    "id": 1006225,
    "name": "JAFER ZAIDI",
    "desc": "JLN 20/14",
    "lat": "3.106699",
    "lon": "101.625504"
  },
  {
    "id": 1000820,
    "name": "OPTICARE",
    "desc": "JLN 21/12",
    "lat": "3.1087647307459",
    "lon": "101.62376294212"
  },
  {
    "id": 1003232,
    "name": "SHELL SEAPARK",
    "desc": "JLN 21/1",
    "lat": "3.109686",
    "lon": "101.623135"
  },
  {
    "id": 1006226,
    "name": "HERBALINE SEAPARK",
    "desc": "JLN 21/11",
    "lat": "3.111494",
    "lon": "101.621716"
  },
  {
    "id": 1002049,
    "name": "PETRON SEAPARK (OPP)",
    "desc": "JLN SS 2/24",
    "lat": "3.1140025601091",
    "lon": "101.62057488852"
  },
  {
    "id": 1000639,
    "name": "PETRON SEAPARK",
    "desc": "JLN SS 2/24",
    "lat": "3.111368",
    "lon": "101.618785"
  },
  {
    "id": 1000909,
    "name": "PJ530 HENTIAN BANDAR UTAMA",
    "desc": "CENTRAL PARK AVENUE",
    "lat": "3.151359",
    "lon": "101.613382"
  },
  {
    "id": 1000248,
    "name": "ONE UTAMA LDP",
    "desc": "LDP",
    "lat": "3.1504336534116",
    "lon": "101.61652418032"
  },
  {
    "id": 1007490,
    "name": "FIRST AVENUE",
    "desc": "DATARAN BANDAR UTAMA",
    "lat": "3.146518",
    "lon": "101.615333"
  },
  {
    "id": 1008182,
    "name": "BANDAR UTAMA (OPP)",
    "desc": "JLN MASJID",
    "lat": "3.142478",
    "lon": "101.615635"
  },
  {
    "id": 1008183,
    "name": "UTAMA CONDOMINIUM",
    "desc": "JLN MASJID",
    "lat": "3.141615",
    "lon": "101.615396"
  },
  {
    "id": 1008184,
    "name": "PELANGI UTAMA",
    "desc": "JLN MASJID",
    "lat": "3.139342",
    "lon": "101.614173"
  },
  {
    "id": 1008185,
    "name": "CONDOMINIUM",
    "desc": "JLN MASJID",
    "lat": "3.137411",
    "lon": "101.613321"
  },
  {
    "id": 1008187,
    "name": "AL-MAMURIAH",
    "desc": "JLN MASJID",
    "lat": "3.135404",
    "lon": "101.61252"
  },
  {
    "id": 1000036,
    "name": "PJ726 JEJANTAS DAMANSARA UTAMA",
    "desc": "L/RAYA SPRINT",
    "lat": "3.1323850131623",
    "lon": "101.62160934468"
  },
  {
    "id": 1001431,
    "name": "JEJANTAS SS 22",
    "desc": "L/RAYA SPRINT",
    "lat": "3.1321518191064",
    "lon": "101.62072174735"
  },
  {
    "id": 1007130,
    "name": "SMK DAMANSARA JAYA (OPP)",
    "desc": "JLN SS 23/23",
    "lat": "3.130083",
    "lon": "101.616811"
  },
  {
    "id": 1007495,
    "name": "ATRIA (OPP)",
    "desc": "JLN SS 22/41",
    "lat": "3.128946",
    "lon": "101.617086"
  },
  {
    "id": 1002486,
    "name": "DAMANSARA JAYA (TENGAH)",
    "desc": "JLN SS 22/41",
    "lat": "3.128182",
    "lon": "101.620429"
  },
  {
    "id": 1001246,
    "name": "KDU COLLEGE",
    "desc": "JLN SS 22/41",
    "lat": "3.126934",
    "lon": "101.622458"
  },
  {
    "id": 1001248,
    "name": "KDU DAMANSARA JAYA",
    "desc": "LDP",
    "lat": "3.1276560174203",
    "lon": "101.62332487017"
  },
  {
    "id": 1002752,
    "name": "PETRON SEAPARK",
    "desc": "JLN SS 2/24",
    "lat": "3.114403",
    "lon": "101.621236"
  },
  {
    "id": 1004001,
    "name": "BP SPECIALIST CENTRE",
    "desc": "LDP",
    "lat": "3.1156536983894",
    "lon": "101.61411791892"
  },
  {
    "id": 1007496,
    "name": "KDU (OPP)",
    "desc": "JLN SS 22/41",
    "lat": "3.126847",
    "lon": "101.622267"
  },
  {
    "id": 1007128,
    "name": "ATRIA",
    "desc": "JLN SS 22/41",
    "lat": "3.128542",
    "lon": "101.617477"
  },
  {
    "id": 1007129,
    "name": "DAMANSARA JAYA",
    "desc": "JLN SS 23/23",
    "lat": "3.131484",
    "lon": "101.616654"
  },
  {
    "id": 1007494,
    "name": "BOULEVARD",
    "desc": "DAMANSARA LINK",
    "lat": "3.132784",
    "lon": "101.613496"
  },
  {
    "id": 1007493,
    "name": "KAYU ARA",
    "desc": "DAMANSARA LINK",
    "lat": "3.133002",
    "lon": "101.611273"
  },
  {
    "id": 1007492,
    "name": "KAYU ARA",
    "desc": "DAMANSARA LINK",
    "lat": "3.133325",
    "lon": "101.611382"
  },
  {
    "id": 1007323,
    "name": "MASJID KAYU ARA (OPP)",
    "desc": "JLN MASJID",
    "lat": "3.135421",
    "lon": "101.612393"
  },
  {
    "id": 1008186,
    "name": "CONDOMINIUM (OPP)",
    "desc": "JLN MASJID",
    "lat": "3.137216",
    "lon": "101.61311"
  },
  {
    "id": 1007095,
    "name": "PANGSAPURI PELANGI ARA (OPP)",
    "desc": "JLN MASJID",
    "lat": "3.139109",
    "lon": "101.613941"
  },
  {
    "id": 1007096,
    "name": "SK BANDAR UTAMA DAMANSARA 2",
    "desc": "JLN MASJID",
    "lat": "3.14144",
    "lon": "101.615209"
  },
  {
    "id": 1007097,
    "name": "SMK BANDAR UTAMA",
    "desc": "JLN MASJID",
    "lat": "3.142768",
    "lon": "101.615573"
  },
  {
    "id": 1007491,
    "name": "FIRST AVENUE (OPP)",
    "desc": "DATARAN BANDAR UTAMA",
    "lat": "3.146433",
    "lon": "101.615092"
  },
  {
    "id": 1000990,
    "name": "IKEA (BARAT)",
    "desc": "PERS SURIAN",
    "lat": "3.154912",
    "lon": "101.610549"
  },
  {
    "id": 1007098,
    "name": "MRT MUTIARA DAMANSARA PINTU C",
    "desc": "JLN PJU 7/1",
    "lat": "3.156489",
    "lon": "101.607885"
  },
  {
    "id": 1007471,
    "name": "THE CURVE (OPP)",
    "desc": "JLN PJU 7/1",
    "lat": "3.157948",
    "lon": "101.608719"
  },
  {
    "id": 1007473,
    "name": "LOTUS MUTIARA DAMANSARA (OPP)",
    "desc": "JLN PJU 7/1",
    "lat": "3.159688",
    "lon": "101.611884"
  },
  {
    "id": 1007474,
    "name": "RITZE PERDANA",
    "desc": "JLN PJU 7/1",
    "lat": "3.164513",
    "lon": "101.611072"
  },
  {
    "id": 1002810,
    "name": "PERDANA SHOPPING CENTRE",
    "desc": "JLN PJU 8/1",
    "lat": "3.16759",
    "lon": "101.606371"
  },
  {
    "id": 1007475,
    "name": "PERDANA EXCLUSIVE CONDO",
    "desc": "JLN PJU 8/1",
    "lat": "3.169401",
    "lon": "101.605361"
  },
  {
    "id": 1002036,
    "name": "METROPOLITAN SQUARE",
    "desc": "PERS PERDANA",
    "lat": "3.1660577576591",
    "lon": "101.60797944856"
  },
  {
    "id": 1003243,
    "name": "SOPHEA RESIDENCE",
    "desc": "PERS ARA",
    "lat": "3.189981",
    "lon": "101.617612"
  },
  {
    "id": 1007480,
    "name": "BANDAR SRI DAMANSARA 8",
    "desc": "PERS PERDANA",
    "lat": "3.189215",
    "lon": "101.616229"
  },
  {
    "id": 1002796,
    "name": "SRI DAMANSARA",
    "desc": "PERS PERDANA",
    "lat": "3.187211",
    "lon": "101.615129"
  },
  {
    "id": 1003869,
    "name": "PJ22 KOMERSIAL BANDAR SRI DAMANSARA 7",
    "desc": "PERS PERDANA",
    "lat": "3.185369",
    "lon": "101.613436"
  },
  {
    "id": 1007482,
    "name": "SJKC DESA JAYA",
    "desc": "PERS PERDANA",
    "lat": "3.185389",
    "lon": "101.606998"
  },
  {
    "id": 1007484,
    "name": "KOMERSIAL BANDAR SRI DAMANSARA",
    "desc": "PERS PERDANA",
    "lat": "3.188383",
    "lon": "101.605487"
  },
  {
    "id": 1007486,
    "name": "SD APARTMENT",
    "desc": "PERS PERDANA",
    "lat": "3.189776",
    "lon": "101.605382"
  },
  {
    "id": 1007487,
    "name": "BANDAR SRI DAMANSARA",
    "desc": "PERS PERDANA",
    "lat": "3.191209",
    "lon": "101.605695"
  },
  {
    "id": 1001217,
    "name": "MEDAN SELERA SRI DAMANSARA",
    "desc": "PERS PERDANA",
    "lat": "3.19341",
    "lon": "101.607121"
  },
  {
    "id": 1007105,
    "name": "SPHERE DAMANSARA",
    "desc": "JLN PJU 10/9",
    "lat": "3.198239",
    "lon": "101.59916"
  },
  {
    "id": 1008657,
    "name": "THE ZIZZ",
    "desc": "JLN PJU 10/1A",
    "lat": "3.198234",
    "lon": "101.596464"
  },
  {
    "id": 1002782,
    "name": "APARTMENT LESTARI",
    "desc": "JLN PJU 10/1",
    "lat": "3.197343",
    "lon": "101.594348"
  },
  {
    "id": 1002590,
    "name": "APARTMENT IDAMAN",
    "desc": "JLN PJU 10/1",
    "lat": "3.190686",
    "lon": "101.592366"
  },
  {
    "id": 1000127,
    "name": "APARTMENT IMPIAN",
    "desc": "JLN PJU 10/1",
    "lat": "3.191978",
    "lon": "101.588458"
  },
  {
    "id": 1000135,
    "name": "APARTMENT PERMAI",
    "desc": "JLN PJU 10/1",
    "lat": "3.194259",
    "lon": "101.588235"
  },
  {
    "id": 1007488,
    "name": "RESIDENSI SUASANA DAMAI (OPP)",
    "desc": "JLN PJU 10/1",
    "lat": "3.194511",
    "lon": "101.591378"
  },
  {
    "id": 1002781,
    "name": "APARTMENT LESTARI (OPP)",
    "desc": "JLN PJU 10/1",
    "lat": "3.197228",
    "lon": "101.594008"
  },
  {
    "id": 1001218,
    "name": "MEDAN SELERA SRI DAMANSARA (OPP)",
    "desc": "PERS PERDANA",
    "lat": "3.193598",
    "lon": "101.607479"
  },
  {
    "id": 1008083,
    "name": "BANDAR SRI DAMANSARA (OPP)",
    "desc": "PERS PERDANA",
    "lat": "3.19075",
    "lon": "101.60589"
  },
  {
    "id": 1007485,
    "name": "SRI DAMANSARA (OPP)",
    "desc": "PERS PERDANA",
    "lat": "3.188177",
    "lon": "101.605813"
  },
  {
    "id": 1007483,
    "name": "TAMAN CENTRAL SPINE SD",
    "desc": "PERS PERDANA",
    "lat": "3.185258",
    "lon": "101.607655"
  },
  {
    "id": 1003870,
    "name": "BANDAR SRI DAMANSARA 7",
    "desc": "PERS PERDANA",
    "lat": "3.185592",
    "lon": "101.613301"
  },
  {
    "id": 1002795,
    "name": "SRI DAMANSARA (OPP)",
    "desc": "PERS PERDANA",
    "lat": "3.187535",
    "lon": "101.614998"
  },
  {
    "id": 1007481,
    "name": "BANDAR SRI DAMANSARA 8",
    "desc": "PERS PERDANA",
    "lat": "3.189218",
    "lon": "101.615927"
  },
  {
    "id": 1003242,
    "name": "SOPHEA RESIDENCE (OPP)",
    "desc": "PERS ARA",
    "lat": "3.190264",
    "lon": "101.617323"
  },
  {
    "id": 1007321,
    "name": "NEO DAMANSARA",
    "desc": "JLN PJU 7/1",
    "lat": "3.164177",
    "lon": "101.611665"
  },
  {
    "id": 1007320,
    "name": "LOTUS MUTIARA DAMANSARA",
    "desc": "JLN PJU 7/1",
    "lat": "3.160333",
    "lon": "101.612264"
  },
  {
    "id": 1007472,
    "name": "THE CURVE",
    "desc": "JLN PJU 7/1",
    "lat": "3.157901",
    "lon": "101.609333"
  },
  {
    "id": 1007099,
    "name": "MRT MUTIARA DAMANSARA PINTU B",
    "desc": "JLN PJU 7/1",
    "lat": "3.155687",
    "lon": "101.608187"
  },
  {
    "id": 1007489,
    "name": "OASIS BANDAR UTAMA",
    "desc": "TENGKAT BANDAR UTAMA",
    "lat": "3.150327",
    "lon": "101.610151"
  },
  {
    "id": 1005696,
    "name": "KOMPLEKS PARCEL F",
    "desc": "LEBUH PERDANA TIMUR",
    "lat": "2.944757",
    "lon": "101.708408"
  },
  {
    "id": 1005702,
    "name": "SULTAN ALAM SHAH",
    "desc": "JLN ALAMANDA",
    "lat": "2.946936",
    "lon": "101.710523"
  },
  {
    "id": 1005625,
    "name": "KOMPLEKS PARCEL E (UTARA)",
    "desc": "LEBUH PERDANA TIMUR",
    "lat": "2.944436",
    "lon": "101.707934"
  },
  {
    "id": 1005626,
    "name": "KOMPLEKS PARCEL E (BARAT)",
    "desc": "PERS SULTAN SALLAHUDDIN ABDUL AZIZ SHAH",
    "lat": "2.943665",
    "lon": "101.705229"
  },
  {
    "id": 1005627,
    "name": "DATARAN PAHLAWAN",
    "desc": "PERS SULTAN SALLAHUDDIN ABDUL AZIZ SHAH",
    "lat": "2.941926",
    "lon": "101.704431"
  },
  {
    "id": 1005628,
    "name": "KOMPLEKS KERAJAAN PARCEL D",
    "desc": "PERS SULTAN SALLAHUDDIN ABDUL AZIZ SHAH",
    "lat": "2.939138",
    "lon": "101.701795"
  },
  {
    "id": 1005652,
    "name": "KEMENTERIAN KEWANGAN",
    "desc": "PERSIARAN PERDANA",
    "lat": "2.927547",
    "lon": "101.688711"
  },
  {
    "id": 1005653,
    "name": "PERBENDAHARAAN 2 (SELATAN)",
    "desc": "PERSIARAN PERDANA",
    "lat": "2.925327",
    "lon": "101.687956"
  },
  {
    "id": 1005654,
    "name": "LEMBAGA PEMBIAYAAN PERUMAHAN (SELATAN)",
    "desc": "PERSIARAN PERDANA",
    "lat": "2.923217",
    "lon": "101.687236"
  },
  {
    "id": 1005655,
    "name": "MENARA USAHAWAN",
    "desc": "PERSIARAN PERDANA",
    "lat": "2.920856",
    "lon": "101.686418"
  },
  {
    "id": 1005656,
    "name": "ISTANA KEHAKIMAN (UTARA)",
    "desc": "PERSIARAN PERDANA",
    "lat": "2.918378",
    "lon": "101.685599"
  },
  {
    "id": 1005657,
    "name": "ISTANA KEHAKIMAN (SELATAN)",
    "desc": "PERSIARAN PERDANA",
    "lat": "2.916473",
    "lon": "101.684966"
  },
  {
    "id": 1005658,
    "name": "KEMENTERIAN BELIA & SUKAN",
    "desc": "PERSIARAN PERDANA",
    "lat": "2.914144",
    "lon": "101.684242"
  },
  {
    "id": 1005659,
    "name": "GALERIA PJH",
    "desc": "PERSIARAN PERDANA",
    "lat": "2.911057",
    "lon": "101.683303"
  },
  {
    "id": 1005660,
    "name": "MOTOCROSS CIRCUIT (TIMUR)",
    "desc": "PERSIARAN PERDANA",
    "lat": "2.909816",
    "lon": "101.682767"
  },
  {
    "id": 1005661,
    "name": "KEMENTERIAN PEMBANGUNAN LUAR BANDAR",
    "desc": "PERSIARAN PERDANA",
    "lat": "2.904778",
    "lon": "101.681029"
  },
  {
    "id": 1005662,
    "name": "DATARAN GEMILANG",
    "desc": "LINGKARAN GEMILANG DUA",
    "lat": "2.903404",
    "lon": "101.681176"
  },
  {
    "id": 1008624,
    "name": "KEMENTERIAN WANITA & MASYARAKAT",
    "desc": "PERS PERDANA",
    "lat": "2.902484",
    "lon": "101.680169"
  },
  {
    "id": 1008626,
    "name": "PRESINT 5 (BARAT)",
    "desc": "JLN P5",
    "lat": "2.895592",
    "lon": "101.673208"
  },
  {
    "id": 1008628,
    "name": "HERIOT-WATT UNIVERSITY P5 (OPP)",
    "desc": "JLN P5",
    "lat": "2.897694",
    "lon": "101.671086"
  },
  {
    "id": 1008630,
    "name": "KEMENTERIAN PELANCONGAN",
    "desc": "JLN P5",
    "lat": "2.898823",
    "lon": "101.668346"
  },
  {
    "id": 1008632,
    "name": "APARTMENT 5R1 P5 (OPP)",
    "desc": "JLN P5",
    "lat": "2.898637",
    "lon": "101.666378"
  },
  {
    "id": 1008634,
    "name": "PRESINT 6 (SELATAN)",
    "desc": "JLN P5",
    "lat": "2.897135",
    "lon": "101.665762"
  },
  {
    "id": 1005700,
    "name": "KEMENTERIAN PENGAJIAN TINGGI",
    "desc": "JLN P5",
    "lat": "2.895867",
    "lon": "101.667752"
  },
  {
    "id": 1008629,
    "name": "HERIOT-WATT UNIVERSITY P5",
    "desc": "JLN P5",
    "lat": "2.898268",
    "lon": "101.670839"
  },
  {
    "id": 1008627,
    "name": "PRESINT 5 (BARAT)",
    "desc": "JLN P5",
    "lat": "2.896024",
    "lon": "101.673401"
  },
  {
    "id": 1005663,
    "name": "DATARAN GEMILANG",
    "desc": "LINGKARAN GEMILANG DUA",
    "lat": "2.903986",
    "lon": "101.679528"
  },
  {
    "id": 1005664,
    "name": "KEMENTERIAN PEMBANGUNAN LUAR BANDAR (OPP)",
    "desc": "PERSIARAN PERDANA",
    "lat": "2.904962",
    "lon": "101.680463"
  },
  {
    "id": 1005665,
    "name": "MOTOCROSS CIRCUIT",
    "desc": "PERSIARAN PERDANA",
    "lat": "2.909976",
    "lon": "101.682162"
  },
  {
    "id": 1005666,
    "name": "GALERIA PJH",
    "desc": "PERSIARAN PERDANA",
    "lat": "2.912047",
    "lon": "101.682703"
  },
  {
    "id": 1005667,
    "name": "KEMENTERIAN PERTANIAN",
    "desc": "PERSIARAN PERDANA",
    "lat": "2.914798",
    "lon": "101.683859"
  },
  {
    "id": 1005668,
    "name": "PERBADANAN PUTRAJAYA (SELATAN)",
    "desc": "PERSIARAN PERDANA",
    "lat": "2.916673",
    "lon": "101.684601"
  },
  {
    "id": 1005669,
    "name": "PERBADANAN PUTRAJAYA (UTARA)",
    "desc": "PERSIARAN PERDANA",
    "lat": "2.918475",
    "lon": "101.685189"
  },
  {
    "id": 1005670,
    "name": "JABATAN PENDAFTARAN NEGARA",
    "desc": "PERSIARAN PERDANA",
    "lat": "2.920393",
    "lon": "101.685857"
  },
  {
    "id": 1005671,
    "name": "LEMBAGA PEMBIAYAAN PERUMAHAN (UTARA)",
    "desc": "PERSIARAN PERDANA",
    "lat": "2.922944",
    "lon": "101.686688"
  },
  {
    "id": 1005672,
    "name": "PERBENDAHARAAN 2 (UTARA)",
    "desc": "PERSIARAN PERDANA",
    "lat": "2.924972",
    "lon": "101.687394"
  },
  {
    "id": 1005673,
    "name": "MENARA PERKESO",
    "desc": "PERSIARAN PERDANA",
    "lat": "2.927249",
    "lon": "101.688175"
  },
  {
    "id": 1005725,
    "name": "PUTRA SQUARE",
    "desc": "PERS PERDANA",
    "lat": "2.934597",
    "lon": "101.690497"
  },
  {
    "id": 1000314,
    "name": "TAMAN BOTANI PUTRAJAYA",
    "desc": "PERS SULTAN SALLAHUDDIN ABDUL AZIZ SHAH",
    "lat": "2.946054",
    "lon": "101.697888"
  },
  {
    "id": 1000315,
    "name": "TAMAN PUTRA PERDANA (TIMUR)",
    "desc": "PERS SULTAN SALLAHUDDIN ABDUL AZIZ SHAH",
    "lat": "2.9474605297495",
    "lon": "101.70363287265"
  },
  {
    "id": 1001201,
    "name": "KOMPLEKS B/ LAMAN PERDANA (TIMUR)",
    "desc": "PERS SULTAN SALLAHUDDIN ABDUL AZIZ SHAH",
    "lat": "2.938926",
    "lon": "101.695456"
  },
  {
    "id": 1005597,
    "name": "APARTMENT PRESINT 11B",
    "desc": "JALAN P11B",
    "lat": "2.957192",
    "lon": "101.676781"
  },
  {
    "id": 1005693,
    "name": "PERUMAHAN PRESINT 11 (ZON 6B)",
    "desc": "JALAN P11J",
    "lat": "2.952946",
    "lon": "101.677025"
  },
  {
    "id": 1005682,
    "name": "PERUMAHAN PRESINT 11H",
    "desc": "JALAN P11",
    "lat": "2.954007",
    "lon": "101.674455"
  },
  {
    "id": 1005683,
    "name": "SAUJANA ASTER CONDOMINIUM",
    "desc": "JALAN P11",
    "lat": "2.956264",
    "lon": "101.673701"
  },
  {
    "id": 1005684,
    "name": "PERUMAHAN P11/1",
    "desc": "JALAN P11",
    "lat": "2.955665",
    "lon": "101.668883"
  },
  {
    "id": 1005685,
    "name": "PUSAT INTEGRASI GENIUS (OPP)",
    "desc": "JALAN P11",
    "lat": "2.959779",
    "lon": "101.665001"
  },
  {
    "id": 1005686,
    "name": "PANGSAPURI PUTRA DAMAI",
    "desc": "JALAN P11",
    "lat": "2.962036",
    "lon": "101.664915"
  },
  {
    "id": 1005687,
    "name": "PRIMA PRESINT 11",
    "desc": "JALAN P11",
    "lat": "2.964656",
    "lon": "101.667984"
  },
  {
    "id": 1005688,
    "name": "PERUMAHAN PRESINT 11C (BARAT)",
    "desc": "JALAN P11",
    "lat": "2.965627",
    "lon": "101.670996"
  },
  {
    "id": 1005689,
    "name": "PERUMAHAN PRESINT 11C (TIMUR)",
    "desc": "JALAN P11",
    "lat": "2.967795",
    "lon": "101.675979"
  },
  {
    "id": 1005690,
    "name": "BALAI POLIS PRESINT 11 (OPP)",
    "desc": "JALAN P11",
    "lat": "2.964662",
    "lon": "101.679583"
  },
  {
    "id": 1008577,
    "name": "PERUMAHAN P11A 1/3",
    "desc": "JLN P11A",
    "lat": "2.957548",
    "lon": "101.682785"
  },
  {
    "id": 1008576,
    "name": "PERUMAHAN P11A 1/1",
    "desc": "JLN P11A",
    "lat": "2.958563",
    "lon": "101.686359"
  },
  {
    "id": 1008592,
    "name": "PERUMAHAN P10/9",
    "desc": "PERS SERI PERDANA",
    "lat": "2.951926",
    "lon": "101.686773"
  },
  {
    "id": 1008593,
    "name": "KOMPLEKS SERI PERDANA",
    "desc": "PERS SERI PERDANA",
    "lat": "2.949071",
    "lon": "101.687234"
  },
  {
    "id": 1008595,
    "name": "KOMPLEKS LANAI",
    "desc": "PERS SERI PERDANA",
    "lat": "2.944683",
    "lon": "101.687606"
  },
  {
    "id": 1005592,
    "name": "KOMPLEKS LANAI",
    "desc": "PERSIARAN SERI PERDANA",
    "lat": "2.944801",
    "lon": "101.687373"
  },
  {
    "id": 1005593,
    "name": "PRESINT 10 (BARAT)",
    "desc": "PERSIARAN SERI PERDANA",
    "lat": "2.948226",
    "lon": "101.687507"
  },
  {
    "id": 1005594,
    "name": "KOMPLEKS SERI PERDANA (BARAT)",
    "desc": "PERSIARAN SERI PERDANA",
    "lat": "2.952559",
    "lon": "101.686793"
  },
  {
    "id": 1005595,
    "name": "PRESINT 11A5",
    "desc": "JALAN P11A",
    "lat": "2.958349",
    "lon": "101.686405"
  },
  {
    "id": 1005596,
    "name": "PRESINT 11A2",
    "desc": "JALAN P11A",
    "lat": "2.957342",
    "lon": "101.682833"
  },
  {
    "id": 1005717,
    "name": "P14",
    "desc": "JLN P14L",
    "lat": "2.948214",
    "lon": "101.723635"
  },
  {
    "id": 1008543,
    "name": "SEKOLAH ARAB MODIN ANTARABANGSA",
    "desc": "JLN P14",
    "lat": "2.949377",
    "lon": "101.725721"
  },
  {
    "id": 1008541,
    "name": "KOMPLEKS NASYRUL QURAN (TIMUR)",
    "desc": "JLN P14",
    "lat": "2.950623",
    "lon": "101.728451"
  },
  {
    "id": 1005716,
    "name": "GERAI KOMUNITI P14",
    "desc": "JLN P14",
    "lat": "2.954283",
    "lon": "101.727658"
  },
  {
    "id": 1008539,
    "name": "APARTMENT P14",
    "desc": "JLN P14",
    "lat": "2.953839",
    "lon": "101.724562"
  },
  {
    "id": 1008537,
    "name": "KOMPLEKS MAKSAK",
    "desc": "JLN P14",
    "lat": "2.952303",
    "lon": "101.723668"
  },
  {
    "id": 1008535,
    "name": "PERUMAHAN P14G",
    "desc": "JLN P14",
    "lat": "2.952346",
    "lon": "101.721164"
  },
  {
    "id": 1008533,
    "name": "PERUMAHAN P14F 1",
    "desc": "JLN P14",
    "lat": "2.953612",
    "lon": "101.718796"
  },
  {
    "id": 1008531,
    "name": "PERUMAHAN P14B 2/5",
    "desc": "JLN P14",
    "lat": "2.952293",
    "lon": "101.716448"
  },
  {
    "id": 1008529,
    "name": "PERUMAHAN P14B 2",
    "desc": "JLN P14",
    "lat": "2.949997",
    "lon": "101.717018"
  },
  {
    "id": 1008527,
    "name": "215 PERUMAHAN P14B 1",
    "desc": "JLN P14",
    "lat": "2.947447",
    "lon": "101.718287"
  },
  {
    "id": 1008546,
    "name": "PPA P15 12B",
    "desc": "JLN P15",
    "lat": "2.939484",
    "lon": "101.721765"
  },
  {
    "id": 1008547,
    "name": "PPA P15 12B",
    "desc": "JLN P15",
    "lat": "2.941262",
    "lon": "101.721572"
  },
  {
    "id": 1008548,
    "name": "SURAU AL-FATIH P15",
    "desc": "JLN P15",
    "lat": "2.943072",
    "lon": "101.721267"
  },
  {
    "id": 1008549,
    "name": "P15 (UTARA)",
    "desc": "LEBUH PERDANA TIMUR",
    "lat": "2.943287",
    "lon": "101.719188"
  },
  {
    "id": 1008239,
    "name": "ALAMANDA (UTARA)",
    "desc": "JLN ALAMANDA",
    "lat": "2.941358",
    "lon": "101.712079"
  },
  {
    "id": 1008525,
    "name": "SHAFTSBURY MALL",
    "desc": "JLN ALAMANDA",
    "lat": "2.938818",
    "lon": "101.712875"
  },
  {
    "id": 1008526,
    "name": "PERUMAHAN P14A 1/1",
    "desc": "JLN P14",
    "lat": "2.947385",
    "lon": "101.718099"
  },
  {
    "id": 1008528,
    "name": "SURAU AL-MANAR P14",
    "desc": "JLN P14",
    "lat": "2.949495",
    "lon": "101.717211"
  },
  {
    "id": 1008530,
    "name": "PERUMAHAN P14C 2/2",
    "desc": "JLN P14",
    "lat": "2.951852",
    "lon": "101.716089"
  },
  {
    "id": 1008532,
    "name": "PERUMAHAN P14E 1/2",
    "desc": "JLN P14",
    "lat": "2.953871",
    "lon": "101.718221"
  },
  {
    "id": 1008534,
    "name": "PERUMAHAN P14E 2/2",
    "desc": "JLN P14",
    "lat": "2.952364",
    "lon": "101.721649"
  },
  {
    "id": 1008536,
    "name": "SMK PUTRAJAYA P14 (1)",
    "desc": "JLN P14",
    "lat": "2.952613",
    "lon": "101.723382"
  },
  {
    "id": 1008538,
    "name": "SK PUTRAJAYA P14 (1)",
    "desc": "JLN P14",
    "lat": "2.954315",
    "lon": "101.724788"
  },
  {
    "id": 1005715,
    "name": "GERAI KOMUNITI P14 (OPP)",
    "desc": "JLN P14",
    "lat": "2.954538",
    "lon": "101.727515"
  },
  {
    "id": 1008540,
    "name": "KOMPLEKS NASYRUL QURAN",
    "desc": "JLN P14",
    "lat": "2.950204",
    "lon": "101.728384"
  },
  {
    "id": 1008542,
    "name": "SEKOLAH ARAB MODIN ANTARABANGSA",
    "desc": "JLN P14",
    "lat": "2.948931",
    "lon": "101.725644"
  },
  {
    "id": 1008636,
    "name": "APARTMENT 5R3 P5",
    "desc": "JLN P5/7",
    "lat": "2.896223",
    "lon": "101.664215"
  },
  {
    "id": 1005719,
    "name": "APARTMENT 5R4",
    "desc": "JLN P5A",
    "lat": "2.889199",
    "lon": "101.675535"
  },
  {
    "id": 1008638,
    "name": "SK PUTRAJAYA P5 (1)",
    "desc": "JLN P5A",
    "lat": "2.888995",
    "lon": "101.678403"
  },
  {
    "id": 1008637,
    "name": "APARTMENT 5R6 P5",
    "desc": "JLN P5A",
    "lat": "2.890667",
    "lon": "101.679642"
  },
  {
    "id": 1008625,
    "name": "KEMENTERIAN WANITA & MASYARAKAT",
    "desc": "PERS PERDANA",
    "lat": "2.902493",
    "lon": "101.679655"
  },
  {
    "id": 1005749,
    "name": "KEMENTERIAN BELIA DAN SUKAN",
    "desc": "JALAN TUN HUSSEIN",
    "lat": "2.913298",
    "lon": "101.686814"
  },
  {
    "id": 1005729,
    "name": "KEMENTERIAN PENGANGKUTAN",
    "desc": "LEBUH SETIA",
    "lat": "2.913212",
    "lon": "101.684406"
  },
  {
    "id": 1005084,
    "name": "PICC (OPP)",
    "desc": "JLN P5",
    "lat": "2.892853",
    "lon": "101.679152"
  },
  {
    "id": 1005701,
    "name": "KEMENTERIAN PENGAJIAN TINGGI (OPP)",
    "desc": "JLN P5",
    "lat": "2.895615",
    "lon": "101.667697"
  },
  {
    "id": 1008635,
    "name": "PRESINT 6 (SELATAN)",
    "desc": "JLN P5",
    "lat": "2.897006",
    "lon": "101.665447"
  },
  {
    "id": 1008633,
    "name": "APARTMENT 5R1 P5",
    "desc": "JLN P5",
    "lat": "2.898928",
    "lon": "101.666136"
  },
  {
    "id": 1008631,
    "name": "MARINA PUTRAJAYA",
    "desc": "JLN P5",
    "lat": "2.899133",
    "lon": "101.668458"
  },
  {
    "id": 1005694,
    "name": "PERUMAHAN PENJAWAT AWAM P8 8R2 (BARAT)",
    "desc": "JALAN P8H",
    "lat": "2.929478",
    "lon": "101.679985"
  },
  {
    "id": 1005637,
    "name": "TAMARA RESIDENCE PRESINT 8",
    "desc": "JALAN P8G",
    "lat": "2.926193",
    "lon": "101.680642"
  },
  {
    "id": 1005639,
    "name": "APARTMENT PRESINT 8 FASA 4C",
    "desc": "JALAN P8H",
    "lat": "2.928911",
    "lon": "101.679247"
  },
  {
    "id": 1005640,
    "name": "SK PUTRAJAYA PRESINT 8 (2) (BARAT)",
    "desc": "JALAN P8",
    "lat": "2.931536",
    "lon": "101.680641"
  },
  {
    "id": 1008606,
    "name": "P8N5 SHELL P8",
    "desc": "JLN P8",
    "lat": "2.933441",
    "lon": "101.679263"
  },
  {
    "id": 1005643,
    "name": "AURA RESIDENCE P8 (BARAT)",
    "desc": "JALAN P8",
    "lat": "2.936927",
    "lon": "101.680256"
  },
  {
    "id": 1005644,
    "name": "DEWAN SERBAGUNA PRESINT 8",
    "desc": "JALAN P8",
    "lat": "2.938819",
    "lon": "101.682512"
  },
  {
    "id": 1005645,
    "name": "KOMPLEKS SEKOLAH PUTRAJAYA PRESINT 8",
    "desc": "JALAN P8",
    "lat": "2.938337",
    "lon": "101.685148"
  },
  {
    "id": 1005646,
    "name": "KELAB TASIK PUTRAJAYA",
    "desc": "JALAN P8",
    "lat": "2.939585",
    "lon": "101.686555"
  },
  {
    "id": 1008597,
    "name": "KELAB TASIK PUTRAJAYA",
    "desc": "JLN P8",
    "lat": "2.938752",
    "lon": "101.686522"
  },
  {
    "id": 1008599,
    "name": "P8N8 SMK PUTRAJAYA P8 (OPP)",
    "desc": "JLN P8",
    "lat": "2.938203",
    "lon": "101.684059"
  },
  {
    "id": 1008601,
    "name": "P8N6 KOMERSIAL P8",
    "desc": "JLN P8",
    "lat": "2.938593",
    "lon": "101.682229"
  },
  {
    "id": 1008603,
    "name": "AURA RESIDENCE P8",
    "desc": "JLN P8",
    "lat": "2.936699",
    "lon": "101.680434"
  },
  {
    "id": 1008605,
    "name": "P8N4 SHELL P8",
    "desc": "JLN P8",
    "lat": "2.933167",
    "lon": "101.679657"
  },
  {
    "id": 1008607,
    "name": "SK PUTRAJAYA P8 2",
    "desc": "JLN P8",
    "lat": "2.931649",
    "lon": "101.680886"
  },
  {
    "id": 1008568,
    "name": "TAMAN PANCARONA P18",
    "desc": "JLN P18",
    "lat": "2.913629",
    "lon": "101.689197"
  },
  {
    "id": 1008566,
    "name": "PERUMAHAN P18K 1/1 (OPP)",
    "desc": "JLN P18",
    "lat": "2.914018",
    "lon": "101.692157"
  },
  {
    "id": 1005726,
    "name": "P18H (OPP)",
    "desc": "JLN P18",
    "lat": "2.914615",
    "lon": "101.695677"
  },
  {
    "id": 1008564,
    "name": "APARTMENT P18R4 BLOK C",
    "desc": "JLN P18",
    "lat": "2.915876",
    "lon": "101.697253"
  },
  {
    "id": 1005728,
    "name": "PERUMAHAN P18D",
    "desc": "JLN P18",
    "lat": "2.918613",
    "lon": "101.697465"
  },
  {
    "id": 1008560,
    "name": "SMK PUTRAJAYA P18 (1) (OPP)",
    "desc": "JLN P18",
    "lat": "2.921438",
    "lon": "101.693835"
  },
  {
    "id": 1005613,
    "name": "SK PUTRAJAYA PRESINT 18 (OPP)",
    "desc": "LEBUH BESTARI",
    "lat": "2.924118",
    "lon": "101.694102"
  },
  {
    "id": 1005722,
    "name": "SELASIH",
    "desc": "JLN P17E",
    "lat": "2.923976",
    "lon": "101.700861"
  },
  {
    "id": 1008557,
    "name": "SK PUTRAJAYA P17 1",
    "desc": "JLN P17",
    "lat": "2.923462",
    "lon": "101.704754"
  },
  {
    "id": 1005634,
    "name": "PRESINT 17 (UTARA)",
    "desc": "JALAN P17",
    "lat": "2.926333",
    "lon": "101.706829"
  },
  {
    "id": 1005692,
    "name": "APARTMENT PRESINT 17 (RK1)",
    "desc": "JALAN P17",
    "lat": "2.927556",
    "lon": "101.705905"
  },
  {
    "id": 1005617,
    "name": "KOMPLEKS TAMAN WARISAN",
    "desc": "LEBUH PERDANA SELATAN",
    "lat": "2.927041",
    "lon": "101.699675"
  },
  {
    "id": 1005618,
    "name": "SK PUTRAJAYA PRESINT 16 (2)",
    "desc": "JALAN P16",
    "lat": "2.928364",
    "lon": "101.700162"
  },
  {
    "id": 1005619,
    "name": "KOMERSIAL PRESINT 16",
    "desc": "JALAN P16",
    "lat": "2.929671",
    "lon": "101.701051"
  },
  {
    "id": 1005620,
    "name": "PRESINT 16E RESIDENCE",
    "desc": "JALAN P16",
    "lat": "2.932616",
    "lon": "101.703548"
  },
  {
    "id": 1005621,
    "name": "SURAU AR-RAHMAN PRESINT 16 (OPP)",
    "desc": "JALAN P16",
    "lat": "2.932883",
    "lon": "101.706906"
  },
  {
    "id": 1005622,
    "name": "D'MUTIARA RESIDENCE",
    "desc": "JALAN P16",
    "lat": "2.934551",
    "lon": "101.708156"
  },
  {
    "id": 1005623,
    "name": "PPAM SADERI",
    "desc": "JALAN P16",
    "lat": "2.935685",
    "lon": "101.709924"
  },
  {
    "id": 1005624,
    "name": "ALAMANDA (SELATAN)",
    "desc": "JALAN ALAMANDA",
    "lat": "2.940285",
    "lon": "101.712628"
  },
  {
    "id": 1008551,
    "name": "P16N1 APARTMENT P16 BLOK A2",
    "desc": "JLN P16",
    "lat": "2.935545",
    "lon": "101.710106"
  },
  {
    "id": 1008553,
    "name": "P16N3 SURAU AR-RAHMAN",
    "desc": "JLN P16",
    "lat": "2.932627",
    "lon": "101.707035"
  },
  {
    "id": 1008554,
    "name": "P16N5 PERUMAHAN P16F",
    "desc": "JLN P16",
    "lat": "2.932469",
    "lon": "101.703964"
  },
  {
    "id": 1008556,
    "name": "P16N6 KOMERSIAL P16 (OPP)",
    "desc": "JLN P16",
    "lat": "2.929656",
    "lon": "101.701311"
  },
  {
    "id": 1005629,
    "name": "KOMPLEKS TAMAN WARISAN",
    "desc": "LEBUH PERDANA SELATAN",
    "lat": "2.927127",
    "lon": "101.699923"
  },
  {
    "id": 1008558,
    "name": "APARTMENT RK2 P17",
    "desc": "JLN P17",
    "lat": "2.923285",
    "lon": "101.704913"
  },
  {
    "id": 1005721,
    "name": "SELASIH (OPP)",
    "desc": "JLN P17E",
    "lat": "2.924217",
    "lon": "101.700632"
  },
  {
    "id": 1005630,
    "name": "SK PUTRAJAYA PRESINT 18",
    "desc": "LEBUH BESTARI",
    "lat": "2.923833",
    "lon": "101.694185"
  },
  {
    "id": 1008559,
    "name": "SMK PUTRAJAYA P18 (1)",
    "desc": "JLN P18",
    "lat": "2.921772",
    "lon": "101.693807"
  },
  {
    "id": 1008562,
    "name": "PERUMAHAN P18D",
    "desc": "JLN P18",
    "lat": "2.919798",
    "lon": "101.696975"
  },
  {
    "id": 1008563,
    "name": "APARTMENT P18R4 (OPP)",
    "desc": "JLN P18",
    "lat": "2.916013",
    "lon": "101.697548"
  },
  {
    "id": 1005727,
    "name": "P18H",
    "desc": "JLN P18",
    "lat": "2.914374",
    "lon": "101.695769"
  },
  {
    "id": 1008565,
    "name": "PERUMAHAN P18K 1/1",
    "desc": "JLN P18",
    "lat": "2.913951",
    "lon": "101.692923"
  },
  {
    "id": 1008567,
    "name": "APARTMENT P18R8",
    "desc": "JLN P18",
    "lat": "2.913304",
    "lon": "101.690232"
  },
  {
    "id": 1005584,
    "name": "PPJ254 MRT PUTRAJAYA SENTRAL",
    "desc": "JALAN P7B",
    "lat": "2.932136",
    "lon": "101.671763"
  },
  {
    "id": 1005675,
    "name": "APARTMENT PUTRA HARMONI (SELATAN)",
    "desc": "JALAN P9",
    "lat": "2.936823",
    "lon": "101.672706"
  },
  {
    "id": 1000714,
    "name": "PANGSAPURI PUTRA HARMONI P9",
    "desc": "JLN P9B",
    "lat": "2.939167",
    "lon": "101.671713"
  },
  {
    "id": 1005589,
    "name": "PERUMAHAN RAJAWALI P9B",
    "desc": "JALAN P9B",
    "lat": "2.942354",
    "lon": "101.672834"
  },
  {
    "id": 1005590,
    "name": "PERUMAHAN P9 FASA 5&6 (SELATAN)",
    "desc": "JALAN P9B",
    "lat": "2.944294",
    "lon": "101.675795"
  },
  {
    "id": 1005679,
    "name": "PERUMAHAN P9 FASA 5&6 (TIMUR)",
    "desc": "JALAN P9",
    "lat": "2.945218",
    "lon": "101.677892"
  },
  {
    "id": 1008516,
    "name": "P9N7 KOMERSIAL P9G/7",
    "desc": "JLN P9G",
    "lat": "2.945928",
    "lon": "101.678562"
  },
  {
    "id": 1008518,
    "name": "PPA P9 FASA 2 (OPP)",
    "desc": "JLN P9G",
    "lat": "2.947126",
    "lon": "101.680361"
  },
  {
    "id": 1008521,
    "name": "P9N9 PERUMAHAN P9G/1",
    "desc": "JLN P9G",
    "lat": "2.947157",
    "lon": "101.682136"
  },
  {
    "id": 1008523,
    "name": "P9N11 PPA FASA 3 P9",
    "desc": "JLN P9G",
    "lat": "2.944788",
    "lon": "101.681533"
  },
  {
    "id": 1005591,
    "name": "SK PUTRAJAYA P9 (1) (TIMUR)",
    "desc": "LEBUH PERDANA BARAT",
    "lat": "2.942957",
    "lon": "101.679481"
  },
  {
    "id": 1008522,
    "name": "P9N12 PPA FASA 3 P9 (OPP)",
    "desc": "JLN P9G",
    "lat": "2.944885",
    "lon": "101.681595"
  },
  {
    "id": 1008520,
    "name": "P9N10 PERUMAHAN P9G/1",
    "desc": "JLN P9G",
    "lat": "2.947182",
    "lon": "101.681664"
  },
  {
    "id": 1008519,
    "name": "PPA P9 FASA 2",
    "desc": "JLN P9G",
    "lat": "2.947068",
    "lon": "101.680482"
  },
  {
    "id": 1008517,
    "name": "P9N8 PERUMAHAN P9G/5",
    "desc": "JLN P9G",
    "lat": "2.945945",
    "lon": "101.679219"
  },
  {
    "id": 1005601,
    "name": "PERUMAHAN  P9G",
    "desc": "JALAN P9",
    "lat": "2.944782",
    "lon": "101.678104"
  },
  {
    "id": 1005602,
    "name": "PERUMAHAN P9 FASA 5&6 (SELATAN)",
    "desc": "JALAN P9B",
    "lat": "2.944078",
    "lon": "101.675649"
  },
  {
    "id": 1005603,
    "name": "PERUMAHAN TEMPUA P9B",
    "desc": "JALAN P9B",
    "lat": "2.942339",
    "lon": "101.672996"
  },
  {
    "id": 1005650,
    "name": "SK PUTRAJAYA PRESINT 9 (2)",
    "desc": "JALAN P9",
    "lat": "2.937819",
    "lon": "101.673321"
  },
  {
    "id": 1005651,
    "name": "CENDERAWASIH P9A",
    "desc": "JALAN P9",
    "lat": "2.934715",
    "lon": "101.672865"
  },
  {
    "id": 1003903,
    "name": "HENTIAN KAJANG",
    "desc": "JLN REKO",
    "lat": "2.9570042504083",
    "lon": "101.79171937538"
  },
  {
    "id": 1002571,
    "name": "PLAZA PERABOT",
    "desc": "JLN REKO",
    "lat": "2.961152",
    "lon": "101.792062"
  },
  {
    "id": 1003224,
    "name": "SHELL",
    "desc": "JLN REKO",
    "lat": "2.9646004641002",
    "lon": "101.79096441243"
  },
  {
    "id": 1006251,
    "name": "SJK (T) WEST COUNTRY",
    "desc": "PERS BANGI",
    "lat": "2.965352",
    "lon": "101.788903"
  },
  {
    "id": 1006249,
    "name": "HENG",
    "desc": "PERS BANGI",
    "lat": "2.965467",
    "lon": "101.780922"
  },
  {
    "id": 1006247,
    "name": "BESTARI SEK 8",
    "desc": "PERS CEMPAKA",
    "lat": "2.968784",
    "lon": "101.772868"
  },
  {
    "id": 1006245,
    "name": "SPEEDMART SEK 7 (OPP)",
    "desc": "JLN 7/5",
    "lat": "2.971535",
    "lon": "101.773478"
  },
  {
    "id": 1006312,
    "name": "3 SK SEK 7",
    "desc": "JLN 7/2",
    "lat": "2.970502",
    "lon": "101.774785"
  },
  {
    "id": 1006313,
    "name": "BANGI (OPP)",
    "desc": "JLN 7/2",
    "lat": "2.968574",
    "lon": "101.775248"
  },
  {
    "id": 1006314,
    "name": "NO 17",
    "desc": "JLN 7/1",
    "lat": "2.96817",
    "lon": "101.777421"
  },
  {
    "id": 1006315,
    "name": "SERI TANJUNG (OPP)",
    "desc": "JLN 7/1",
    "lat": "2.968784",
    "lon": "101.780438"
  },
  {
    "id": 1006316,
    "name": "RIA (OPP)",
    "desc": "JLN 7/1",
    "lat": "2.970096",
    "lon": "101.78063"
  },
  {
    "id": 1006241,
    "name": "AL ISLAH",
    "desc": "JLN 7/1",
    "lat": "2.972848",
    "lon": "101.779703"
  },
  {
    "id": 1006317,
    "name": "SPEEDMART KJG MEWAH",
    "desc": "JLN 7/1",
    "lat": "2.975796",
    "lon": "101.780369"
  },
  {
    "id": 1006239,
    "name": "AN MEMORIAL VILLAGE",
    "desc": "JLN 7/1",
    "lat": "2.977431",
    "lon": "101.780722"
  },
  {
    "id": 1006237,
    "name": "KOPERASI LLN (OPP)",
    "desc": "JLN 7/1",
    "lat": "2.979689",
    "lon": "101.780663"
  },
  {
    "id": 1006235,
    "name": "KAJANG INDAH",
    "desc": "JLN 7/1",
    "lat": "2.985456",
    "lon": "101.779206"
  },
  {
    "id": 1006233,
    "name": "SRI SAGA (OPP)",
    "desc": "JLN 7/1",
    "lat": "2.988415",
    "lon": "101.778013"
  },
  {
    "id": 1006079,
    "name": "WINNIE PLAZA (OPP)",
    "desc": "JLN SG CHUA",
    "lat": "2.990825",
    "lon": "101.78033"
  },
  {
    "id": 1007233,
    "name": "MRT STADIUM KAJANG",
    "desc": "JLN STADIUM",
    "lat": "2.994009",
    "lon": "101.78641"
  },
  {
    "id": 1008068,
    "name": "YU HUA (OPP)",
    "desc": "JLN TIMUR",
    "lat": "2.996792",
    "lon": "101.790922"
  },
  {
    "id": 1004267,
    "name": "PEJABAT AIR SELANGOR",
    "desc": "JLN SEMENYIH",
    "lat": "2.992459",
    "lon": "101.793035"
  },
  {
    "id": 1001750,
    "name": "KOMERSIAL BANDAR KAJANG",
    "desc": "JLN SEMENYIH",
    "lat": "2.992967",
    "lon": "101.790135"
  },
  {
    "id": 1004231,
    "name": "PEKAN KAJANG",
    "desc": "JLN BESAR",
    "lat": "2.991911",
    "lon": "101.787865"
  },
  {
    "id": 1006064,
    "name": "WINNIE PLAZA",
    "desc": "JLN SG CHUA",
    "lat": "2.990711",
    "lon": "101.780377"
  },
  {
    "id": 1006232,
    "name": "SRI SAGA",
    "desc": "JLN 7/1",
    "lat": "2.988491",
    "lon": "101.778122"
  },
  {
    "id": 1006234,
    "name": "AVENUE",
    "desc": "JLN 7/1",
    "lat": "2.985275",
    "lon": "101.779403"
  },
  {
    "id": 1006236,
    "name": "KOPERASI LLN",
    "desc": "JLN 7/1",
    "lat": "2.979613",
    "lon": "101.78079"
  },
  {
    "id": 1006238,
    "name": "SRI KEJORA",
    "desc": "JLN 7/1",
    "lat": "2.977745",
    "lon": "101.780896"
  },
  {
    "id": 1006318,
    "name": "SPEEDMART KJG MEWAH (OPP)",
    "desc": "JLN 7/1",
    "lat": "2.975737",
    "lon": "101.780491"
  },
  {
    "id": 1006240,
    "name": "AL ISLAH (OPP)",
    "desc": "JLN 7/1",
    "lat": "2.972804",
    "lon": "101.779891"
  },
  {
    "id": 1006319,
    "name": "RIA",
    "desc": "JLN 7/1",
    "lat": "2.970123",
    "lon": "101.780749"
  },
  {
    "id": 1006320,
    "name": "SERI TANJUNG",
    "desc": "JLN 7/1",
    "lat": "2.968668",
    "lon": "101.780551"
  },
  {
    "id": 1006321,
    "name": "NO 24",
    "desc": "JLN 7/1",
    "lat": "2.968032",
    "lon": "101.777446"
  },
  {
    "id": 1006322,
    "name": "BANGI",
    "desc": "JLN 7/2",
    "lat": "2.96836",
    "lon": "101.77515"
  },
  {
    "id": 1006323,
    "name": "3 SK SEK 7 (OPP)",
    "desc": "JLN 7/2",
    "lat": "2.970483",
    "lon": "101.774694"
  },
  {
    "id": 1006244,
    "name": "SPEEDMART SEK 7",
    "desc": "JLN 7/5",
    "lat": "2.971453",
    "lon": "101.773123"
  },
  {
    "id": 1006246,
    "name": "CK RAHIM",
    "desc": "PERS CEMPAKA",
    "lat": "2.970108",
    "lon": "101.772791"
  },
  {
    "id": 1006248,
    "name": "4 TAMBAHAN",
    "desc": "PERS BANGI",
    "lat": "2.965731",
    "lon": "101.781044"
  },
  {
    "id": 1006250,
    "name": "REKO SENTRAL",
    "desc": "PERS BANGI",
    "lat": "2.965787",
    "lon": "101.789334"
  },
  {
    "id": 1003225,
    "name": "SHELL (OPP)",
    "desc": "JLN REKO",
    "lat": "2.963936",
    "lon": "101.791419"
  },
  {
    "id": 1002572,
    "name": "PLAZA PERABOT (OPP)",
    "desc": "JLN REKO",
    "lat": "2.960963",
    "lon": "101.792391"
  },
  {
    "id": 1003663,
    "name": "SK TAMAN MELAWATI",
    "desc": "JLN MELAWATI 4",
    "lat": "3.2242819151825",
    "lon": "101.74735161866"
  },
  {
    "id": 1007533,
    "name": "BUKIT MELAWATI (TIMUR)",
    "desc": "JLN TAMAN MELAWATI",
    "lat": "3.221104",
    "lon": "101.748335"
  },
  {
    "id": 1000664,
    "name": "TAMAN MELAWATI A (UTARA)",
    "desc": "JLN TMN MELAWATI",
    "lat": "3.218451",
    "lon": "101.748741"
  },
  {
    "id": 1003472,
    "name": "SMK TAMAN MELAWATI",
    "desc": "JLN TAMAN MELAWATI",
    "lat": "3.214588",
    "lon": "101.75088"
  },
  {
    "id": 1003073,
    "name": "SK TAMAN MELAWATI 2",
    "desc": "JLN TMN MELAWATI",
    "lat": "3.2121756436093",
    "lon": "101.75218881391"
  },
  {
    "id": 1003885,
    "name": "TELEKOM MELAWATI",
    "desc": "JLN TMN MELAWATI",
    "lat": "3.210046",
    "lon": "101.753108"
  },
  {
    "id": 1000866,
    "name": "AJ379 GIANT ULU KELANG (OPP)",
    "desc": "PERS PERMATA",
    "lat": "3.206217",
    "lon": "101.752282"
  },
  {
    "id": 1000182,
    "name": "TASKA PASTI ILMI",
    "desc": "PERS PERMATA",
    "lat": "3.203687",
    "lon": "101.751966"
  },
  {
    "id": 1006110,
    "name": "TAMAN LEMBAH KERAMAT",
    "desc": "JLN AU 5",
    "lat": "3.201588",
    "lon": "101.752967"
  },
  {
    "id": 1001989,
    "name": "MEDAN SELERA AU5 (OPP)",
    "desc": "JLN AU4",
    "lat": "3.201217",
    "lon": "101.756264"
  },
  {
    "id": 1003383,
    "name": "SMK LEMBAH KERAMAT",
    "desc": "JLN AU4",
    "lat": "3.1986372485529",
    "lon": "101.75951060238"
  },
  {
    "id": 1003396,
    "name": "SMK SERI KERAMAT",
    "desc": "JLN AU 4",
    "lat": "3.197506",
    "lon": "101.759586"
  },
  {
    "id": 1000678,
    "name": "FLAT AL-RIDHUAN",
    "desc": "JLN UKAY PERDANA",
    "lat": "3.1955256897099",
    "lon": "101.76477877917"
  },
  {
    "id": 1004167,
    "name": "UKAY BISTARI",
    "desc": "JLN UKAY PERDANA",
    "lat": "3.1971314777768",
    "lon": "101.76771022437"
  },
  {
    "id": 1004168,
    "name": "UKAY SERING",
    "desc": "JLN UKAY PERDANA",
    "lat": "3.1984630497507",
    "lon": "101.772077683"
  },
  {
    "id": 1000145,
    "name": "APARTMENT SRI MELOR",
    "desc": "JLN UKAY PERDANA 4",
    "lat": "3.203765",
    "lon": "101.775552"
  },
  {
    "id": 1001988,
    "name": "UKAY PERDANA 4 RESIDENCE",
    "desc": "JLN UKAY PERDANA 4",
    "lat": "3.206473",
    "lon": "101.773497"
  },
  {
    "id": 1001987,
    "name": "SRI BAIDURI APARTMENT (UTARA)",
    "desc": "JLN UKAY PERDANA 3",
    "lat": "3.206235",
    "lon": "101.772694"
  },
  {
    "id": 1002172,
    "name": "SRI BAIDURI APARTMENT (SELATAN)",
    "desc": "JLN UKAY PERDANA 3",
    "lat": "3.2052611101736",
    "lon": "101.77209690289"
  },
  {
    "id": 1000144,
    "name": "APARTMENT SRI MELOR (OPP)",
    "desc": "JLN UKAY PERDANA 4",
    "lat": "3.2038106004179",
    "lon": "101.77566994197"
  },
  {
    "id": 1008202,
    "name": "KOMERSIAL TIMUR",
    "desc": "JLN UP 1/5",
    "lat": "3.203264",
    "lon": "101.777698"
  },
  {
    "id": 1008203,
    "name": "KOMERSIAL SELATAN",
    "desc": "JLN UP 1/1",
    "lat": "3.204523",
    "lon": "101.778753"
  },
  {
    "id": 1008204,
    "name": "SPRING VILLE",
    "desc": "JLN UP 1/1",
    "lat": "3.206662",
    "lon": "101.779893"
  },
  {
    "id": 1000803,
    "name": "PANGSAPURI KAYANGAN (OPP)",
    "desc": "JLN UKAY PERDANA",
    "lat": "3.210224590556",
    "lon": "101.77922229692"
  },
  {
    "id": 1006231,
    "name": "UKAY PERDANA",
    "desc": "JLN UKAY PERDANA",
    "lat": "3.212225",
    "lon": "101.778038"
  },
  {
    "id": 1000802,
    "name": "PANGSAPURI KAYANGAN",
    "desc": "JLN UKAY PERDANA",
    "lat": "3.2104389422711",
    "lon": "101.77938110922"
  },
  {
    "id": 1002723,
    "name": "PANGSAPURI SRI IMPIAN",
    "desc": "JLN UKAY PERDANA",
    "lat": "3.2081186264782",
    "lon": "101.78133917132"
  },
  {
    "id": 1000029,
    "name": "PUSAT KOMERSIAL UP (OPP)",
    "desc": "JLN UKAY PERDANA",
    "lat": "3.204040093485",
    "lon": "101.77916823741"
  },
  {
    "id": 1004101,
    "name": "UKAY PERDANA (OPP)",
    "desc": "JLN UKAY PERDANA",
    "lat": "3.201818",
    "lon": "101.778567"
  },
  {
    "id": 1006230,
    "name": "TAMAN RIANA (OPP)",
    "desc": "JLN SG SERING",
    "lat": "3.19789",
    "lon": "101.77715"
  },
  {
    "id": 1006229,
    "name": "RIANA",
    "desc": "JLN RIANA 1",
    "lat": "3.19917",
    "lon": "101.77842"
  },
  {
    "id": 1006228,
    "name": "INDAH",
    "desc": "LORONG SERING",
    "lat": "3.19684",
    "lon": "101.77995"
  },
  {
    "id": 1006108,
    "name": "UKAY SERING",
    "desc": "JLN UKAY PERDANA",
    "lat": "3.198177",
    "lon": "101.772198"
  },
  {
    "id": 1000677,
    "name": "FLAT AL-RIDHUAN (OPP)",
    "desc": "JLN UKAY PERDANA",
    "lat": "3.1952724313484",
    "lon": "101.76454264816"
  },
  {
    "id": 1003382,
    "name": "SMK SERI KERAMAT (OPP)",
    "desc": "JLN AU4",
    "lat": "3.1971809646539",
    "lon": "101.75946499323"
  },
  {
    "id": 1000042,
    "name": "SMK LEMBAH KERAMAT (OPP)",
    "desc": "JLN AU4",
    "lat": "3.198614",
    "lon": "101.759309"
  },
  {
    "id": 1000575,
    "name": "AJ346 DEWAN SERBAGUNA AU5",
    "desc": "JLN AU5",
    "lat": "3.2011059486184",
    "lon": "101.75689181237"
  },
  {
    "id": 1002870,
    "name": "TAMAN LEMBAH KERAMAT",
    "desc": "JLN AU5",
    "lat": "3.201432",
    "lon": "101.752878"
  },
  {
    "id": 1000181,
    "name": "TASKA PASTI ILMI (OPP)",
    "desc": "PERS PERMATA",
    "lat": "3.2040785623068",
    "lon": "101.75183927523"
  },
  {
    "id": 1000865,
    "name": "GIANT ULU KELANG",
    "desc": "PERS PERMATA",
    "lat": "3.2068730797356",
    "lon": "101.75225081977"
  },
  {
    "id": 1000430,
    "name": "TAMAN MELAWATI B",
    "desc": "JLN TMN MELAWATI",
    "lat": "3.2107843167382",
    "lon": "101.75265211885"
  },
  {
    "id": 1003410,
    "name": "SMK TAMAN MELAWATI",
    "desc": "JLN TMN MELAWATI",
    "lat": "3.2148546138065",
    "lon": "101.75039678309"
  },
  {
    "id": 1002231,
    "name": "TAMAN MELAWATI A (UTARA)",
    "desc": "JLN TMN MELAWATI",
    "lat": "3.2179314340885",
    "lon": "101.74863097761"
  },
  {
    "id": 1000663,
    "name": "TAMAN MELAWATI A (UTARA)",
    "desc": "JLN TMN MELAWATI",
    "lat": "3.2216203339928",
    "lon": "101.74813730306"
  },
  {
    "id": 1006414,
    "name": "BANTING",
    "desc": "JLN BUNGA PEKAN 9",
    "lat": "2.811984",
    "lon": "101.503445"
  },
  {
    "id": 1006367,
    "name": "PEJABAT PERTANIAN",
    "desc": "JLN SULTAN ABDUL SAMAD",
    "lat": "2.817882",
    "lon": "101.518711"
  },
  {
    "id": 1006369,
    "name": "JKR KUALA LANGAT",
    "desc": "JLN SULTAN ABDUL SAMAD",
    "lat": "2.819277",
    "lon": "101.521956"
  },
  {
    "id": 1006371,
    "name": "KAFA INTEGRASI",
    "desc": "JLN SULTAN ABDUL SAMAD",
    "lat": "2.820608",
    "lon": "101.525184"
  },
  {
    "id": 1006373,
    "name": "SMK BANTING (OPP)",
    "desc": "31",
    "lat": "2.822258",
    "lon": "101.529163"
  },
  {
    "id": 1006375,
    "name": "AIMPOINT PLAZA (OPP)",
    "desc": "31",
    "lat": "2.824055",
    "lon": "101.533376"
  },
  {
    "id": 1006377,
    "name": "SMK SG MANGGIS",
    "desc": "31",
    "lat": "2.825598",
    "lon": "101.536892"
  },
  {
    "id": 1006379,
    "name": "SJKT MANGGIS",
    "desc": "31",
    "lat": "2.826731",
    "lon": "101.540579"
  },
  {
    "id": 1006381,
    "name": "MAHKOTA INDUSTRIAL BANTING",
    "desc": "31",
    "lat": "2.830321",
    "lon": "101.549008"
  },
  {
    "id": 1006383,
    "name": "KG SG MANGGIS",
    "desc": "31",
    "lat": "2.833871",
    "lon": "101.554631"
  },
  {
    "id": 1006385,
    "name": "KG OLAK LEMPIT (BARAT)",
    "desc": "31",
    "lat": "2.835663",
    "lon": "101.560635"
  },
  {
    "id": 1006387,
    "name": "TAMAN DESA IDAMAN 2",
    "desc": "31",
    "lat": "2.837151",
    "lon": "101.567174"
  },
  {
    "id": 1006388,
    "name": "TAMAN DESA IDAMAN,KG OLAK LEMPIT",
    "desc": "31",
    "lat": "2.837348",
    "lon": "101.573825"
  },
  {
    "id": 1006390,
    "name": "PERUMAHAN TAMAN MERBAH",
    "desc": "31",
    "lat": "2.836944",
    "lon": "101.582561"
  },
  {
    "id": 1006392,
    "name": "SRA OLAK LEMPIT",
    "desc": "31",
    "lat": "2.836604",
    "lon": "101.586811"
  },
  {
    "id": 1006394,
    "name": "KG OLAK LEMPIT (TIMUR)",
    "desc": "31",
    "lat": "2.835566",
    "lon": "101.595052"
  },
  {
    "id": 1006396,
    "name": "KOMPLEKS NIAGA",
    "desc": "31",
    "lat": "2.835158",
    "lon": "101.597981"
  },
  {
    "id": 1006398,
    "name": "TAMAN NURI INDAH",
    "desc": "31",
    "lat": "2.833833",
    "lon": "101.606184"
  },
  {
    "id": 1006400,
    "name": "OLAK LEMPIT",
    "desc": "32",
    "lat": "2.826847",
    "lon": "101.609873"
  },
  {
    "id": 1006402,
    "name": "MARA BANTING",
    "desc": "32",
    "lat": "2.812737",
    "lon": "101.624357"
  },
  {
    "id": 1006404,
    "name": "GENTING SANYEN (OPP)",
    "desc": "32",
    "lat": "2.802827",
    "lon": "101.653231"
  },
  {
    "id": 1002838,
    "name": "LANGAT MURNI",
    "desc": "32",
    "lat": "2.799123",
    "lon": "101.657588"
  },
  {
    "id": 1006406,
    "name": "APARTMENT LANGAT UTAMA",
    "desc": "32",
    "lat": "2.796264",
    "lon": "101.660854"
  },
  {
    "id": 1006408,
    "name": "",
    "desc": "32",
    "lat": "2.778686",
    "lon": "101.678057"
  },
  {
    "id": 1006409,
    "name": "2",
    "desc": "JLN KLIA 2/1",
    "lat": "2.745307",
    "lon": "101.684533"
  },
  {
    "id": 1008290,
    "name": "TABUNG HAJI",
    "desc": "JLN MASJID KLIA",
    "lat": "2.788397",
    "lon": "101.678793"
  },
  {
    "id": 1006407,
    "name": "APARTMENT LANGAT UTAMA",
    "desc": "32",
    "lat": "2.798963",
    "lon": "101.657267"
  },
  {
    "id": 1006405,
    "name": "GENTING SANYEN",
    "desc": "32",
    "lat": "2.802627",
    "lon": "101.653074"
  },
  {
    "id": 1006403,
    "name": "HILL",
    "desc": "32",
    "lat": "2.812211",
    "lon": "101.624274"
  },
  {
    "id": 1006399,
    "name": "TAMAN NURI INDAH",
    "desc": "31",
    "lat": "2.833607",
    "lon": "101.605377"
  },
  {
    "id": 1006397,
    "name": "KOMPLEKS NIAGA",
    "desc": "31",
    "lat": "2.834976",
    "lon": "101.598232"
  },
  {
    "id": 1006395,
    "name": "KG OLAK LEMPIT (TIMUR)",
    "desc": "31",
    "lat": "2.835518",
    "lon": "101.594453"
  },
  {
    "id": 1006393,
    "name": "SK OLAK LEMPIT",
    "desc": "31",
    "lat": "2.836452",
    "lon": "101.586649"
  },
  {
    "id": 1006391,
    "name": "PERUMAHAN TAMAN MERBAH",
    "desc": "31",
    "lat": "2.836806",
    "lon": "101.582108"
  },
  {
    "id": 1006413,
    "name": "TAMAN MERBAH RIMBA",
    "desc": "31",
    "lat": "2.836925",
    "lon": "101.579386"
  },
  {
    "id": 1006389,
    "name": "TAMAN DESA IDAMAN,KG OLAK LEMPIT",
    "desc": "31",
    "lat": "2.837193",
    "lon": "101.574031"
  },
  {
    "id": 1006386,
    "name": "KG OLAK LEMPIT (BARAT)",
    "desc": "31",
    "lat": "2.835499",
    "lon": "101.560656"
  },
  {
    "id": 1006384,
    "name": "KG SG MANGGIS",
    "desc": "31",
    "lat": "2.833268",
    "lon": "101.554115"
  },
  {
    "id": 1006382,
    "name": "MAHKOTA INDUSTRIAL (OPP)",
    "desc": "31",
    "lat": "2.831658",
    "lon": "101.551535"
  },
  {
    "id": 1006380,
    "name": "KOMPLEKS PENGHULU MANGGIS",
    "desc": "31",
    "lat": "2.826558",
    "lon": "101.540526"
  },
  {
    "id": 1006378,
    "name": "SMK SG MANGGIS (OPP)",
    "desc": "31",
    "lat": "2.825643",
    "lon": "101.537589"
  },
  {
    "id": 1006376,
    "name": "AIMPOINT PLAZA",
    "desc": "31",
    "lat": "2.823871",
    "lon": "101.533347"
  },
  {
    "id": 1006374,
    "name": "SMK BANTING",
    "desc": "31",
    "lat": "2.821658",
    "lon": "101.528247"
  },
  {
    "id": 1006372,
    "name": "SMK TELOK DATOK",
    "desc": "JLN SULTAN ABDUL SAMAD",
    "lat": "2.820041",
    "lon": "101.524656"
  },
  {
    "id": 1006370,
    "name": "TAMAN SRI TELOK DATOK",
    "desc": "JLN SULTAN ABDUL SAMAD",
    "lat": "2.818938",
    "lon": "101.521836"
  },
  {
    "id": 1006368,
    "name": "PEJABAT PERTANIAN (OPP)",
    "desc": "JLN SULTAN ABDUL SAMAD",
    "lat": "2.817628",
    "lon": "101.518756"
  },
  {
    "id": 1006476,
    "name": "SELAYANG MUTIARA",
    "desc": "JLN SG TUA",
    "lat": "3.260901",
    "lon": "101.673262"
  },
  {
    "id": 1006481,
    "name": "SELAYANG PERMAI",
    "desc": "JLN MUTIARA 1",
    "lat": "3.25942",
    "lon": "101.666999"
  },
  {
    "id": 1006479,
    "name": "JLN MUTIARA 6",
    "desc": "JLN 2/5",
    "lat": "3.256476",
    "lon": "101.661784"
  },
  {
    "id": 1006477,
    "name": "SEGAR 2",
    "desc": "JLN 2/1",
    "lat": "3.255054",
    "lon": "101.659263"
  },
  {
    "id": 1007618,
    "name": "STADIUM SELAYANG",
    "desc": "JLN 2/2",
    "lat": "3.255335",
    "lon": "101.656733"
  },
  {
    "id": 1007614,
    "name": "SELAYANG 18 RESIDENCES",
    "desc": "PERS 1",
    "lat": "3.255311",
    "lon": "101.654675"
  },
  {
    "id": 1002068,
    "name": "MPS",
    "desc": "PERS 3",
    "lat": "3.253696",
    "lon": "101.652835"
  },
  {
    "id": 1000118,
    "name": "APT DAHLIA BLOK B",
    "desc": "JLN PERS 3",
    "lat": "3.252464",
    "lon": "101.650775"
  },
  {
    "id": 1000116,
    "name": "APT DAHLIA BLOK A",
    "desc": "JLN PERS 3",
    "lat": "3.252717",
    "lon": "101.647661"
  },
  {
    "id": 1002653,
    "name": "PUNCAK TEMPLER",
    "desc": "JLN PERS 3",
    "lat": "3.256829",
    "lon": "101.647681"
  },
  {
    "id": 1001471,
    "name": "KI PARK SELAYANG",
    "desc": "JLN PERS 3",
    "lat": "3.259302",
    "lon": "101.651664"
  },
  {
    "id": 1001851,
    "name": "MAJLIS PEPERIKSAAN MSIA",
    "desc": "PERS 1",
    "lat": "3.260836",
    "lon": "101.652611"
  },
  {
    "id": 1007621,
    "name": "TANAH DAERAH GOMBAK",
    "desc": "PERS PEGAWAI",
    "lat": "3.262729",
    "lon": "101.653016"
  },
  {
    "id": 1003378,
    "name": "IPD GOMBAK (OPP)",
    "desc": "JLN BIDARA",
    "lat": "3.250183698747",
    "lon": "101.64100340711"
  },
  {
    "id": 1002452,
    "name": "PANGSAPURI MERAK",
    "desc": "JLN BIDARA",
    "lat": "3.246421",
    "lon": "101.642195"
  },
  {
    "id": 1001078,
    "name": "TAMAN BIDARA (UTARA)",
    "desc": "JLN BIDARA",
    "lat": "3.243248",
    "lon": "101.643574"
  },
  {
    "id": 1007620,
    "name": "SURAU FIRDAUS TAMAN BIDARA",
    "desc": "JLN BIDARA",
    "lat": "3.241904",
    "lon": "101.644135"
  },
  {
    "id": 1004048,
    "name": "TAMAN SELAYANG JAYA",
    "desc": "JLN TAMAN SELAYANG JAYA",
    "lat": "3.239014",
    "lon": "101.646772"
  },
  {
    "id": 1001179,
    "name": "TAMAN SELAYANG JAYA",
    "desc": "JLN SJ 27",
    "lat": "3.236613",
    "lon": "101.647045"
  },
  {
    "id": 1003158,
    "name": "SELAYANG MALL (OPP)",
    "desc": "JLN SU11",
    "lat": "3.236374",
    "lon": "101.644596"
  },
  {
    "id": 1000931,
    "name": "HOSPITAL SELAYANG",
    "desc": "L/RAYA SELAYANG KEPONG",
    "lat": "3.241316",
    "lon": "101.648081"
  },
  {
    "id": 1000505,
    "name": "IDEAL CONVENTION CENTRE",
    "desc": "L/RAYA SELAYANG KEPONG",
    "lat": "3.244937",
    "lon": "101.653269"
  },
  {
    "id": 1003159,
    "name": "BULATAN BERINGIN SELAYANG",
    "desc": "JLN BESAR",
    "lat": "3.250878",
    "lon": "101.657971"
  },
  {
    "id": 1003826,
    "name": "TAMAN SELAYANG SEGAR",
    "desc": "JLN BESAR",
    "lat": "3.251781",
    "lon": "101.660001"
  },
  {
    "id": 1003516,
    "name": "TAMAN SELAYANG INDAH",
    "desc": "JLN 35A",
    "lat": "3.249568",
    "lon": "101.662934"
  },
  {
    "id": 1002097,
    "name": "SELAYANG BARU (BARAT)",
    "desc": "JLN 29",
    "lat": "3.249922",
    "lon": "101.664378"
  },
  {
    "id": 1002288,
    "name": "SELAYANG BARU (UTARA)",
    "desc": "JLN 29",
    "lat": "3.250902",
    "lon": "101.666458"
  },
  {
    "id": 1001317,
    "name": "PERUMAHAN SELAYANG BARU",
    "desc": "JLN 11",
    "lat": "3.250014",
    "lon": "101.670495"
  },
  {
    "id": 1001336,
    "name": "BALAI POLIS SELAYANG BARU (OPP)",
    "desc": "JLN 11",
    "lat": "3.248185",
    "lon": "101.671422"
  },
  {
    "id": 1001636,
    "name": "KOMPLEKS SRI SIANTAN (OPP)",
    "desc": "JLN SG TUA",
    "lat": "3.2463647736084",
    "lon": "101.67438233996"
  },
  {
    "id": 1001555,
    "name": "SMK TAMAN SELAYANG (OPP)",
    "desc": "JLN SG TUA",
    "lat": "3.2433294788351",
    "lon": "101.67406081935"
  },
  {
    "id": 1003331,
    "name": "SMK SERI SELAYANG (OPP)",
    "desc": "JLN SG TUA",
    "lat": "3.2419046233919",
    "lon": "101.67360488632"
  },
  {
    "id": 1001166,
    "name": "SK TAMAN SELAYANG (OPP)",
    "desc": "JLN SG TUA",
    "lat": "3.241390294951",
    "lon": "101.67356789119"
  },
  {
    "id": 1002592,
    "name": "PETRONAS DATARAN SELAYANG",
    "desc": "JLN SG TUA",
    "lat": "3.238351",
    "lon": "101.673264"
  },
  {
    "id": 1001874,
    "name": "MASJID AL-AMANIAH",
    "desc": "JLN SG TUA",
    "lat": "3.2360780145787",
    "lon": "101.67393897808"
  },
  {
    "id": 1001892,
    "name": "KOMPLEKS AMANIAH",
    "desc": "JLN BT CAVES",
    "lat": "3.235404",
    "lon": "101.675139"
  },
  {
    "id": 1001444,
    "name": "PADANG AWAM BATU CAVES",
    "desc": "JLN BT CAVES",
    "lat": "3.235693",
    "lon": "101.677353"
  },
  {
    "id": 1004263,
    "name": "PLAZA UMNO BATU CAVES",
    "desc": "JLN BATU CAVES",
    "lat": "3.236009",
    "lon": "101.679157"
  },
  {
    "id": 1000479,
    "name": "KOMERSIAL SRI GOMBAK",
    "desc": "MRR2",
    "lat": "3.236141",
    "lon": "101.698475"
  },
  {
    "id": 1003973,
    "name": "HAB BAS GREENWOOD (OPP)",
    "desc": "JLN BT CAVES",
    "lat": "3.234304",
    "lon": "101.706215"
  },
  {
    "id": 1001052,
    "name": "JEJANTAS SPG 3",
    "desc": "JLN BT CAVES",
    "lat": "3.233993",
    "lon": "101.709501"
  },
  {
    "id": 1008379,
    "name": "AYUMAN SUITES (OPP)",
    "desc": "JLN GOMBAK",
    "lat": "3.234313",
    "lon": "101.713826"
  },
  {
    "id": 1001638,
    "name": "SK SG PUSU (OPP)",
    "desc": "JLN GOMBAK",
    "lat": "3.236011",
    "lon": "101.714303"
  },
  {
    "id": 1003638,
    "name": "SK GOMBAK UTARA (OPP)",
    "desc": "JLN GOMBAK",
    "lat": "3.238763",
    "lon": "101.714013"
  },
  {
    "id": 1007512,
    "name": "KG SG PUSU (UTARA)",
    "desc": "JLN GOMBAK",
    "lat": "3.241288",
    "lon": "101.713754"
  },
  {
    "id": 1007513,
    "name": "KG SG CHINCIN (SELATAN)",
    "desc": "JLN GOMBAK",
    "lat": "3.242534",
    "lon": "101.713711"
  },
  {
    "id": 1001255,
    "name": "KG SG CHINCHIN",
    "desc": "JLN GOMBAK",
    "lat": "3.245066",
    "lon": "101.715124"
  },
  {
    "id": 1003801,
    "name": "MASJID SG CHINCHIN",
    "desc": "JLN GOMBAK",
    "lat": "3.2450934959555",
    "lon": "101.71631757995"
  },
  {
    "id": 1001457,
    "name": "KG SG CHINCIN (TIMUR)",
    "desc": "JLN GOMBAK",
    "lat": "3.243951",
    "lon": "101.720037"
  },
  {
    "id": 1003118,
    "name": "SK INTEGRASI GOMBAK",
    "desc": "JLN SG PUSU",
    "lat": "3.2451216968165",
    "lon": "101.72282634143"
  },
  {
    "id": 1001696,
    "name": "KUARTERS INSTITUT PENDIDIKAN",
    "desc": "JLN SG PUSU",
    "lat": "3.245128",
    "lon": "101.724581"
  },
  {
    "id": 1003361,
    "name": "INTERNATIONAL ISLAMIC SCHOOL",
    "desc": "JLN SG PUSU",
    "lat": "3.2469294895777",
    "lon": "101.72816557199"
  },
  {
    "id": 1008656,
    "name": "UTAMA UIA",
    "desc": "JLN SG PUSU",
    "lat": "3.248593",
    "lon": "101.732684"
  },
  {
    "id": 1001321,
    "name": "FLAT TAMAN MELATI A9",
    "desc": "JLN TAMAN MELATI",
    "lat": "3.226889",
    "lon": "101.725241"
  },
  {
    "id": 1001801,
    "name": "LRT GOMBAK",
    "desc": "JLN TERMINAL PUTRA",
    "lat": "3.231094",
    "lon": "101.724291"
  },
  {
    "id": 1001322,
    "name": "FLAT TAMAN MELATI E6",
    "desc": "JLN TAMAN MELATI",
    "lat": "3.227109",
    "lon": "101.725318"
  },
  {
    "id": 1003362,
    "name": "KOLEJ VOKASIONAL GOMBAK",
    "desc": "JLN SG PUSU",
    "lat": "3.246681237351",
    "lon": "101.72831266652"
  },
  {
    "id": 1001697,
    "name": "KUARTERS GURU BATU 8",
    "desc": "JLN SG PUSU",
    "lat": "3.244887",
    "lon": "101.725061"
  },
  {
    "id": 1003117,
    "name": "SBP INTEGRASI GOMBAK",
    "desc": "JLN SG PUSU",
    "lat": "3.2442038128716",
    "lon": "101.72203012305"
  },
  {
    "id": 1003164,
    "name": "KG SG CHINCIN (TIMUR)",
    "desc": "JLN GOMBAK",
    "lat": "3.243757",
    "lon": "101.720204"
  },
  {
    "id": 1002869,
    "name": "MASJID SG CHINCHIN (OPP)",
    "desc": "JLN GOMBAK",
    "lat": "3.244645495729",
    "lon": "101.71670083534"
  },
  {
    "id": 1001256,
    "name": "KG SG CHINCHIN",
    "desc": "JLN GOMBAK",
    "lat": "3.244675",
    "lon": "101.714887"
  },
  {
    "id": 1001456,
    "name": "KG SG CHINCHIN (UTARA)",
    "desc": "JLN GOMBAK",
    "lat": "3.242955",
    "lon": "101.713955"
  },
  {
    "id": 1000265,
    "name": "KG GOMBAK UTARA",
    "desc": "JLN GOMBAK",
    "lat": "3.241485",
    "lon": "101.714034"
  },
  {
    "id": 1003639,
    "name": "SK GOMBAK UTARA",
    "desc": "JLN GOMBAK",
    "lat": "3.2394194168769",
    "lon": "101.71426129667"
  },
  {
    "id": 1003654,
    "name": "SK SG PUSU",
    "desc": "JLN GOMBAK",
    "lat": "3.237334",
    "lon": "101.714453"
  },
  {
    "id": 1001949,
    "name": "AYUMAN SUITES",
    "desc": "JLN GOMBAK",
    "lat": "3.234067467189",
    "lon": "101.71410370288"
  },
  {
    "id": 1001051,
    "name": "JEJANTAS SPG 3",
    "desc": "JLN BT CAVES",
    "lat": "3.233572",
    "lon": "101.709758"
  },
  {
    "id": 1003974,
    "name": "HAB BAS GREENWOOD",
    "desc": "JLN BT CAVES",
    "lat": "3.234012",
    "lon": "101.706193"
  },
  {
    "id": 1008342,
    "name": "HENTIAN GREENWOOD",
    "desc": "JLN BATU CAVES",
    "lat": "3.234798",
    "lon": "101.704505"
  },
  {
    "id": 1006472,
    "name": "COURT",
    "desc": "JLN LINGKARAN TENGAH 2",
    "lat": "3.235857",
    "lon": "101.698832"
  },
  {
    "id": 1006473,
    "name": "BATU CAVES",
    "desc": "JLN BATU CAVES",
    "lat": "3.235583",
    "lon": "101.692558"
  },
  {
    "id": 1001708,
    "name": "PLAZA UMNO BATU CAVES",
    "desc": "JLN BATU CAVES",
    "lat": "3.235775",
    "lon": "101.679588"
  },
  {
    "id": 1001445,
    "name": "PADANG AWAM BATU CAVES (OPP)",
    "desc": "JLN BT CAVES",
    "lat": "3.235465",
    "lon": "101.677474"
  },
  {
    "id": 1001728,
    "name": "KOMPLEKS AMANIAH (OPP)",
    "desc": "JLN BT CAVES",
    "lat": "3.235101",
    "lon": "101.675116"
  },
  {
    "id": 1002356,
    "name": "KOMERSIAL TAMAN SELAYANG",
    "desc": "JLN SG TUA",
    "lat": "3.2359674149813",
    "lon": "101.67359839481"
  },
  {
    "id": 1007547,
    "name": "DATARAN SELAYANG (OPP)",
    "desc": "JLN SG TUA",
    "lat": "3.23787",
    "lon": "101.67325"
  },
  {
    "id": 1003330,
    "name": "SK TMN SELAYANG",
    "desc": "JLN SG TUA",
    "lat": "3.241483",
    "lon": "101.673317"
  },
  {
    "id": 1008344,
    "name": "SMK SERI SELAYANG",
    "desc": "JLN SG TUA",
    "lat": "3.241907",
    "lon": "101.673347"
  },
  {
    "id": 1001167,
    "name": "SMK TAMAN SELAYANG",
    "desc": "JLN SG TUA",
    "lat": "3.24367",
    "lon": "101.673877"
  },
  {
    "id": 1001635,
    "name": "KOMPLEKS SRI SIANTAN",
    "desc": "JLN SG TUA",
    "lat": "3.2462734187942",
    "lon": "101.67408086665"
  },
  {
    "id": 1000198,
    "name": "BALAI POLIS SELAYANG BARU",
    "desc": "JLN 11",
    "lat": "3.248103",
    "lon": "101.671316"
  },
  {
    "id": 1002098,
    "name": "PERUMAHAN SELAYANG BARU",
    "desc": "JLN 11",
    "lat": "3.251207",
    "lon": "101.669677"
  },
  {
    "id": 1000007,
    "name": "SELAYANG BARU (UTARA)",
    "desc": "JLN 29",
    "lat": "3.250971",
    "lon": "101.666894"
  },
  {
    "id": 1003138,
    "name": "SELAYANG BARU (BARAT)",
    "desc": "JLN 29",
    "lat": "3.249764",
    "lon": "101.664336"
  },
  {
    "id": 1007619,
    "name": "TAMAN SELAYANG INDAH",
    "desc": "JLN 35A",
    "lat": "3.249575",
    "lon": "101.662586"
  },
  {
    "id": 1001067,
    "name": "TAMAN SELAYANG SEGAR",
    "desc": "JLN BESAR",
    "lat": "3.251495",
    "lon": "101.659824"
  },
  {
    "id": 1003160,
    "name": "BULATAN BERINGIN",
    "desc": "JLN BESAR",
    "lat": "3.250406",
    "lon": "101.658164"
  },
  {
    "id": 1001842,
    "name": "MAGNA VILLE CONDOMINIUM",
    "desc": "L/RAYA SELAYANG KEPONG",
    "lat": "3.243914",
    "lon": "101.652866"
  },
  {
    "id": 1002194,
    "name": "KOMPLEKS SELAYANG CAPITOL",
    "desc": "L/RAYA SELAYANG KEPONG",
    "lat": "3.240852",
    "lon": "101.647885"
  },
  {
    "id": 1003157,
    "name": "SELAYANG MALL",
    "desc": "JLN SU11",
    "lat": "3.236597",
    "lon": "101.644088"
  },
  {
    "id": 1007613,
    "name": "TAMAN SELAYANG JAYA",
    "desc": "JLN SU 11",
    "lat": "3.236372",
    "lon": "101.645195"
  },
  {
    "id": 1001178,
    "name": "TAMAN SELAYANG JAYA (BARAT)",
    "desc": "JLN SJ 27",
    "lat": "3.236617",
    "lon": "101.646895"
  },
  {
    "id": 1004047,
    "name": "TAMAN SELAYANG JAYA (UTARA)",
    "desc": "JLN TAMAN SELAYANG JAYA",
    "lat": "3.238926",
    "lon": "101.646561"
  },
  {
    "id": 1003245,
    "name": "SHELL TAMAN BIDARA",
    "desc": "JLN BIDARA",
    "lat": "3.241402",
    "lon": "101.644149"
  },
  {
    "id": 1003434,
    "name": "TAMAN BIDARA (UTARA)",
    "desc": "JLN BIDARA",
    "lat": "3.243532",
    "lon": "101.643183"
  },
  {
    "id": 1000684,
    "name": "PANGSAPURI MERAK",
    "desc": "JLN BIDARA",
    "lat": "3.246566",
    "lon": "101.641694"
  },
  {
    "id": 1001012,
    "name": "IPD GOMBAK",
    "desc": "JLN BIDARA",
    "lat": "3.251437",
    "lon": "101.641266"
  },
  {
    "id": 1001852,
    "name": "MAJLIS PEPERIKSAAN MSIA",
    "desc": "PERS 1",
    "lat": "3.260809",
    "lon": "101.652854"
  },
  {
    "id": 1001472,
    "name": "KI PARK SELAYANG",
    "desc": "JLN PERS 3",
    "lat": "3.259155",
    "lon": "101.651905"
  },
  {
    "id": 1002654,
    "name": "PUNCAK TEMPLER",
    "desc": "JLN PERS 3",
    "lat": "3.256881",
    "lon": "101.647885"
  },
  {
    "id": 1000117,
    "name": "APT DAHLIA BLOK A",
    "desc": "JLN PERS 3",
    "lat": "3.252912082885",
    "lon": "101.64790709688"
  },
  {
    "id": 1000119,
    "name": "APT DAHLIA BLOK B",
    "desc": "JLN PERS 3",
    "lat": "3.252443",
    "lon": "101.650597"
  },
  {
    "id": 1002067,
    "name": "MPS",
    "desc": "PERS 3",
    "lat": "3.253944",
    "lon": "101.652798"
  },
  {
    "id": 1003162,
    "name": "SELAYANG 18 RESIDENCES (OPP)",
    "desc": "PERS 1",
    "lat": "3.255524",
    "lon": "101.654888"
  },
  {
    "id": 1000959,
    "name": "DATARAN BANDAR BARU SELAYANG",
    "desc": "JLN 2/2",
    "lat": "3.255694",
    "lon": "101.657104"
  },
  {
    "id": 1006475,
    "name": "SEGAR 1",
    "desc": "JLN 2/1",
    "lat": "3.255075",
    "lon": "101.658964"
  },
  {
    "id": 1006478,
    "name": "JLN MUTIARA 5/7",
    "desc": "JLN 2/5",
    "lat": "3.256725",
    "lon": "101.662055"
  },
  {
    "id": 1006480,
    "name": "SELAYANG MUTIARA 4",
    "desc": "JLN MUTIARA 1",
    "lat": "3.259349",
    "lon": "101.666583"
  },
  {
    "id": 1007137,
    "name": "MRT SEMANTAN PINTU B",
    "desc": "JLN SEMANTAN",
    "lat": "3.151704",
    "lon": "101.665622"
  },
  {
    "id": 1009142,
    "name": "LEONG PBD",
    "desc": "LORONG DC MALL",
    "lat": "3.146016",
    "lon": "101.660931"
  },
  {
    "id": 1000966,
    "name": "HUB SRI NILAM",
    "desc": "JLN WAWASAN AMPANG",
    "lat": "3.1398527383616",
    "lon": "101.7693091532"
  },
  {
    "id": 1008403,
    "name": "JLN WAWASAN 3/2",
    "desc": "JLN WAWASAN AMPANG",
    "lat": "3.143354",
    "lon": "101.769523"
  },
  {
    "id": 1006874,
    "name": "BANDAR BARU AMPANG",
    "desc": "JLN WAWASAN 2",
    "lat": "3.144269",
    "lon": "101.768303"
  },
  {
    "id": 1006875,
    "name": "PRIMA",
    "desc": "JLN WAWASAN 3/4",
    "lat": "3.145074",
    "lon": "101.766307"
  },
  {
    "id": 1003422,
    "name": "SPECTRUM MALL (OPP)",
    "desc": "JLN WAWASAN 4/2",
    "lat": "3.145375",
    "lon": "101.765176"
  },
  {
    "id": 1006876,
    "name": "DEWAN KOMUNITI AMPANG",
    "desc": "JLN MERDEKA",
    "lat": "3.14467",
    "lon": "101.763237"
  },
  {
    "id": 1006877,
    "name": "AMPANG JAYA",
    "desc": "JLN MEWAH",
    "lat": "3.14391",
    "lon": "101.762358"
  },
  {
    "id": 1006878,
    "name": "COURT",
    "desc": "JLN MEWAH",
    "lat": "3.142431",
    "lon": "101.761617"
  },
  {
    "id": 1006879,
    "name": "VILLA (OPP)",
    "desc": "JLN MEWAH",
    "lat": "3.140876",
    "lon": "101.760722"
  },
  {
    "id": 1006880,
    "name": "LRT CAHAYA",
    "desc": "JLN CAHAYA 1",
    "lat": "3.14022",
    "lon": "101.758112"
  },
  {
    "id": 1006881,
    "name": "JLN CAHAYA 3",
    "desc": "JLN CAHAYA 1",
    "lat": "3.142144",
    "lon": "101.755633"
  },
  {
    "id": 1006882,
    "name": "TAMAN NIRWANA (OPP)",
    "desc": "JLN CAHAYA",
    "lat": "3.143996",
    "lon": "101.755369"
  },
  {
    "id": 1001527,
    "name": "GALAXY AMPANG",
    "desc": "JLN CAHAYA",
    "lat": "3.146583",
    "lon": "101.756626"
  },
  {
    "id": 1006883,
    "name": "AMPANG JAYA",
    "desc": "JLN DAGANG BESAR",
    "lat": "3.148641",
    "lon": "101.756975"
  },
  {
    "id": 1001783,
    "name": "LRT AMPANG (OPP)",
    "desc": "JLN AMPANG",
    "lat": "3.151348",
    "lon": "101.760686"
  },
  {
    "id": 1000602,
    "name": "GIATMARA AMPANG JAYA",
    "desc": "JLN AMPANG",
    "lat": "3.148583",
    "lon": "101.764107"
  },
  {
    "id": 1000088,
    "name": "AMPANG WATERFRONT (BARAT)",
    "desc": "JLN AMPANG",
    "lat": "3.147362",
    "lon": "101.766674"
  },
  {
    "id": 1003505,
    "name": "AMPANG WATERFRONT (TIMUR)",
    "desc": "JLN AMPANG",
    "lat": "3.146458",
    "lon": "101.768487"
  },
  {
    "id": 1006885,
    "name": "JLN WAWASAN 1/2",
    "desc": "JLN WAWASAN AMPANG",
    "lat": "3.143673",
    "lon": "101.769793"
  },
  {
    "id": 1008070,
    "name": "AMPANG WATERFRONT 2",
    "desc": "JLN AMPANG",
    "lat": "3.144168",
    "lon": "101.771472"
  },
  {
    "id": 1008071,
    "name": "AMPANG WATERFRONT 2 (TIMUR)",
    "desc": "JLN AMPANG",
    "lat": "3.143442",
    "lon": "101.773506"
  },
  {
    "id": 1003580,
    "name": "TAMAN SRI AMPANG",
    "desc": "JLN AMPANG",
    "lat": "3.143422",
    "lon": "101.774898"
  },
  {
    "id": 1001284,
    "name": "KOMERSIAL AMPANG",
    "desc": "JLN AMPANG",
    "lat": "3.143416",
    "lon": "101.778513"
  },
  {
    "id": 1006886,
    "name": "AEON BIG AMPANG (OPP)",
    "desc": "JLN TAMAN PUTRA",
    "lat": "3.140652",
    "lon": "101.780257"
  },
  {
    "id": 1006887,
    "name": "AMPANG (OPP)",
    "desc": "JLN TAMAN PUTRA",
    "lat": "3.136576",
    "lon": "101.780065"
  },
  {
    "id": 1006888,
    "name": "DAGANG JAYA",
    "desc": "JLN TAMAN PUTRA",
    "lat": "3.133527",
    "lon": "101.779228"
  },
  {
    "id": 1006889,
    "name": "TASIK PERMAI",
    "desc": "JLN TAMAN PUTRA",
    "lat": "3.130534",
    "lon": "101.778774"
  },
  {
    "id": 1008072,
    "name": "KG TASIK PERMAI",
    "desc": "JLN TAMAN PUTRA",
    "lat": "3.128767",
    "lon": "101.778593"
  },
  {
    "id": 1003577,
    "name": "TAMAN SRI BAYU",
    "desc": "JLN TMN PUTERA",
    "lat": "3.1256705025844",
    "lon": "101.77714059886"
  },
  {
    "id": 1002292,
    "name": "TASEK TAMBAHAN",
    "desc": "JLN TMN PUTERA",
    "lat": "3.1227395720654",
    "lon": "101.77480384563"
  },
  {
    "id": 1004109,
    "name": "TASIK TAMBAHAN",
    "desc": "JLN TAMAN PUTRA",
    "lat": "3.121595",
    "lon": "101.771667"
  },
  {
    "id": 1001577,
    "name": "TAMAN PUTRA AMPANG BARAT",
    "desc": "JLN TAMAN PUTRA",
    "lat": "3.120654",
    "lon": "101.766083"
  },
  {
    "id": 1002688,
    "name": "PARAGON POINT (UTARA)",
    "desc": "JLN TERATAI 1/2",
    "lat": "3.120681",
    "lon": "101.762941"
  },
  {
    "id": 1003220,
    "name": "SMK PANDAN MEWAH",
    "desc": "JLN PANDAN MEWAH",
    "lat": "3.125219",
    "lon": "101.762831"
  },
  {
    "id": 1008069,
    "name": "HOSPITAL AMPANG",
    "desc": "JLN PANDAN MEWAH",
    "lat": "3.12755",
    "lon": "101.762898"
  },
  {
    "id": 1001647,
    "name": "APARTMENT PANDAN MEWAH",
    "desc": "JLN PANDAN MEWAH",
    "lat": "3.129739",
    "lon": "101.762947"
  },
  {
    "id": 1000682,
    "name": "FLAT BAYU MURNI (OPP)",
    "desc": "JLN PANDAN INDAH",
    "lat": "3.133726",
    "lon": "101.765691"
  },
  {
    "id": 1000080,
    "name": "KG AMPANG CAMPURAN",
    "desc": "JLN PANDAN INDAH",
    "lat": "3.13435",
    "lon": "101.7674"
  },
  {
    "id": 1006893,
    "name": "SMK BANDAR BARU AMPANG",
    "desc": "JLN WAWASAN AMPANG",
    "lat": "3.137365",
    "lon": "101.769085"
  },
  {
    "id": 1006906,
    "name": "TAMAN BUKIT TERATAI",
    "desc": "JLN MEGA",
    "lat": "3.110047",
    "lon": "101.764171"
  },
  {
    "id": 1006907,
    "name": "SPEEDMART BUKIT TERATAI",
    "desc": "JLN TERATAI 1/2",
    "lat": "3.112181",
    "lon": "101.765284"
  },
  {
    "id": 1002909,
    "name": "BUKIT TERATAI",
    "desc": "JLN TERATAI 1/2",
    "lat": "3.115084",
    "lon": "101.764094"
  },
  {
    "id": 1003148,
    "name": "TAMAN SERAYA (TIMUR)",
    "desc": "JLN MAWAR",
    "lat": "3.115468",
    "lon": "101.763206"
  },
  {
    "id": 1000362,
    "name": "TAMAN SERAYA (BARAT)",
    "desc": "JLN MAWAR",
    "lat": "3.114939",
    "lon": "101.761604"
  },
  {
    "id": 1006905,
    "name": "KOMUNITI TAMAN MUDA (OPP)",
    "desc": "JLN BUNGA MAWAR",
    "lat": "3.116488",
    "lon": "101.759597"
  },
  {
    "id": 1006903,
    "name": "TAMAN MUDA (OPP)",
    "desc": "JLN BUNGA MAWAR",
    "lat": "3.119149",
    "lon": "101.759349"
  },
  {
    "id": 1002045,
    "name": "TAMAN MUDA (BARAT)",
    "desc": "JLN BUNGA RAYA",
    "lat": "3.119653",
    "lon": "101.758107"
  },
  {
    "id": 1003925,
    "name": "THE RESIDENT AMPANG SOUTH",
    "desc": "JLN BUNGA RAYA",
    "lat": "3.1194839634373",
    "lon": "101.75312412437"
  },
  {
    "id": 1006901,
    "name": "TAMAN KENCANA (UTARA)",
    "desc": "JLN PANDAN ILMU",
    "lat": "3.120468",
    "lon": "101.75124"
  },
  {
    "id": 1003350,
    "name": "SMK PANDAN INDAH (OPP)",
    "desc": "JLN PANDAN ILMU",
    "lat": "3.122488",
    "lon": "101.751166"
  },
  {
    "id": 1006899,
    "name": "SK PANDAN INDAH",
    "desc": "JLN PANDAN AMAN",
    "lat": "3.125026",
    "lon": "101.751489"
  },
  {
    "id": 1006897,
    "name": "LEMBAH MAJU",
    "desc": "JLN PANDAN AMAN",
    "lat": "3.125075",
    "lon": "101.754399"
  },
  {
    "id": 1002721,
    "name": "FLAT LEMBAH MAJU",
    "desc": "JLN BUNGA MAWAR",
    "lat": "3.125331",
    "lon": "101.755151"
  },
  {
    "id": 1002968,
    "name": "PANDAN INDAH",
    "desc": "JLN PANDAN MUHIBBAH",
    "lat": "3.1278830000746",
    "lon": "101.7564762555"
  },
  {
    "id": 1002238,
    "name": "MENARA MPAJ",
    "desc": "JLN PANDAN UTAMA",
    "lat": "3.128996",
    "lon": "101.753841"
  },
  {
    "id": 1006895,
    "name": "MIDPOINT COMPLEX",
    "desc": "JLN PANDAN MAKMUR",
    "lat": "3.131597",
    "lon": "101.752703"
  },
  {
    "id": 1006908,
    "name": "DAHLIA (OPP)",
    "desc": "JLN PANDAN INDAH 6/1",
    "lat": "3.133901",
    "lon": "101.751447"
  },
  {
    "id": 1006909,
    "name": "TULIP",
    "desc": "JLN PANDAN INDAH 6/1",
    "lat": "3.1364",
    "lon": "101.752944"
  },
  {
    "id": 1001793,
    "name": "LRT CEMPAKA",
    "desc": "JLN PANDAN INDAH 6/10",
    "lat": "3.1383158732406",
    "lon": "101.75308018712"
  },
  {
    "id": 1003522,
    "name": "PANGSAPURI DAHLIA",
    "desc": "JLN PANDAN INDAH 6/1",
    "lat": "3.136262",
    "lon": "101.752881"
  },
  {
    "id": 1000704,
    "name": "PANGSAPURI DAHLIA",
    "desc": "JLN PANDAN INDAH 6/1",
    "lat": "3.1342033330273",
    "lon": "101.75151040436"
  },
  {
    "id": 1006894,
    "name": "MIDPOINT COMPLEX (OPP)",
    "desc": "JLN PANDAN MAKMUR",
    "lat": "3.132262",
    "lon": "101.752843"
  },
  {
    "id": 1001962,
    "name": "MENARA MAXISEGAR",
    "desc": "JLN PANDAN UTAMA",
    "lat": "3.129223",
    "lon": "101.753449"
  },
  {
    "id": 1002821,
    "name": "RHB PANDAN INDAH",
    "desc": "JLN PANDAN UTAMA",
    "lat": "3.129258",
    "lon": "101.754982"
  },
  {
    "id": 1003823,
    "name": "PANDAN INDAH",
    "desc": "JLN PANDAN MUHIBBAH",
    "lat": "3.127818",
    "lon": "101.756666"
  },
  {
    "id": 1002722,
    "name": "TAMAN LEMBAH MAJU (UTARA)",
    "desc": "JLN BUNGA MAWAR",
    "lat": "3.126011",
    "lon": "101.755607"
  },
  {
    "id": 1006896,
    "name": "FLAT LEMBAH MAJU",
    "desc": "JLN BUNGA MAWAR",
    "lat": "3.125232",
    "lon": "101.755296"
  },
  {
    "id": 1006898,
    "name": "PANDAN INDAH (OPP)",
    "desc": "JLN PANDAN AMAN",
    "lat": "3.124937",
    "lon": "101.751655"
  },
  {
    "id": 1003351,
    "name": "SMK PANDAN INDAH",
    "desc": "JLN PANDAN ILMU",
    "lat": "3.122964",
    "lon": "101.751258"
  },
  {
    "id": 1006900,
    "name": "FLAT PANDAN INDAH",
    "desc": "JLN PANDAN ILMU",
    "lat": "3.121507",
    "lon": "101.751328"
  },
  {
    "id": 1003924,
    "name": "THE RESIDENT AMPANG SOUTH",
    "desc": "JLN BUNGA RAYA",
    "lat": "3.119724",
    "lon": "101.752015"
  },
  {
    "id": 1002044,
    "name": "TAMAN MUDA (BARAT)",
    "desc": "JLN BUNGA RAYA",
    "lat": "3.119856",
    "lon": "101.756687"
  },
  {
    "id": 1006902,
    "name": "TAMAN MUDA",
    "desc": "JLN BUNGA MAWAR",
    "lat": "3.119108",
    "lon": "101.759486"
  },
  {
    "id": 1006904,
    "name": "TAMAN MUDA",
    "desc": "JLN BUNGA MAWAR",
    "lat": "3.116562",
    "lon": "101.759721"
  },
  {
    "id": 1001319,
    "name": "TAMAN SERAYA (BARAT)",
    "desc": "JLN MAWAR",
    "lat": "3.114987",
    "lon": "101.761285"
  },
  {
    "id": 1003211,
    "name": "TAMAN SERAYA (TIMUR)",
    "desc": "JLN MAWAR",
    "lat": "3.115575",
    "lon": "101.762988"
  },
  {
    "id": 1003012,
    "name": "TAMAN BUKIT TERATAI",
    "desc": "JLN TERATAI 1/2",
    "lat": "3.115151",
    "lon": "101.764188"
  },
  {
    "id": 1006910,
    "name": "SPEEDMART BUKIT TERATAI (OPP)",
    "desc": "JLN TERATAI 1/2",
    "lat": "3.111969",
    "lon": "101.765629"
  },
  {
    "id": 1003343,
    "name": "BUKIT MAHKOTA",
    "desc": "PERS MAHKOTA 2",
    "lat": "2.870537",
    "lon": "101.813438"
  },
  {
    "id": 1008190,
    "name": "MAHKOTA CLUBHOUSE SEKSYEN 6",
    "desc": "JLN MAHKOTA 7",
    "lat": "2.873758",
    "lon": "101.808645"
  },
  {
    "id": 1008191,
    "name": "A PERUMAHAN BUKIT MAHKOTA (OPP)",
    "desc": "JLN MAHKOTA 7",
    "lat": "2.877296",
    "lon": "101.808991"
  },
  {
    "id": 1006960,
    "name": "NURI (OPP)",
    "desc": "PERS MAHKOTA 2",
    "lat": "2.88132",
    "lon": "101.807285"
  },
  {
    "id": 1006958,
    "name": "3 BANDAR BUKIT MAHKOTA",
    "desc": "PERS MAHKOTA 2",
    "lat": "2.882819",
    "lon": "101.801169"
  },
  {
    "id": 1006956,
    "name": "CLOSE",
    "desc": "PERS MAHKOTA 1",
    "lat": "2.883335",
    "lon": "101.794186"
  },
  {
    "id": 1006964,
    "name": "KOMERSIAL BANDAR SRI PUTRA",
    "desc": "PERS SERI PUTRA 1",
    "lat": "2.88633",
    "lon": "101.791166"
  },
  {
    "id": 1006954,
    "name": "BANDAR SERI PUTRA",
    "desc": "PERS SERI PUTRA 1",
    "lat": "2.887669",
    "lon": "101.787822"
  },
  {
    "id": 1006949,
    "name": "BANDAR SERI PUTRA (OPP)",
    "desc": "PERS SERI PUTRA 1",
    "lat": "2.886316",
    "lon": "101.78515"
  },
  {
    "id": 1006947,
    "name": "SERI MELATI (OPP)",
    "desc": "JLN SERI PUTRA 3",
    "lat": "2.88767",
    "lon": "101.779064"
  },
  {
    "id": 1006965,
    "name": "ACACIA (OPP)",
    "desc": "JLN SERI PUTRA 3",
    "lat": "2.889175",
    "lon": "101.777885"
  },
  {
    "id": 1006945,
    "name": "BANDAR SERI PUTRA (OPP)",
    "desc": "JLN SERI PUTRA 3",
    "lat": "2.889084",
    "lon": "101.775924"
  },
  {
    "id": 1006943,
    "name": "CAMELLIA",
    "desc": "JLN TAMAN IMPIAN PUTRA",
    "lat": "2.893537",
    "lon": "101.773046"
  },
  {
    "id": 1006941,
    "name": "BANGI VILLA (OPP)",
    "desc": "JLN SERI PUTRA 4",
    "lat": "2.898844",
    "lon": "101.778912"
  },
  {
    "id": 1006939,
    "name": "BANGI",
    "desc": "JLN SERI PUTRA 4",
    "lat": "2.901213",
    "lon": "101.781081"
  },
  {
    "id": 1008058,
    "name": "PEKAN BANGI",
    "desc": "JLN BANGI",
    "lat": "2.901426",
    "lon": "101.780777"
  },
  {
    "id": 1008059,
    "name": "BANGI",
    "desc": "JLN AMAN 10",
    "lat": "2.904556",
    "lon": "101.784278"
  },
  {
    "id": 1006935,
    "name": "BANGI",
    "desc": "JLN AMAN 1",
    "lat": "2.90316",
    "lon": "101.785349"
  },
  {
    "id": 1006936,
    "name": "BANGI LAMA",
    "desc": "JLN BANGI",
    "lat": "2.900647",
    "lon": "101.782894"
  },
  {
    "id": 1006938,
    "name": "BANGI (OPP)",
    "desc": "JLN SERI PUTRA 4",
    "lat": "2.901202",
    "lon": "101.781252"
  },
  {
    "id": 1006940,
    "name": "BANGI VILLA",
    "desc": "JLN SERI PUTRA 4",
    "lat": "2.898779",
    "lon": "101.779041"
  },
  {
    "id": 1006942,
    "name": "IMPIAN PUTRA",
    "desc": "JLN TAMAN IMPIAN PUTRA",
    "lat": "2.894693",
    "lon": "101.774376"
  },
  {
    "id": 1006944,
    "name": "BANDAR SERI PUTRA",
    "desc": "JLN SERI PUTRA 3",
    "lat": "2.889108",
    "lon": "101.775718"
  },
  {
    "id": 1006946,
    "name": "ACACIA",
    "desc": "JLN SERI PUTRA 3",
    "lat": "2.889262",
    "lon": "101.777987"
  },
  {
    "id": 1006950,
    "name": "PERNIAGAAN SRI PUTRA",
    "desc": "JLN SERI PUTRA 3",
    "lat": "2.8871907",
    "lon": "101.779635"
  },
  {
    "id": 1006948,
    "name": "BANDAR SERI PUTRA",
    "desc": "PERS SERI PUTRA 1",
    "lat": "2.886552",
    "lon": "101.784861"
  },
  {
    "id": 1006953,
    "name": "BANDAR SERI PUTRA (OPP)",
    "desc": "PERS SERI PUTRA 1",
    "lat": "2.887891",
    "lon": "101.78768"
  },
  {
    "id": 1006951,
    "name": "KOMERSIAL BANDAR SRI PUTRA",
    "desc": "PERS SERI PUTRA 1",
    "lat": "2.886509",
    "lon": "101.791356"
  },
  {
    "id": 1006955,
    "name": "CLOSE",
    "desc": "PERS MAHKOTA 1",
    "lat": "2.883463",
    "lon": "101.794747"
  },
  {
    "id": 1006957,
    "name": "3 BANDAR BUKIT MAHKOTA",
    "desc": "PERS MAHKOTA 2",
    "lat": "2.883064",
    "lon": "101.801179"
  },
  {
    "id": 1006959,
    "name": "NURI",
    "desc": "PERS MAHKOTA 2",
    "lat": "2.881568",
    "lon": "101.807391"
  },
  {
    "id": 1006961,
    "name": "5 BANDAR BUKIT MAHKOTA",
    "desc": "PERS MAHKOTA 2",
    "lat": "2.873597",
    "lon": "101.814896"
  },
  {
    "id": 1007176,
    "name": "BTHO",
    "desc": "",
    "lat": "3.04907",
    "lon": "101.774434"
  },
  {
    "id": 1003179,
    "name": "NETIZEN",
    "desc": "LEBUH UTAMA TUN HUSSEIN ONN",
    "lat": "3.049629",
    "lon": "101.772007"
  },
  {
    "id": 1002469,
    "name": "CHERAS PERDANA (OPP)",
    "desc": "JLN CHERAS PERDANA",
    "lat": "3.047857",
    "lon": "101.768725"
  },
  {
    "id": 1002213,
    "name": "CHERAS PERDANA FASA 2",
    "desc": "JLN CHERAS PERDANA",
    "lat": "3.0462601967292",
    "lon": "101.76797590543"
  },
  {
    "id": 1006997,
    "name": "CHERAS PERDANA (OPP)",
    "desc": "JLN CHERAS PERDANA",
    "lat": "3.043947",
    "lon": "101.766412"
  },
  {
    "id": 1006998,
    "name": "CHERAS PERDANA FASA 3",
    "desc": "JLN CHERAS PERDANA",
    "lat": "3.041742",
    "lon": "101.765086"
  },
  {
    "id": 1006755,
    "name": "CHERAS PERDANA FASA 7",
    "desc": "JLN CHERAS PERDANA",
    "lat": "3.037232",
    "lon": "101.762309"
  },
  {
    "id": 1006754,
    "name": "AEON CHERAS SELATAN",
    "desc": "JLN SUAKASIH",
    "lat": "3.033446",
    "lon": "101.762818"
  },
  {
    "id": 1000184,
    "name": "KOMERSIAL C180",
    "desc": "JLN J-AVENUE",
    "lat": "3.034846",
    "lon": "101.766009"
  },
  {
    "id": 1006999,
    "name": "SUAKASIH",
    "desc": "JLN SUAKASIH",
    "lat": "3.03778",
    "lon": "101.758212"
  },
  {
    "id": 1008000,
    "name": "SUADAMAI",
    "desc": "JLN SUADAMAI",
    "lat": "3.04998",
    "lon": "101.754825"
  },
  {
    "id": 1008001,
    "name": "BTHO 2",
    "desc": "JLN SUADAMAI",
    "lat": "3.052803",
    "lon": "101.754999"
  },
  {
    "id": 1008002,
    "name": "BTHO 2",
    "desc": "JLN SUADAMAI",
    "lat": "3.054078",
    "lon": "101.755786"
  },
  {
    "id": 1008004,
    "name": "BTHO 2",
    "desc": "JLN SUADAMAI",
    "lat": "3.054724",
    "lon": "101.757973"
  },
  {
    "id": 1006757,
    "name": "MINANG RIA",
    "desc": "PERS TUN PERAK",
    "lat": "3.056474",
    "lon": "101.757437"
  },
  {
    "id": 1008005,
    "name": "SERI MURNI",
    "desc": "PERS TUN PERAK",
    "lat": "3.060348",
    "lon": "101.757403"
  },
  {
    "id": 1008006,
    "name": "TAMAN TUN PERAK (OPP)",
    "desc": "JLN TUN PERAK 1",
    "lat": "3.062087",
    "lon": "101.758338"
  },