[
    {
        "stop_name": "Hotel Blanket",
        "stop_lat": "5.3948529999999995",
        "stop_lon": "100.40001",
        "stop_id": "12002530",
        "stop_sequence": "1"
    },
    {
        "stop_name": "Pasar Awam",
        "stop_lat": "5.3929800000000006",
        "stop_lon": "100.4016",
        "stop_id": "12001809",
        "stop_sequence": "2"
    },
    {
        "stop_name": "SP Arena",
        "stop_lat": "5.38636",
        "stop_lon": "100.40236",
        "stop_id": "12001388",
        "stop_sequence": "3"
    },
    {
        "stop_name": "Taman Tun Hussein Onn",
        "stop_lat": "5.3861454",
        "stop_lon": "100.4057448",
        "stop_id": "12002994",
        "stop_sequence": "4"
    },
    {
        "stop_name": "(M2) Megamall - Pacific",
        "stop_lat": "5.37879",
        "stop_lon": "100.39794",
        "stop_id": "12001067",
        "stop_sequence": "5"
    },
    {
        "stop_name": "Jambatan Pulau Pinang",
        "stop_lat": "5.355802",
        "stop_lon": "100.39232",
        "stop_id": "12002108",
        "stop_sequence": "6"
    },
    {
        "stop_name": "Batu Uban Highway",
        "stop_lat": "5.351251",
        "stop_lon": "100.30986",
        "stop_id": "12001981",
        "stop_sequence": "7"
    },
    {
        "stop_name": "Jeti Pulau Jerejak",
        "stop_lat": "5.34299",
        "stop_lon": "100.31141",
        "stop_id": "12002068",
        "stop_sequence": "8"
    },
    {
        "stop_name": "Gold Coast Kondominium",
        "stop_lat": "5.339738",
        "stop_lon": "100.30965",
        "stop_id": "12002064",
        "stop_sequence": "9"
    },
    {
        "stop_name": "KWSP Queensbay",
        "stop_lat": "5.33692",
        "stop_lon": "100.30844",
        "stop_id": "12002303",
        "stop_sequence": "10"
    },
    {
        "stop_name": "Hadapan Queensbay Mall",
        "stop_lat": "5.332325",
        "stop_lon": "100.30773",
        "stop_id": "12002060",
        "stop_sequence": "11"
    },
    {
        "stop_name": "Queensbay Mall",
        "stop_lat": "5.331947",
        "stop_lon": "100.30790999999999",
        "stop_id": "12002059",
        "stop_sequence": "12"
    },
    {
        "stop_name": "Krystal Point Corporate Park",
        "stop_lat": "5.33108",
        "stop_lon": "100.297092",
        "stop_id": "12002483",
        "stop_sequence": "13"
    },
    {
        "stop_name": "Kompleks Bukit Jambul II",
        "stop_lat": "5.33242",
        "stop_lon": "100.29099000000001",
        "stop_id": "12001843",
        "stop_sequence": "14"
    },
    {
        "stop_name": "Masjid Al- Ittifaq",
        "stop_lat": "5.33245",
        "stop_lon": "100.28696",
        "stop_id": "12001844",
        "stop_sequence": "15"
    },
    {
        "stop_name": "Sungai Nibong Kecil",
        "stop_lat": "5.331930000000001",
        "stop_lon": "100.28465",
        "stop_id": "12001841",
        "stop_sequence": "16"
    },
    {
        "stop_name": "(M2) Spice",
        "stop_lat": "5.32736",
        "stop_lon": "100.28050999999999",
        "stop_id": "12000851",
        "stop_sequence": "17"
    },
    {
        "stop_name": "Terminal Bas Bayan Baru",
        "stop_lat": "5.3269589999999996",
        "stop_lon": "100.2803228",
        "stop_id": "12002974",
        "stop_sequence": "18"
    }
]