[
    {
        "stop_name": "KL1100 LRT KERINCHI",
        "stop_lat": "3.115583",
        "stop_lon": "101.668292",
        "stop_id": "1001807",
        "stop_sequence": "1"
    },
    {
        "stop_name": "KL1111 IPD PANTAI",
        "stop_lat": "3.1175978325419",
        "stop_lon": "101.6671213878",
        "stop_id": "1003761",
        "stop_sequence": "2"
    },
    {
        "stop_name": "KL1112 SK BANGSAR (OPP)",
        "stop_lat": "3.1170278817151",
        "stop_lon": "101.67063325726",
        "stop_id": "1000366",
        "stop_sequence": "3"
    },
    {
        "stop_name": "KL1803 KTM ANGKASAPURI",
        "stop_lat": "3.1123947922969",
        "stop_lon": "101.67357475008",
        "stop_id": "1000096",
        "stop_sequence": "4"
    },
    {
        "stop_name": "KL2139 PPR SRI PANTAI (BARAT)",
        "stop_lat": "3.1068021310299",
        "stop_lon": "101.67335703473",
        "stop_id": "1003431",
        "stop_sequence": "5"
    },
    {
        "stop_name": "KL2140 KTM PANTAI DALAM",
        "stop_lat": "3.096744",
        "stop_lon": "101.670166",
        "stop_id": "1001045",
        "stop_sequence": "6"
    },
    {
        "stop_name": "(M) KL1804 APARTMENT PANTAI INDAH",
        "stop_lat": "3.0957067611578",
        "stop_lon": "101.6690293346",
        "stop_id": "1002877",
        "stop_sequence": "7"
    },
    {
        "stop_name": "KL1805 KG PANTAI DALAM",
        "stop_lat": "3.0986396465212",
        "stop_lon": "101.67039758065",
        "stop_id": "1000261",
        "stop_sequence": "8"
    },
    {
        "stop_name": "KL1437 TAMAN BUKIT ANGKASA (TIMUR)",
        "stop_lat": "3.1072314965482",
        "stop_lon": "101.67185354416",
        "stop_id": "1000762",
        "stop_sequence": "9"
    },
    {
        "stop_name": "KL2129 FLAT SRI ANGKASA 2",
        "stop_lat": "3.1075293605409",
        "stop_lon": "101.67092526173",
        "stop_id": "1000763",
        "stop_sequence": "10"
    },
    {
        "stop_name": "KLINIK KOMUNITI KERINCHI",
        "stop_lat": "3.108036",
        "stop_lon": "101.669355",
        "stop_id": "1008293",
        "stop_sequence": "11"
    },
    {
        "stop_name": "CENTRIO PANTAI HILLPARK",
        "stop_lat": "3.108325",
        "stop_lon": "101.665709",
        "stop_id": "1008483",
        "stop_sequence": "12"
    },
    {
        "stop_name": "CONDOMINIUM ANDALUSIA",
        "stop_lat": "3.107632",
        "stop_lon": "101.662365",
        "stop_id": "1008484",
        "stop_sequence": "13"
    },
    {
        "stop_name": "PANTAI HILLPARK PHASE 5",
        "stop_lat": "3.106502",
        "stop_lon": "101.661532",
        "stop_id": "1008485",
        "stop_sequence": "14"
    },
    {
        "stop_name": "PUSAT KOMUNITI LEMBAH PANTAI",
        "stop_lat": "3.103629",
        "stop_lon": "101.661219",
        "stop_id": "1008486",
        "stop_sequence": "15"
    },
    {
        "stop_name": "INWOOD RESIDENCES",
        "stop_lat": "3.102553",
        "stop_lon": "101.663576",
        "stop_id": "1008487",
        "stop_sequence": "16"
    },
    {
        "stop_name": "(M) KL1413 PANTAI MURNI",
        "stop_lat": "3.104103",
        "stop_lon": "101.666017",
        "stop_id": "1001654",
        "stop_sequence": "17"
    },
    {
        "stop_name": "KL1414 CENTRIO PANTAI HILLPARK",
        "stop_lat": "3.106853",
        "stop_lon": "101.666039",
        "stop_id": "1002251",
        "stop_sequence": "18"
    },
    {
        "stop_name": "TAMAN BUKIT ANGKASA",
        "stop_lat": "3.108466",
        "stop_lon": "101.668927",
        "stop_id": "1008488",
        "stop_sequence": "19"
    },
    {
        "stop_name": "KL1420 TAMAN BUKIT ANGKASA BLOK 6",
        "stop_lat": "3.1078394383843",
        "stop_lon": "101.67076523891",
        "stop_id": "1000910",
        "stop_sequence": "20"
    },
    {
        "stop_name": "KL1800 PPR SRI PANTAI (BARAT)",
        "stop_lat": "3.1075135980947",
        "stop_lon": "101.67309675705",
        "stop_id": "1001719",
        "stop_sequence": "21"
    },
    {
        "stop_name": "KL1801 ANGKASAPURI",
        "stop_lat": "3.1125467042244",
        "stop_lon": "101.67320070486",
        "stop_id": "1000095",
        "stop_sequence": "22"
    },
    {
        "stop_name": "KL1802 KUARTERS TNB (DAHLIA)",
        "stop_lat": "3.116452747602",
        "stop_lon": "101.6718384715",
        "stop_id": "1001706",
        "stop_sequence": "23"
    },
    {
        "stop_name": "KL1099 SK BANGSAR",
        "stop_lat": "3.1167609772467",
        "stop_lon": "101.67034409462",
        "stop_id": "1000365",
        "stop_sequence": "24"
    },
    {
        "stop_name": "KL1100 LRT KERINCHI",
        "stop_lat": "3.115583",
        "stop_lon": "101.668292",
        "stop_id": "1001807",
        "stop_sequence": "25"
    }
]