[
    {
        "stop_name": "BD21 MASJID BANDAR KLANG UTARA",
        "stop_lat": "3.048155",
        "stop_lon": "101.445868",
        "stop_id": "1001515",
        "stop_sequence": "1"
    },
    {
        "stop_name": "BD22 HOTEL GOLDCOURSE",
        "stop_lat": "3.050017",
        "stop_lon": "101.443601",
        "stop_id": "1000941",
        "stop_sequence": "2"
    },
    {
        "stop_name": "BD23 SMJKC PIN HWA",
        "stop_lat": "3.052422",
        "stop_lon": "101.44442",
        "stop_id": "1003115",
        "stop_sequence": "3"
    },
    {
        "stop_name": "BD24 PUSAT BANDAR KLANG (UTARA)",
        "stop_lat": "3.053415",
        "stop_lon": "101.447645",
        "stop_id": "1001337",
        "stop_sequence": "4"
    },
    {
        "stop_name": "BD269 CENTRO KLANG (OPP)",
        "stop_lat": "3.053833",
        "stop_lon": "101.462545",
        "stop_id": "1001209",
        "stop_sequence": "5"
    },
    {
        "stop_name": "SA928 TOL SG RASAU",
        "stop_lat": "3.061686",
        "stop_lon": "101.483033",
        "stop_id": "1004127",
        "stop_sequence": "6"
    },
    {
        "stop_name": "SA929 MARIAMMAN TEMPLE",
        "stop_lat": "3.062869",
        "stop_lon": "101.487108",
        "stop_id": "1007643",
        "stop_sequence": "7"
    },
    {
        "stop_name": "SA37 SHELL/PETRON SEKSYEN 7",
        "stop_lat": "3.066067",
        "stop_lon": "101.491232",
        "stop_id": "1006769",
        "stop_sequence": "8"
    },
    {
        "stop_name": "SA38 UITM SHAH ALAM (BARAT)",
        "stop_lat": "3.0684281682022",
        "stop_lon": "101.4911058313",
        "stop_id": "1001025",
        "stop_sequence": "9"
    },
    {
        "stop_name": "SA39 HOSPITAL SHAH ALAM",
        "stop_lat": "3.0727",
        "stop_lon": "101.49166666667",
        "stop_id": "1006015",
        "stop_sequence": "10"
    },
    {
        "stop_name": "SA40 TASIK SEKSYEN 7",
        "stop_lat": "3.075836",
        "stop_lon": "101.493231",
        "stop_id": "1002456",
        "stop_sequence": "11"
    },
    {
        "stop_name": "SA34 UNISEL",
        "stop_lat": "3.077464",
        "stop_lon": "101.494395",
        "stop_id": "1002457",
        "stop_sequence": "12"
    },
    {
        "stop_name": "SA11 UNISEL (OPP)",
        "stop_lat": "3.078164626069",
        "stop_lon": "101.49642595216",
        "stop_id": "1004173",
        "stop_sequence": "13"
    },
    {
        "stop_name": "SA12 APARTMENT BAIDURI (OPP)",
        "stop_lat": "3.0734091801059",
        "stop_lon": "101.501787709",
        "stop_id": "1002126",
        "stop_sequence": "14"
    },
    {
        "stop_name": "SA13 UITM PINTU UTAMA (OPP)",
        "stop_lat": "3.0716639153868",
        "stop_lon": "101.5037935867",
        "stop_id": "1004165",
        "stop_sequence": "15"
    },
    {
        "stop_name": "(M) SA14 HUB SEKSYEN 2",
        "stop_lat": "3.071829",
        "stop_lon": "101.507558",
        "stop_id": "1000172",
        "stop_sequence": "16"
    },
    {
        "stop_name": "SA968 SMK SEKYEN 2 (OPP)",
        "stop_lat": "3.07375",
        "stop_lon": "101.50965",
        "stop_id": "1006016",
        "stop_sequence": "17"
    },
    {
        "stop_name": "SA15 TAMAN TASIK SHAH ALAM",
        "stop_lat": "3.068967",
        "stop_lon": "101.515673",
        "stop_id": "1004224",
        "stop_sequence": "18"
    },
    {
        "stop_name": "SA16 KOMPLEKS PKNS (OPP)",
        "stop_lat": "3.071462",
        "stop_lon": "101.516276",
        "stop_id": "1003856",
        "stop_sequence": "19"
    },
    {
        "stop_name": "(M) SA786 HENTIAN BANDAR SEKSYEN 14",
        "stop_lat": "3.0724427493567",
        "stop_lon": "101.52135232628",
        "stop_id": "1003078",
        "stop_sequence": "20"
    },
    {
        "stop_name": "SA912 ISTANA KAYANGAN",
        "stop_lat": "3.0692566996827",
        "stop_lon": "101.53863339011",
        "stop_id": "1001016",
        "stop_sequence": "21"
    },
    {
        "stop_name": "SA914 JEJANTAS PETRON BT 3",
        "stop_lat": "3.0735089041891",
        "stop_lon": "101.54853587064",
        "stop_id": "1000395",
        "stop_sequence": "22"
    },
    {
        "stop_name": "(M) SA916 SPG BT 3 KE KL",
        "stop_lat": "3.075421856924",
        "stop_lon": "101.55598314485",
        "stop_id": "1000392",
        "stop_sequence": "23"
    },
    {
        "stop_name": "SJ48 WISMA CONSPLANT",
        "stop_lat": "3.080169",
        "stop_lon": "101.582523",
        "stop_id": "1002351",
        "stop_sequence": "24"
    },
    {
        "stop_name": "SJ59 SUBANG PARADE",
        "stop_lat": "3.081309",
        "stop_lon": "101.585004",
        "stop_id": "1003696",
        "stop_sequence": "25"
    },
    {
        "stop_name": "SJ60 AEON BIG SUBANG JAYA",
        "stop_lat": "3.082119",
        "stop_lon": "101.587966",
        "stop_id": "1000456",
        "stop_sequence": "26"
    },
    {
        "stop_name": "SJ2 SIME DARBY HEALTH CARE",
        "stop_lat": "3.077851",
        "stop_lon": "101.593269",
        "stop_id": "1003280",
        "stop_sequence": "27"
    },
    {
        "stop_name": "PJ229 KOMPLEKS 3C (OPP)",
        "stop_lat": "3.073384",
        "stop_lon": "101.601469",
        "stop_id": "1000523",
        "stop_sequence": "28"
    },
    {
        "stop_name": "PJ294 SUNWAY CLIO (OPP)",
        "stop_lat": "3.0737225504127",
        "stop_lon": "101.60355896913",
        "stop_id": "1003708",
        "stop_sequence": "29"
    },
    {
        "stop_name": "(M) PJ614 MASJID AL-HUSNA",
        "stop_lat": "3.074256",
        "stop_lon": "101.608951",
        "stop_id": "1001873",
        "stop_sequence": "30"
    }
]