[{"id":"6520","name":"MATANG JAYA","lat":"1.573178","lon":"110.296775"},{"id":"6521","name":"TERMINAL SAUJANA PARKING","lat":"1.557881","lon":"110.342303"},{"id":"6523","name":"EMART MATANG","lat":"1.5726523","lon":"110.3028535"},{"id":"6527","name":"OPP BANGUNAN MARZUKI","lat":"1.5568129","lon":"110.3227775"},{"id":"6530","name":"PENDIDIKAN JALAN MATANG","lat":"1.564783","lon":"110.312733"},{"id":"6534","name":"COPAL SATOK","lat":"1.554117","lon":"110.334825"},{"id":"6535","name":"SEGO PRECINT 1","lat":"1.554324","lon":"110.3320463"},{"id":"6537","name":"TAMAN SEJOLI","lat":"1.564611","lon":"110.3215"},{"id":"6538","name":"HERITAGE","lat":"1.560667","lon":"110.321806"},{"id":"6539","name":"AMBANK SATOK","lat":"1.554839","lon":"110.338447"},{"id":"6541","name":"BANGUNAN MARZUKI","lat":"1.5567616","lon":"110.3232155"},{"id":"6542","name":"TAMAN HUSSEIN","lat":"1.5642441","lon":"110.3218053"},{"id":"6543","name":"JALAN SEMARAK","lat":"1.563486","lon":"110.315975"},{"id":"6545","name":"TAMAN DAHLIA","lat":"1.5673788","lon":"110.3102435"},{"id":"6554","name":"JLN LAKSAMANA CHENG HO 3","lat":"1.522936","lon":"110.344206"},{"id":"6558","name":"BOULEVARD","lat":"1.507922","lon":"110.335478"},{"id":"6559","name":"JALAN DB MUSTAPHA","lat":"1.499489","lon":"110.333686"},{"id":"6561","name":"OPP BEDDING & CO","lat":"1.505953","lon":"110.333433"},{"id":"6562","name":"EVERISE BATU 4","lat":"1.507883","lon":"110.333664"},{"id":"6563","name":"THE BANQUET RESIDENCES","lat":"1.514878","lon":"110.333564"},{"id":"6566","name":"OPP KOMPLEKS BELIA SUKAN","lat":"1.53895","lon":"110.3371167"},{"id":"6567","name":"SM SAINS","lat":"1.567528","lon":"110.257972"},{"id":"6568","name":"JLN TAZA (OPP SGH)","lat":"1.543331","lon":"110.337356"},{"id":"6570","name":"KEK LAPIS WARISAN","lat":"1.546672","lon":"110.337494"},{"id":"6571","name":"JLN TAZA (OPP BADARUDDIN)","lat":"1.550003","lon":"110.341269"},{"id":"6572","name":"TAMAN MALIHAH 3","lat":"1.555022","lon":"110.249097"},{"id":"6573","name":"JALAN NANAS BARAT","lat":"1.5496243","lon":"110.3251654"},{"id":"6578","name":"POH KWONG PARK","lat":"1.54075","lon":"110.328353"},{"id":"6580","name":"OPP LAVIZO","lat":"1.519139","lon":"110.329281"},{"id":"6581","name":"SUNNY HILL","lat":"1.521283","lon":"110.3352"},{"id":"6582","name":"OPP TIMBERLAND","lat":"1.522656","lon":"110.338933"},{"id":"6583","name":"LEVEL UP ROCK ROAD","lat":"1.5267416","lon":"110.341313"},{"id":"6585","name":"OPP ROCK ROAD SEAFOOD","lat":"1.5343815","lon":"110.3412533"},{"id":"6586","name":"TM BATU LINTANG","lat":"1.534631","lon":"110.345392"},{"id":"6588","name":"SHELL BATU LINTANG","lat":"1.5398813","lon":"110.3533747"},{"id":"6589","name":"THE SPRING KUCHING","lat":"1.536758","lon":"110.356328"},{"id":"6590","name":"BANGUNAN SULTAN ISKANDAR","lat":"1.5320537","lon":"110.3587649"},{"id":"6591","name":"WATERFRONT 1","lat":"1.5603835","lon":"110.3449161"},{"id":"6595","name":"JALAN ABELL","lat":"1.556958","lon":"110.355125"},{"id":"6605","name":"KOLEJ KOMUNITI SANTUBONG","lat":"1.5867975","lon":"110.4179573"},{"id":"6606","name":"DEMAK LAUT INDUSTRIAL PARK","lat":"1.586867","lon":"110.425722"},{"id":"6607","name":"SEB SUBSTATION SEJINGKAT","lat":"1.5887987","lon":"110.4292266"},{"id":"6608","name":"SK PAJAR SEJINGKAT","lat":"1.5943443","lon":"110.4383087"},{"id":"6610","name":"SMK BAKO","lat":"1.6453768","lon":"110.4487652"},{"id":"6611","name":"KAMPUNG HIJRAH","lat":"1.6572385","lon":"110.4394772"},{"id":"6614","name":"PCC DEMAK","lat":"1.5913","lon":"110.434075"},{"id":"6629","name":"JALAN KWONG LEE BANK","lat":"1.554106","lon":"110.381253"},{"id":"6630","name":"OPP PETRON JLN PENDING","lat":"1.5495339","lon":"110.3792087"},{"id":"6631","name":"CHUNG HUA MIDDLE SCHOOL NO 1","lat":"1.548658","lon":"110.376061"},{"id":"6632","name":"OPP SUBARU KUCHING","lat":"1.549706","lon":"110.374222"},{"id":"6633","name":"OPP TOYOTA BORNEO MOBILITY","lat":"1.5497825","lon":"110.3712833"},{"id":"6636","name":"RIVERSIDE MAJESTIC HOTEL","lat":"1.558186","lon":"110.351792"},{"id":"6638","name":"HERITAGE GARDEN","lat":"1.560731","lon":"110.321789"},{"id":"6639","name":"SMK PETRAJAYA","lat":"1.565642","lon":"110.318608"},{"id":"6642","name":"JALAN MATANG 2","lat":"1.577931","lon":"110.25085"},{"id":"6643","name":"JALAN MATANG 3","lat":"1.582456","lon":"110.23395"},{"id":"6644","name":"JALAN MATANG 4","lat":"1.601297","lon":"110.224761"},{"id":"6645","name":"HENTIAN SMKA MATANG","lat":"1.635117","lon":"110.195592"},{"id":"6646","name":"POLITEKNIK KCH","lat":"1.6293417","lon":"110.1956947"},{"id":"6647","name":"FAMILY PARK","lat":"1.614575","lon":"110.200719"},{"id":"6650","name":"KPG MATANG LOT","lat":"1.596683","lon":"110.225919"},{"id":"6653","name":"BATU 9 - TAMAN SRI JAYA","lat":"1.582867","lon":"110.233111"},{"id":"6654","name":"KOLEJ VOKASIONAL MATANG","lat":"1.581917","lon":"110.236714"},{"id":"6658","name":"TAMAN SURIA JAYA","lat":"1.572908","lon":"110.271108"},{"id":"6659","name":"BATU 5 - TAMAN DAHLIA","lat":"1.574244","lon":"110.282133"},{"id":"6661","name":"KAMPUNG BENUK","lat":"1.308353","lon":"110.293608"},{"id":"6663","name":"KAMPUNG PUNAU","lat":"1.342944","lon":"110.307922"},{"id":"6664","name":"OPP SJKCH BATU 15","lat":"1.360181","lon":"110.319147"},{"id":"6665","name":"PULAPOL KCH","lat":"1.364481","lon":"110.321306"},{"id":"6666","name":"SEMENGGOH NATIONAL PARK","lat":"1.400278","lon":"110.324917"},{"id":"6667","name":"KAMPUNG SRI ARJUNA","lat":"1.413794","lon":"110.325503"},{"id":"6668","name":"ST ANN CHURCH","lat":"1.422133","lon":"110.325428"},{"id":"6669","name":"SJKCH BATU 10","lat":"1.424997","lon":"110.326161"},{"id":"6670","name":"MPP","lat":"1.427319","lon":"110.326336"},{"id":"6674","name":"KOTA SENTOSA","lat":"1.4680983","lon":"110.330165"},{"id":"6675","name":"BORNEO HOUSE MUSEUM","lat":"1.470078","lon":"110.328278"},{"id":"6676","name":"EVERWIN KOTA SENTOSA","lat":"1.476083","lon":"110.330283"},{"id":"6678","name":"SK HARDWARE","lat":"1.491278","lon":"110.330506"},{"id":"6679","name":"SIMPANG SEMABA","lat":"1.494578","lon":"110.331142"},{"id":"6680","name":"SJKCH BATU 4 1/2","lat":"1.502","lon":"110.332792"},{"id":"6684","name":"TIMBERLAND MEDICAL CENTRE","lat":"1.5218889","lon":"110.3381087"},{"id":"6688","name":"KOZI SQUARE","lat":"1.540884","lon":"110.341255"},{"id":"6689","name":"SGH","lat":"1.542892","lon":"110.341134"},{"id":"6690","name":"BADARUDDIN","lat":"1.549569","lon":"110.341292"},{"id":"6691","name":"TM JALAN WERE","lat":"1.552194","lon":"110.341953"},{"id":"6692","name":"ST TERESA","lat":"1.552083","lon":"110.342097"},{"id":"6693","name":"JALAN TAHO 1","lat":"1.547519","lon":"110.341664"},{"id":"6695","name":"OPP LORENZO","lat":"1.538319","lon":"110.341311"},{"id":"6696","name":"OPP INDIAN ASSOCIATION","lat":"1.534833","lon":"110.341264"},{"id":"6697","name":"ROCK ROAD SEAFOOD","lat":"1.5309319","lon":"110.3417905"},{"id":"6698","name":"OPP LEVEL UP ROCK ROAD","lat":"1.526972","lon":"110.341464"},{"id":"6702","name":"FARLEY KCH","lat":"1.484703","lon":"110.331497"},{"id":"6706","name":"OUM","lat":"1.439519","lon":"110.329206"},{"id":"6707","name":"JALAN PENRISSEN 2","lat":"1.432878","lon":"110.328536"},{"id":"6708","name":"KOTA PADAWAN 1","lat":"1.427011","lon":"110.326464"},{"id":"6709","name":"OPP SJKCH BATU 10","lat":"1.424886","lon":"110.326442"},{"id":"6710","name":"OPP ST ANN CHURCH","lat":"1.422139","lon":"110.325586"},{"id":"6711","name":"OPP RCBM HOSPITAL","lat":"1.388925","lon":"110.323581"},{"id":"6712","name":"JLN BORNEO HEIGHTS","lat":"1.352653","lon":"110.313064"},{"id":"6713","name":"BUNG BARAU","lat":"1.310689","lon":"110.293239"},{"id":"6716","name":"BALAI POLIS BADARUDDIN","lat":"1.550433","lon":"110.337872"},{"id":"6717","name":"OPP SJKCH NO 4","lat":"1.547797","lon":"110.337769"},{"id":"6721","name":"EVERBRIGHT PARK","lat":"1.5186528","lon":"110.3284347"},{"id":"6722","name":"EVERBRIGHT STATE","lat":"1.5168734","lon":"110.3233368"},{"id":"6723","name":"LAU FURNITURE","lat":"1.514882","lon":"110.3174936"},{"id":"6724","name":"MJC BATU KAWA","lat":"1.5127543","lon":"110.3108792"},{"id":"6729","name":"TERMINAL BAS BAU","lat":"1.417972","lon":"110.154792"},{"id":"6735","name":"OPP SK ST STEPHEN","lat":"1.4145961","lon":"110.1584324"},{"id":"6736","name":"TAMAN INDAH","lat":"1.421136","lon":"110.170694"},{"id":"6737","name":"JALAN BAU - KUCHING 1","lat":"1.421817","lon":"110.182797"},{"id":"6738","name":"SJK CHUNG HUA PAKU","lat":"1.422189","lon":"110.189231"},{"id":"6739","name":"OPPOSITE SMK PAKU","lat":"1.427542","lon":"110.192956"},{"id":"6740","name":"TAMAN SINIAWAN","lat":"1.441881","lon":"110.227708"},{"id":"6741","name":"KAMPUNG KERANJI","lat":"1.450436","lon":"110.268272"},{"id":"6742","name":"OPP KPG BUNGA RAMPAI","lat":"1.4502917","lon":"110.2760891"},{"id":"6743","name":"KAMPUNG BUKIT PANCUR","lat":"1.452392","lon":"110.280475"},{"id":"6744","name":"SIMPANG BATU KITANG LAMA","lat":"1.452186","lon":"110.282422"},{"id":"6745","name":"BATU KITANG WATER TREATMENT PLANT","lat":"1.4535056","lon":"110.2859694"},{"id":"6746","name":"KAMPUNG BUMBOK","lat":"1.456189","lon":"110.297764"},{"id":"6747","name":"SIMPANG KAMPUNG TEMATU","lat":"1.459464","lon":"110.305406"},{"id":"6748","name":"SRBCH BATU 8 1/2","lat":"1.462486","lon":"110.312192"},{"id":"6749","name":"SIMPANG KPG HJ BAKI","lat":"1.467803","lon":"110.321489"},{"id":"6768","name":"SJKCH KRANJI","lat":"1.450203","lon":"110.266594"},{"id":"6769","name":"SIMPANG BUDDHIST VILLAGE","lat":"1.4422357","lon":"110.2456579"},{"id":"6770","name":"KAMPUNG SINIAWAN BARU","lat":"1.444064","lon":"110.232961"},{"id":"6771","name":"TAMAN SINIAWAN 1","lat":"1.4424375","lon":"110.2294082"},{"id":"6772","name":"TAMAN SINIAWAN 2","lat":"1.441675","lon":"110.226828"},{"id":"6773","name":"KAMPUNG PODAM","lat":"1.431633","lon":"110.19645"},{"id":"6774","name":"SMK PAKU","lat":"1.427183","lon":"110.193128"},{"id":"6779","name":"TOYOTA BORNEO MOBILITY","lat":"1.549777","lon":"110.3706528"},{"id":"6780","name":"SUBARU KUCHING","lat":"1.549811","lon":"110.374383"},{"id":"6781","name":"OPP CHUNG HUA MIDDLE SCHOOL NO 1","lat":"1.5487929","lon":"110.3771133"},{"id":"6782","name":"PETRON PENDING","lat":"1.5498791","lon":"110.3794236"},{"id":"6783","name":"LEMBAGA LADA MALAYSIA HQ","lat":"1.5577068","lon":"110.3831199"},{"id":"6784","name":"LEMBAGA LADA MALAYSIA (TRADE)","lat":"1.560558","lon":"110.3848501"},{"id":"6790","name":"JETI BAKO","lat":"1.6615622","lon":"110.431527"},{"id":"6791","name":"KAMPUNG BAKO INDAH","lat":"1.659917","lon":"110.434189"},{"id":"6792","name":"DEWAN SERBAGUNA KPG HIJRAH","lat":"1.658192","lon":"110.438494"},{"id":"6793","name":"TAMAN MESRA BAKO","lat":"1.6557","lon":"110.441425"},{"id":"6794","name":"OPP SMK BAKO","lat":"1.646397","lon":"110.448197"},{"id":"6795","name":"MUARA TEBAS","lat":"1.6478544","lon":"110.4815448"},{"id":"6869","name":"SIMPANG MUARA TEBAS","lat":"1.667894","lon":"110.463711"},{"id":"6870","name":"SIMPANG KAMPUNG BAKO","lat":"1.642314","lon":"110.455108"},{"id":"6871","name":"SENARI PORT","lat":"1.621607","lon":"110.4450495"},{"id":"6872","name":"OPP TIONG NAM","lat":"1.61665","lon":"110.444056"},{"id":"6873","name":"DEMAK INDUSTRIAL PARK","lat":"1.6087553","lon":"110.4425631"},{"id":"6878","name":"JALAN KEMAJUAN","lat":"1.565897","lon":"110.388481"},{"id":"6879","name":"WHITE HORSE CERAMIC","lat":"1.5650421","lon":"110.3857396"},{"id":"6880","name":"OPP CONSOLIDATED INDUSTRIES","lat":"1.5620353","lon":"110.3855752"},{"id":"6881","name":"OPP LEMBAGA LADA MALAYSIA (TRADE)","lat":"1.560206","lon":"110.384911"},{"id":"6882","name":"OPP LEMBAGA LADA MALAYSIA HQ","lat":"1.557117","lon":"110.383047"},{"id":"6929","name":"ANG CHENG HO QUARRY","lat":"1.5081324","lon":"110.2901462"},{"id":"6930","name":"JALAN BATU KAWA 8","lat":"1.509031","lon":"110.280122"},{"id":"6931","name":"SJK CHUNG HUA BATU KAWA","lat":"1.508964","lon":"110.2669"},{"id":"6932","name":"BATU KAWA COMMERCIAL CENTER","lat":"1.506528","lon":"110.266778"},{"id":"6933","name":"ELM MACHINERY","lat":"1.509078","lon":"110.281469"},{"id":"6934","name":"JALAN SEGEDUP","lat":"1.508561","lon":"110.287192"},{"id":"6954","name":"DESA WIRA","lat":"1.510231","lon":"110.3027"},{"id":"6957","name":"MJC CITY 1","lat":"1.514281","lon":"110.307775"},{"id":"6959","name":"MJC CITY 2","lat":"1.514808","lon":"110.311672"},{"id":"6963","name":"OPP LAU FURNITURE","lat":"1.515272","lon":"110.318133"},{"id":"6973","name":"OPEN AIR MARKET","lat":"1.558621","lon":"110.341297"},{"id":"6993","name":"JKR BATU LINTANG","lat":"1.535681","lon":"110.341872"},{"id":"6994","name":"KWB","lat":"1.535222","lon":"110.348667"},{"id":"6997","name":"ARENA SUKAN","lat":"1.529031","lon":"110.361858"},{"id":"6998","name":"CONDO FLORIDALE","lat":"1.528825","lon":"110.363936"},{"id":"6999","name":"OPPOSITE VIVACITY","lat":"1.527522","lon":"110.370233"},{"id":"7000","name":"TABUAN JAYA","lat":"1.525547","lon":"110.376797"},{"id":"7001","name":"EMART TABUAN JAYA","lat":"1.515617","lon":"110.386142"},{"id":"7002","name":"PJS","lat":"1.480261","lon":"110.420175"},{"id":"7003","name":"UNI VISTA","lat":"1.467314","lon":"110.418422"},{"id":"7004","name":"UNIMAS","lat":"1.464722","lon":"110.42475"},{"id":"7005","name":"HOSPITAL UNIMAS","lat":"1.461694","lon":"110.419011"},{"id":"7006","name":"BATU 16 KUCHING SERIAN","lat":"1.374719","lon":"110.385183"},{"id":"7007","name":"KAMPUNG DURAS","lat":"1.373228","lon":"110.390369"},{"id":"7008","name":"INSTITUT MEMANDU SIBURAN","lat":"1.369378","lon":"110.398506"},{"id":"7009","name":"PASAR SIBURAN","lat":"1.365183","lon":"110.402869"},{"id":"7010","name":"CHUNG HUA SIBURAN","lat":"1.361639","lon":"110.405361"},{"id":"7011","name":"KOMPLEKS SUKAN PADAWAN","lat":"1.354161","lon":"110.408792"},{"id":"7012","name":"OPP UNACO SIBURAN","lat":"1.345819","lon":"110.408631"},{"id":"7013","name":"BERATOK","lat":"1.314325","lon":"110.407311"},{"id":"7014","name":"SJK TAPAH","lat":"1.296161","lon":"110.411553"},{"id":"7015","name":"TAMAN HARMONI - SIBURAN","lat":"1.280747","lon":"110.428658"},{"id":"7016","name":"KAMPUNG RITUH LABUAN","lat":"1.279744","lon":"110.436853"},{"id":"7017","name":"KAMPUNG RITUH PELAMAN","lat":"1.279967","lon":"110.443911"},{"id":"7018","name":"JALAN KUCHING SERIAN 1","lat":"1.277733","lon":"110.451944"},{"id":"7019","name":"SK GEMAN","lat":"1.271933","lon":"110.458167"},{"id":"7020","name":"SJK CHUNG HUA BATU 29","lat":"1.256278","lon":"110.475611"},{"id":"7021","name":"KAMPUNG TIAN MAWANG","lat":"1.249778","lon":"110.484278"},{"id":"7022","name":"SUNGAI MAMAT","lat":"1.239083","lon":"110.498194"},{"id":"7023","name":"JALAN KUCHING SERIAN 2","lat":"1.233647","lon":"110.502108"},{"id":"7024","name":"SJK CHUNG HUA BATU 32","lat":"1.2229","lon":"110.511808"},{"id":"7025","name":"TARAT","lat":"1.209194","lon":"110.5295"},{"id":"7026","name":"TARAT JAYA","lat":"1.200417","lon":"110.542694"},{"id":"7027","name":"JALAN KUCHING SERIAN 3","lat":"1.191722","lon":"110.556861"},{"id":"7028","name":"JALAN KUCHING SERIAN 4","lat":"1.187944","lon":"110.56225"},{"id":"7029","name":"KAMPUNG STABUN","lat":"1.183417","lon":"110.564528"},{"id":"7030","name":"OPPOSITE HOSPITAL SERIAN","lat":"1.1765","lon":"110.565"},{"id":"7031","name":"IPD SERIAN","lat":"1.172306","lon":"110.5665"},{"id":"7032","name":"STESEN BAS SERIAN","lat":"1.164571","lon":"110.567035"},{"id":"7041","name":"SEB SERIAN","lat":"1.171228","lon":"110.566308"},{"id":"7042","name":"ROXY HOTEL SERIAN","lat":"1.172719","lon":"110.5664"},{"id":"7043","name":"HOSPITAL SERIAN","lat":"1.176736","lon":"110.564556"},{"id":"7044","name":"FLYOVER SERIAN","lat":"1.179944","lon":"110.564278"},{"id":"7045","name":"OPP TAMAN AYER MANIS","lat":"1.1884471","lon":"110.5617307"},{"id":"7046","name":"OPPOSITE JALAN KUCHING SERIAN 2","lat":"1.191389","lon":"110.557"},{"id":"7047","name":"SUNGAI RAYANG SIJO","lat":"1.197417","lon":"110.546722"},{"id":"7048","name":"SJK CHUNG HUA BATU 35","lat":"1.201972","lon":"110.539972"},{"id":"7049","name":"TARAT JAYA FOOD JUNCTION","lat":"1.206083","lon":"110.53375"},{"id":"7050","name":"OPPOSITE TARAT","lat":"1.208944","lon":"110.529444"},{"id":"7051","name":"OPPOSITE SJK CHUNG HUA BATU 32","lat":"1.223167","lon":"110.511222"},{"id":"7052","name":"OPPOSITE KAMPUNG TIAN MAWANG","lat":"1.249325","lon":"110.484439"},{"id":"7053","name":"OPPOSITE SJK CHUNG HUA BATU 29","lat":"1.256556","lon":"110.474778"},{"id":"7054","name":"KAMPUNG LINTANG BARU","lat":"1.267944","lon":"110.462889"},{"id":"7055","name":"GEMANG","lat":"1.2715","lon":"110.458306"},{"id":"7056","name":"OPP SIMPANG JALAN KONG PING","lat":"1.274917","lon":"110.454706"},{"id":"7057","name":"OPPOSITE KAMPUNG RITUH MAWANG","lat":"1.276733","lon":"110.452044"},{"id":"7058","name":"OPOSITE KAMPUNG RITUH LABUAN","lat":"1.279442","lon":"110.436767"},{"id":"7059","name":"OPPOSITE TAMAN HARMONI","lat":"1.280072","lon":"110.428811"},{"id":"7060","name":"OPPOSITE SJK TAPAH","lat":"1.294675","lon":"110.412492"},{"id":"7061","name":"OPPOSITE BERATOK","lat":"1.312567","lon":"110.407064"},{"id":"7062","name":"UNACO SIBURAN","lat":"1.3454","lon":"110.408375"},{"id":"7063","name":"IPD PADAWAN","lat":"1.353803","lon":"110.408631"},{"id":"7064","name":"SIBURAN","lat":"1.360919","lon":"110.405578"},{"id":"7065","name":"SMK SIBURAN","lat":"1.369183","lon":"110.398403"},{"id":"7066","name":"TAMAN DURAS","lat":"1.372306","lon":"110.392406"},{"id":"7067","name":"OPP BATU 16 KUCHING SERIAN","lat":"1.374833","lon":"110.384417"},{"id":"7068","name":"OPPOSITE UNIMAS","lat":"1.464306","lon":"110.418444"},{"id":"7069","name":"SMK TABUAN JAYA","lat":"1.514667","lon":"110.386056"},{"id":"7070","name":"SARAWAK SKILLS","lat":"1.518019","lon":"110.383664"},{"id":"7071","name":"TABUAN JAYA 1","lat":"1.524528","lon":"110.377972"},{"id":"7072","name":"TABUAN JAYA 2","lat":"1.525778","lon":"110.375972"},{"id":"7073","name":"VIVACITY","lat":"1.526814","lon":"110.3723"},{"id":"7074","name":"JALAN WAN ALWI 1","lat":"1.528294","lon":"110.365264"},{"id":"7075","name":"JALAN WAN ALWI 2","lat":"1.52875","lon":"110.363172"},{"id":"7076","name":"BATU LINTANG 1","lat":"1.540583","lon":"110.354444"},{"id":"7077","name":"BATU LINTANG 2","lat":"1.538919","lon":"110.351422"},{"id":"7079","name":"BOMBA BATU LINTANG","lat":"1.5342","lon":"110.346019"},{"id":"7080","name":"OPPOSITE JKR BATU LINTANG","lat":"1.535394","lon":"110.342064"},{"id":"7081","name":"KOZY SQUARE","lat":"1.5395","lon":"110.341472"},{"id":"7082","name":"ST3","lat":"1.535861","lon":"110.356472"},{"id":"7085","name":"BAHTERANGKUT","lat":"1.531751","lon":"110.341839"},{"id":"7090","name":"OPP SGH","lat":"1.5428706","lon":"110.3412945"},{"id":"7091","name":"INDIAN ASSOCIATION","lat":"1.534614","lon":"110.341153"},{"id":"7094","name":"DEMAK INDUSTRIAL PARK ROUNDABOUT","lat":"1.5984194","lon":"110.4415347"},{"id":"7095","name":"OPP SK PAJAR SEJINGKAT","lat":"1.5931195","lon":"110.4371204"},{"id":"7096","name":"OPP SEB SUBSTATION SEJINGKAT","lat":"1.5879014","lon":"110.4282004"},{"id":"7097","name":"TAMAN PERINDUSTRIAN CENTRAL LIGHT","lat":"1.586666","lon":"110.425891"},{"id":"7098","name":"TERMINAL SAUJANA","lat":"1.5580499","lon":"110.3420317"},{"id":"7099","name":"OPP SUNNY HILL","lat":"1.521028","lon":"110.334747"},{"id":"8280","name":"TAMAN SRI EMAS","lat":"1.4388564","lon":"110.3280234"},{"id":"8283","name":"JLN DATUK AMAR KALONG NINGKAN","lat":"1.4943","lon":"110.331308"},{"id":"8284","name":"SMK SG TAPANG","lat":"1.4609","lon":"110.330297"},{"id":"8380","name":"KFC SATOK","lat":"1.553032","lon":"110.3358477"},{"id":"8381","name":"MAXIS CENTRE","lat":"1.5532629","lon":"110.3332002"},{"id":"8382","name":"SIN LIAN HIN GARDEN","lat":"1.5495152","lon":"110.3272042"},{"id":"8383","name":"JALAN EASTERN PARK","lat":"1.546638","lon":"110.3238648"},{"id":"8384","name":"RPR TMN FLORA INDAH","lat":"1.5092014","lon":"110.3229769"},{"id":"8385","name":"KK BATU KAWA","lat":"1.5220575","lon":"110.3133099"},{"id":"8386","name":"COURTS MAMMOTH","lat":"1.5288265","lon":"110.3412026"},{"id":"8387","name":"CARMELITE CHAPEL","lat":"1.5395635","lon":"110.3414693"},{"id":"8388","name":"CHINESE MUSEUM","lat":"1.5578297","lon":"110.3485271"},{"id":"8389","name":"OPP RIVERSIDE","lat":"1.5583186","lon":"110.3512793"},{"id":"8390","name":"MARKET PETANAK","lat":"1.5568457","lon":"110.3597494"},{"id":"8391","name":"OPP SJKCH NO 3","lat":"1.5525391","lon":"110.3615536"},{"id":"8392","name":"OPP MBKS","lat":"1.5523096","lon":"110.3640316"},{"id":"8393","name":"PUBLIC BANK PADUNGAN","lat":"1.5505433","lon":"110.367423"},{"id":"8394","name":"JALAN SEKAMA","lat":"1.5453265","lon":"110.3629764"},{"id":"8401","name":"BOSS BEAUTY TRADING COMPANY","lat":"1.5416926","lon":"110.3633395"},{"id":"8402","name":"ST FAITH CHURCH","lat":"1.5389846","lon":"110.3643337"},{"id":"8403","name":"EVERWIN KENYALANG","lat":"1.5377016","lon":"110.361702"},{"id":"8404","name":"KENYALANG PARK","lat":"1.5380962","lon":"110.3589205"},{"id":"8405","name":"KING CENTRE","lat":"1.5288032","lon":"110.3593318"},{"id":"8406","name":"KPDN SARAWAK","lat":"1.5277786","lon":"110.357621"},{"id":"8407","name":"MITA CAKE HOUSE JTJ","lat":"1.5250458","lon":"110.3558605"},{"id":"8408","name":"JALAN TABUAN","lat":"1.5470933","lon":"110.3523517"},{"id":"8409","name":"PASAR BATU 7 KCH","lat":"1.4707183","lon":"110.3305167"},{"id":"8410","name":"SMK SUNGAI TAPANG","lat":"1.4609083","lon":"110.3302517"},{"id":"8411","name":"TAMAN INLING","lat":"1.3986148","lon":"110.340595"},{"id":"8412","name":"RPR BATU 13","lat":"1.3945","lon":"110.349778"},{"id":"8413","name":"MEGA COACH","lat":"1.383845","lon":"110.3758383"},{"id":"8414","name":"BEISHI TRADING","lat":"1.37469","lon":"110.3852467"},{"id":"8415","name":"TAMAN BUTTERFLY","lat":"1.3726183","lon":"110.391245"},{"id":"8416","name":"OPP SMK SIBURAN","lat":"1.3693767","lon":"110.398575"},{"id":"8417","name":"PETRONAS SIBURAN","lat":"1.36398","lon":"110.4038"},{"id":"8418","name":"SJK CHUNG HUA SIBURAN","lat":"1.361595","lon":"110.4053967"},{"id":"8419","name":"RPR BATU GONG","lat":"1.3515057","lon":"110.4166943"},{"id":"8420","name":"TERMINAL PASAR SIBURAN","lat":"1.3609281","lon":"110.4055592"},{"id":"8421","name":"KPG SERATAU","lat":"1.3836733","lon":"110.375755"},{"id":"8422","name":"KPG SIDANU","lat":"1.3920283","lon":"110.3550517"},{"id":"8423","name":"TAMAN SENTUH","lat":"1.3940667","lon":"110.3503367"},{"id":"8424","name":"RPR BATU 12","lat":"1.3973217","lon":"110.3429017"},{"id":"8425","name":"OPP TAMAN INLING","lat":"1.3984619","lon":"110.3403777"},{"id":"8426","name":"PETRONAS BATU 12","lat":"1.40517","lon":"110.3367483"},{"id":"8427","name":"BATU 9 - TMN SRI EMAS","lat":"1.4388217","lon":"110.3280633"},{"id":"8428","name":"KOLEJ KESIHATAN AWAM KUCHING","lat":"1.4613267","lon":"110.330245"},{"id":"8429","name":"TAMAN HUI SING","lat":"1.5129289","lon":"110.3451403"},{"id":"8430","name":"AEON MALL KUCHING CENTRAL","lat":"1.5272976","lon":"110.3378249"},{"id":"8431","name":"BORNEO MUSEUM","lat":"1.47014","lon":"110.3283033"},{"id":"8432","name":"OPP KUCHING SENTRAL","lat":"1.4822217","lon":"110.3310583"},{"id":"8433","name":"EMPORIUM KUCHING","lat":"1.5154767","lon":"110.3528667"},{"id":"8434","name":"OPP MITA CAKE HOUSE JTJ","lat":"1.5254533","lon":"110.3556467"},{"id":"8435","name":"SIMPANG JALAN WESTWOOD","lat":"1.5433567","lon":"110.3543867"},{"id":"8436","name":"KOMPLEKS BELIA SUKAN","lat":"1.5394533","lon":"110.3373383"},{"id":"8437","name":"OPP FORDA","lat":"1.53643","lon":"110.337175"},{"id":"8438","name":"TRINITY HUB","lat":"1.514835","lon":"110.335875"},{"id":"8439","name":"KUCHING INTERNATIONAL AIRPORT","lat":"1.4872468","lon":"110.3408061"},{"id":"8440","name":"OPP STATE VET DIAGNOSTIC LAB","lat":"1.4416517","lon":"110.3368267"},{"id":"8441","name":"TAMAN HILL VIEW 2","lat":"1.4408333","lon":"110.34457"},{"id":"8442","name":"TAMAN SURIA","lat":"1.440275","lon":"110.3538117"},{"id":"8443","name":"OPP KPG PANGKALAN KUAP","lat":"1.4396883","lon":"110.365145"},{"id":"8444","name":"SK JALAN MUARA TUANG","lat":"1.4455383","lon":"110.3849917"},{"id":"8445","name":"OPP SMK MUARA TUANG","lat":"1.4506617","lon":"110.3982783"},{"id":"8446","name":"ST FRANCIS CHURCH","lat":"1.4566783","lon":"110.4143"},{"id":"8447","name":"OPP UITM KAMPUS 2","lat":"1.4574133","lon":"110.4299683"},{"id":"8448","name":"UNIMAS KAMPUS TIMUR","lat":"1.457205","lon":"110.454745"},{"id":"8449","name":"TERMINAL SUMMER MALL","lat":"1.4541283","lon":"110.4586767"},{"id":"8450","name":"DESA ILMU","lat":"1.455529","lon":"110.4499052"},{"id":"8451","name":"AIMAN MALL","lat":"1.45653","lon":"110.449165"},{"id":"8452","name":"SMK MUARA TUANG","lat":"1.4505533","lon":"110.397235"},{"id":"8453","name":"OPP SK JALAN MUARA TUANG","lat":"1.44511","lon":"110.3847517"},{"id":"8454","name":"KPG PANGKALAN KUAP","lat":"1.4396633","lon":"110.3657083"},{"id":"8455","name":"TAMAN HARMONI - KOTA SAMARAHAN","lat":"1.4405333","lon":"110.3544233"},{"id":"8456","name":"TAMAN MERPATI - KOTA SAMARAHAN","lat":"1.4405383","lon":"110.34296"},{"id":"8457","name":"SEKOLAH TUNAS BAKTI","lat":"1.4405233","lon":"110.3376717"},{"id":"8458","name":"OPP PASAR BATU 7 KCH","lat":"1.4705767","lon":"110.3304217"},{"id":"8459","name":"SARAWAK FORESTRY CORP","lat":"1.4726017","lon":"110.335865"},{"id":"8460","name":"EVERRISE BATU 4","lat":"1.5079","lon":"110.3336983"},{"id":"8461","name":"OPP BALAI POLIS BADARUDDIN","lat":"1.5505","lon":"110.33761"},{"id":"8462","name":"PERODUA ERAZOOM","lat":"1.5534674","lon":"110.3289563"},{"id":"8463","name":"JALAN BELATOK MALIHAH 1","lat":"1.55405","lon":"110.2449368"},{"id":"8464","name":"SURAU DARUL IBADAH","lat":"1.5479467","lon":"110.2403896"},{"id":"8465","name":"JALAN BELATOK MALIHAH 2","lat":"1.5515253","lon":"110.2403764"},{"id":"8466","name":"H&L MALIHAH","lat":"1.554622","lon":"110.2554604"},{"id":"8467","name":"MALIHAH MINI MART","lat":"1.5540589","lon":"110.2447028"},{"id":"8468","name":"TAMAN SERI MAKMUR","lat":"1.5734034","lon":"110.2690252"},{"id":"8469","name":"TAMAN HENG GUEN","lat":"1.5728813","lon":"110.2710714"},{"id":"8470","name":"OPP TAMAN YEN YEN","lat":"1.5732682","lon":"110.2988379"},{"id":"8471","name":"OPP PUBLIC FURNITURE","lat":"1.5730732","lon":"110.3016465"},{"id":"8472","name":"OPP JJ PETSHOP","lat":"1.5645026","lon":"110.3134405"},{"id":"8473","name":"KUCHING SENTRAL","lat":"1.4822135","lon":"110.3332703"},{"id":"8474","name":"KUCHING SENTRAL BUS TERMINAL","lat":"1.4817574","lon":"110.3326293"},{"id":"8475","name":"KUCHING SENTRAL TERMINAL","lat":"1.481799","lon":"110.332511"},{"id":"8476","name":"OPP AEROVILLE","lat":"1.498412","lon":"110.3718493"},{"id":"8477","name":"JLN STAMPIN BARU","lat":"1.4907997","lon":"110.376739"},{"id":"8478","name":"LUNG ZAI STALL","lat":"1.4904537","lon":"110.3811033"},{"id":"8479","name":"JLN STAMPIN BARU 2","lat":"1.490558","lon":"110.3836391"},{"id":"8480","name":"JLN STAMPIN BARU 3","lat":"1.4937618","lon":"110.3846544"},{"id":"8481","name":"BR STORE STAMPIN BARU","lat":"1.4997285","lon":"110.3840986"},{"id":"8482","name":"JLN STAMPIN BARU 4","lat":"1.5007861","lon":"110.3802854"},{"id":"8483","name":"AEROVILLE","lat":"1.4981755","lon":"110.3718897"},{"id":"8484","name":"OPP LIONS NURSING HOME","lat":"1.5032933","lon":"110.373378"},{"id":"8485","name":"MBKS STUTONG COMMUNITY MARKET","lat":"1.5185803","lon":"110.3780594"},{"id":"8486","name":"OPP PETRONAS TABUAN JAYA","lat":"1.5258073","lon":"110.3759628"},{"id":"8487","name":"JLN FOOCHOW","lat":"1.5400684","lon":"110.373036"},{"id":"8488","name":"SHUNPIN ENGENEERING WORKS","lat":"1.5456008","lon":"110.3688721"},{"id":"8489","name":"OPP PUBLIC BANK PADUNGAN","lat":"1.5499766","lon":"110.3674963"},{"id":"8490","name":"SJKCH NO 3","lat":"1.5522845","lon":"110.362026"},{"id":"8491","name":"LOT 10 BOUTIQUE HOTEL","lat":"1.5517568","lon":"110.3574631"},{"id":"8492","name":"GRAND CONTINENTAL HOTEL","lat":"1.5528639","lon":"110.3541845"},{"id":"8493","name":"SAUJANA","lat":"1.5580409","lon":"110.3419718"},{"id":"8494","name":"CT2 HOTEL","lat":"1.5524936","lon":"110.3514679"},{"id":"8495","name":"KMC FLAT","lat":"1.5528006","lon":"110.3560122"},{"id":"8496","name":"BIG PHARMACY TABUAN JAYA","lat":"1.5255193","lon":"110.3770039"},{"id":"8497","name":"OPP MBKS STUTONG COMMUNITY MARKET","lat":"1.5184531","lon":"110.3784242"},{"id":"8498","name":"LIONS NURSING HOME","lat":"1.5022495","lon":"110.3735387"},{"id":"8499","name":"JLN STAMPIN BARU B","lat":"1.4908096","lon":"110.3767749"},{"id":"8500","name":"LUNG ZAI STALL STAMPIN BARU B","lat":"1.4904222","lon":"110.3811165"},{"id":"8501","name":"JLN STAMPIN BARU 2 B","lat":"1.4905137","lon":"110.383563"},{"id":"8502","name":"JLN STAMPIN BARU 3 B","lat":"1.4937803","lon":"110.3846241"},{"id":"8503","name":"BR STORE STAMPIN BARU B","lat":"1.4997158","lon":"110.384134"},{"id":"8504","name":"JLN STAMPIN BARU 4 B","lat":"1.5007624","lon":"110.3803133"},{"id":"8505","name":"AEROVILLE B","lat":"1.4982149","lon":"110.3718929"},{"id":"8506","name":"KUCHING INTERNATIONAL AIRPORT B","lat":"1.4872862","lon":"110.3409101"},{"id":"8507","name":"OPEN AIR","lat":"1.559295","lon":"110.3424517"},{"id":"8508","name":"OPP WIJASA MEDIA","lat":"1.5696689","lon":"110.323191"},{"id":"8509","name":"OPP HAWA BBQ STEAMBOAT HOUSE","lat":"1.5766917","lon":"110.3318017"},{"id":"8510","name":"TAMAN TUNKU FASA 2","lat":"1.57535","lon":"110.3359133"},{"id":"8511","name":"SK ENCIK BUYONG","lat":"1.5704317","lon":"110.341625"},{"id":"8512","name":"KPG ASTANA LOT","lat":"1.5698617","lon":"110.34423"},{"id":"8513","name":"PUSTAKA NEGERI SARAWAK","lat":"1.5815983","lon":"110.3511417"},{"id":"8514","name":"KLINIK KESIHATAN PETRA JAYA","lat":"1.5909817","lon":"110.3401167"},{"id":"8515","name":"JKM SARAWAK","lat":"1.597635","lon":"110.3400167"},{"id":"8516","name":"SUKMA RIA","lat":"1.604125","lon":"110.3409233"},{"id":"8517","name":"BOMBA PETRA JAYA","lat":"1.5985717","lon":"110.3369633"},{"id":"8518","name":"SAMARIANG GOBIL","lat":"1.5966517","lon":"110.3345117"},{"id":"8519","name":"TADIKA SEDIDIK SEMARIANG","lat":"1.5900567","lon":"110.331205"},{"id":"8520","name":"OPP MCD SAMARIANG","lat":"1.5870967","lon":"110.331515"},{"id":"8521","name":"DBKU - BUKIT SIOL","lat":"1.5847533","lon":"110.3320367"},{"id":"8522","name":"OPP ECO MALL SAMARIANG","lat":"1.5816583","lon":"110.3325167"},{"id":"8523","name":"HAWA BBQ STEAMBOAT HOUSE","lat":"1.5765317","lon":"110.3316583"},{"id":"8524","name":"SURAU DARUL SAKINAH","lat":"1.5753017","lon":"110.329795"},{"id":"8525","name":"LORONG ASTANA 3","lat":"1.5728433","lon":"110.3270133"},{"id":"8526","name":"SJKCH BATU 7","lat":"1.576872","lon":"110.2549223"},{"id":"8527","name":"KPG SG ATAS BARU","lat":"1.6118345","lon":"110.2091048"},{"id":"8528","name":"TAMAN JUBILEE MAS","lat":"1.6082893","lon":"110.2244004"},{"id":"8529","name":"KAMPUNG MATANG","lat":"1.5850201","lon":"110.2263997"},{"id":"8530","name":"SIMPANG JALAN SINGAI - MATANG","lat":"1.580039","lon":"110.2434486"},{"id":"8531","name":"OPP SJKCH BATU 7","lat":"1.5767516","lon":"110.2559578"},{"id":"8532","name":"MATANG BATU 5","lat":"1.5742442","lon":"110.2821322"},{"id":"8533","name":"BATU 10 MATANG","lat":"1.5933414","lon":"110.2263952"},{"id":"8535","name":"JLN DESA WIRA","lat":"1.5065462","lon":"110.3023922"},{"id":"8536","name":"MOYAN","lat":"1.5062091","lon":"110.252746"},{"id":"8537","name":"KWONG LEE BANK","lat":"1.553204","lon":"110.38112"},{"id":"8538","name":"JALAN BINTAWA","lat":"1.5688702","lon":"110.3805406"},{"id":"8539","name":"BINTAWA WET MARKET","lat":"1.5713525","lon":"110.3803583"},{"id":"8540","name":"RPR DEMAK LAUT","lat":"1.5964688","lon":"110.410714"}]