[{"id":"7100","name":"TAMAN SERI PUTRA","lat":"6.104108","lon":"100.286322"},{"id":"7101","name":"TERMINAL SHAHAB PERDANA","lat":"6.140289","lon":"100.354178"},{"id":"7102","name":"STESEN BAS JITRA","lat":"6.259142","lon":"100.417417"},{"id":"7103","name":"STESEN BAS KUALA NERANG","lat":"6.257708","lon":"100.610325"},{"id":"7104","name":"PERHENTIAN BAS PENDANG","lat":"5.993814","lon":"100.476381"},{"id":"7105","name":"STESEN BAS SG PETANI","lat":"5.639839","lon":"100.488111"},{"id":"7106","name":"TANJUNG DAWAI","lat":"5.680292","lon":"100.364742"},{"id":"7107","name":"PANTAI MERDEKA","lat":"5.665761","lon":"100.367531"},{"id":"7108","name":"KLINIK KESIHATAN SG LALANG","lat":"5.715853","lon":"100.534889"},{"id":"7109","name":"TAMAN RIA","lat":"5.635781","lon":"100.563456"},{"id":"7110","name":"MYDIN TAMAN BATIK","lat":"5.63265","lon":"100.538589"},{"id":"7111","name":"BINTANG MAYA / BANDAR PERDANA","lat":"5.612431","lon":"100.522106"},{"id":"7112","name":"SHAHAB PERDANA","lat":"6.140289","lon":"100.354178"},{"id":"7113","name":"MASJID AL RAHMAH","lat":"6.1426","lon":"100.356758"},{"id":"7114","name":"MEDAN SELERA TAMAN WIRA MERGONG","lat":"6.142911","lon":"100.360075"},{"id":"7115","name":"TAMAN WIRA","lat":"6.143017","lon":"100.362864"},{"id":"7116","name":"KG LUBUK PERINGGI","lat":"6.143336","lon":"100.364103"},{"id":"7117","name":"STOR JKR","lat":"6.143683","lon":"100.3694"},{"id":"7118","name":"GIAT MARA","lat":"6.143364","lon":"100.366106"},{"id":"7119","name":"HOSPITAL ALOR SETAR","lat":"6.142819","lon":"100.370392"},{"id":"7120","name":"KOMPLEKS SUKAN","lat":"6.137972","lon":"100.370094"},{"id":"7121","name":"STADIUM DARUL AMAN","lat":"6.136389","lon":"100.369689"},{"id":"7122","name":"STADIUM DARUL AMAN 2","lat":"6.134444","lon":"100.369078"},{"id":"7123","name":"BAKAR BATA","lat":"6.131519","lon":"100.368314"},{"id":"7124","name":"WISMA KANCUT","lat":"6.128478","lon":"100.367597"},{"id":"7125","name":"AMAN CENTRAL / MENARA ALOR SETAR","lat":"6.124797","lon":"100.366942"},{"id":"7126","name":"DATARAN ALOR SETAR","lat":"6.11965","lon":"100.365533"},{"id":"7127","name":"PEKAN RABU","lat":"6.117289","lon":"100.367619"},{"id":"7128","name":"SEBERANG PERAK","lat":"6.113247","lon":"100.364664"},{"id":"7129","name":"HIJAU KUNING","lat":"6.107708","lon":"100.364333"},{"id":"7130","name":"SJK(C) SIN MIN","lat":"6.102356","lon":"100.364008"},{"id":"7131","name":"SIMPANG KUALA","lat":"6.099522","lon":"100.363839"},{"id":"7132","name":"KLINIK KESIHATAN SIMPANG KUALA 1","lat":"6.097883","lon":"100.363392"},{"id":"7133","name":"KLINIK KESIHATAN SIMPANG KUALA 2","lat":"6.097472","lon":"100.358856"},{"id":"7134","name":"KLINIK KESIHATAN SIMPANG KUALA 3","lat":"6.097703","lon":"100.360728"},{"id":"7135","name":"TAMAN ORKID","lat":"6.097169","lon":"100.355603"},{"id":"7136","name":"SMK TUN SHARIFAH RODZIAH","lat":"6.096886","lon":"100.353089"},{"id":"7137","name":"KOMPLEKS PENYIARAN RTM","lat":"6.096372","lon":"100.347917"},{"id":"7138","name":"MASJID AS SALAM","lat":"6.0959","lon":"100.343744"},{"id":"7139","name":"SJK(C) PEI HWA","lat":"6.095736","lon":"100.342758"},{"id":"7140","name":"MARDI/KG TELUK CHENGAI","lat":"6.095161","lon":"100.336569"},{"id":"7141","name":"SK TELUK KECHAI","lat":"6.094939","lon":"100.331267"},{"id":"7142","name":"SMK TENGKU LAKSMANA","lat":"6.094903","lon":"100.328911"},{"id":"7143","name":"TAMAN KEMUDI/KG TELOK KECHAI","lat":"6.094731","lon":"100.320469"},{"id":"7144","name":"MASJID AL HUDA/PUSAT SUMBER KEMAS","lat":"6.094719","lon":"100.318058"},{"id":"7145","name":"TAMAN RESTU","lat":"6.094619","lon":"100.312125"},{"id":"7146","name":"BATAS PAIP","lat":"6.094494","lon":"100.307814"},{"id":"7147","name":"BATAS PAIP 2","lat":"6.095486","lon":"100.304911"},{"id":"7148","name":"TAMAN LAYAR FASA 4 & 3","lat":"6.097522","lon":"100.302331"},{"id":"7149","name":"MASJID TUNKU ABDUL RAHMAN PETRA / KLINIK KESIHATAN","lat":"6.098761","lon":"100.300797"},{"id":"7150","name":"FAMA","lat":"6.103247","lon":"100.29535"},{"id":"7151","name":"MEE ABBAS","lat":"6.104958","lon":"100.293325"},{"id":"7152","name":"SK HAJI ISMAIL / MASJID INDIA","lat":"6.105658","lon":"100.291094"},{"id":"7153","name":"JETI KUALA KEDAH","lat":"6.105456","lon":"100.2902"},{"id":"7154","name":"PEJABAT POS","lat":"6.105386","lon":"100.289706"},{"id":"7155","name":"PEKAN KUALA KEDAH","lat":"6.104814","lon":"100.287606"},{"id":"7156","name":"SJK(C) PUMPONG","lat":"6.145314","lon":"100.363289"},{"id":"7157","name":"KOLEJ POLY TECH MARA","lat":"6.147289","lon":"100.363197"},{"id":"7158","name":"KOMPLEKS BADMINTON","lat":"6.151658","lon":"100.363492"},{"id":"7159","name":"PEJABAT DAERAH","lat":"6.158703","lon":"100.363375"},{"id":"7160","name":"JPJ","lat":"6.162947","lon":"100.362086"},{"id":"7161","name":"PANTAI JOHOR","lat":"6.168517","lon":"100.368283"},{"id":"7162","name":"ALOR MERAH","lat":"6.164708","lon":"100.368617"},{"id":"7163","name":"PETRONAS ALOR MERAH","lat":"6.158728","lon":"100.369156"},{"id":"7164","name":"APARTMENT KCS","lat":"6.154211","lon":"100.369397"},{"id":"7165","name":"KEDAH MEDICAL CENTRE","lat":"6.149108","lon":"100.369833"},{"id":"7166","name":"KELAB ROYAL KEDAH","lat":"6.150631","lon":"100.369708"},{"id":"7167","name":"WISMA DARUL AMAN","lat":"6.144878","lon":"100.370194"},{"id":"7168","name":"PENJARA","lat":"6.144044","lon":"100.373678"},{"id":"7169","name":"SMK SULTANAH BAHIYAH","lat":"6.142567","lon":"100.38375"},{"id":"7170","name":"SM DATO SYED OMAR","lat":"6.141358","lon":"100.386294"},{"id":"7171","name":"MRTC","lat":"6.136528","lon":"100.3909"},{"id":"7172","name":"TAMAN PKNK 2","lat":"6.136617","lon":"100.386878"},{"id":"7173","name":"TAMAN PKNK","lat":"6.137742","lon":"100.384544"},{"id":"7174","name":"OPP STADIUM DARUL AMAN","lat":"6.135511","lon":"100.373011"},{"id":"7175","name":"WISMA PKNK","lat":"6.135511","lon":"100.373011"},{"id":"7176","name":"UKIR MALL","lat":"6.122114","lon":"100.370653"},{"id":"7177","name":"IPD KOTA SETAR","lat":"6.120061","lon":"100.370208"},{"id":"7178","name":"UTC ALOR SETAR","lat":"6.118703","lon":"100.370419"},{"id":"7179","name":"KTM ALOR SETAR","lat":"6.113619","lon":"100.369206"},{"id":"7180","name":"SK WAN SULAIMAN SIDDIQ","lat":"6.126928","lon":"100.365622"},{"id":"7181","name":"KG BERJAYA","lat":"6.125519","lon":"100.357669"},{"id":"7182","name":"SEKOLAH TUNKU ABDUL RAHMAN","lat":"6.127672","lon":"100.351697"},{"id":"7183","name":"ASRAMA POLYTECH MARA","lat":"6.127217","lon":"100.348606"},{"id":"7184","name":"MASJID AL HASANAH","lat":"6.123219","lon":"100.349781"},{"id":"7185","name":"TAMAN RAKYAT MERGONG","lat":"6.123636","lon":"100.347"},{"id":"7186","name":"KG MEMPELAM","lat":"6.127156","lon":"100.344908"},{"id":"7187","name":"LOTUS MERGONG","lat":"6.127731","lon":"100.341772"},{"id":"7188","name":"PLAZA PERABOT CLASSY GLORY","lat":"6.133439","lon":"100.342214"},{"id":"7189","name":"TAMAN SELAYANG","lat":"6.136942","lon":"100.343864"},{"id":"7190","name":"SEKOLAH MENENGAH KEBANGSAAN AGAMA KEDAH","lat":"6.140375","lon":"100.346361"},{"id":"7191","name":"BSN PEKAN RABU","lat":"6.118964","lon":"100.368544"},{"id":"7192","name":"OPP IPD KOTA SETAR","lat":"6.120761","lon":"100.369717"},{"id":"7193","name":"TAMAN SELADANG","lat":"6.120761","lon":"100.369717"},{"id":"7194","name":"PEJABAT PENGHULU TITI GAJAH / TAMAN BERLIAN / TAMAN KANCIL","lat":"6.174631","lon":"100.369244"},{"id":"7195","name":"MASJID TENGKU INTAN SYAFINAZ","lat":"6.178044","lon":"100.371808"},{"id":"7196","name":"KG ALOR SENJAYA","lat":"6.188994","lon":"100.379486"},{"id":"7197","name":"SK TITI GAJAH","lat":"6.188994","lon":"100.379486"},{"id":"7198","name":"TAMAN DESA MUTIARA","lat":"6.196925","lon":"100.386694"},{"id":"7199","name":"LAPANGAN TERBANG SULTAN ABDUL HALIM","lat":"6.194492","lon":"100.391528"},{"id":"7200","name":"TITI GAJAH","lat":"6.202256","lon":"100.394539"},{"id":"7201","name":"SMA TITI BESI","lat":"6.203211","lon":"100.4003"},{"id":"7202","name":"BIRO TATA NEGARA","lat":"6.20265","lon":"100.403717"},{"id":"7203","name":"TUDM KEPALA BATAS","lat":"6.201558","lon":"100.410606"},{"id":"7204","name":"PEKAN KEPALA BATAS","lat":"6.204872","lon":"100.413375"},{"id":"7205","name":"TAMAN JALAI JAYA","lat":"6.210131","lon":"100.414828"},{"id":"7206","name":"KEM TOK JALAI","lat":"6.214911","lon":"100.416064"},{"id":"7207","name":"SMK TUNKU ANUM","lat":"6.219617","lon":"100.417311"},{"id":"7208","name":"KEM SULTAN ABDUL HALIM","lat":"6.224903","lon":"100.418681"},{"id":"7209","name":"SM SULTAN ABDUL HALIM","lat":"6.229056","lon":"100.419564"},{"id":"7210","name":"TNB TANJUNG SEPAH","lat":"6.234322","lon":"100.419675"},{"id":"7211","name":"POLIMAS","lat":"6.250022","lon":"100.430519"},{"id":"7212","name":"SMK JITRA","lat":"6.260561","lon":"100.419967"},{"id":"7213","name":"SK JITRA","lat":"6.261928","lon":"100.419978"},{"id":"7214","name":"PEKAN JITRA","lat":"6.263481","lon":"100.419983"},{"id":"7215","name":"MASJID JITRA","lat":"6.266553","lon":"100.417625"},{"id":"7216","name":"TAMAN DESA SINARAN","lat":"6.270997","lon":"100.409658"},{"id":"7217","name":"BERNAS","lat":"6.273603","lon":"100.40865"},{"id":"7218","name":"SMK SERI MAHAWANGSA","lat":"6.272711","lon":"100.420139"},{"id":"7219","name":"PEJABAT HUTAN DAERAH","lat":"6.270536","lon":"100.420058"},{"id":"7220","name":"BATU 1","lat":"6.117228","lon":"100.373303"},{"id":"7221","name":"SMK SULTANAH ASMA / MASJID DERGA","lat":"6.120003","lon":"100.380528"},{"id":"7222","name":"SEKOLAH RENDAH AN NAJAAH","lat":"6.122781","lon":"100.38255"},{"id":"7223","name":"SJK(C) KEE CHEE","lat":"6.126953","lon":"100.385531"},{"id":"7224","name":"MASJID AL BUKHARY","lat":"6.13283","lon":"100.389475"},{"id":"7225","name":"SK SULTANAH ASMA","lat":"6.134097","lon":"100.389969"},{"id":"7226","name":"TAMAN JAYA","lat":"6.136458","lon":"100.390892"},{"id":"7227","name":"TAMAN BAYU BARU","lat":"6.139897","lon":"100.392356"},{"id":"7228","name":"TAMAN PUSPA KENCANA","lat":"6.144631","lon":"100.39485"},{"id":"7229","name":"TAMAN PULAI JAYA","lat":"6.149228","lon":"100.399758"},{"id":"7230","name":"TAMAN SERI ASTANA","lat":"6.150767","lon":"100.404081"},{"id":"7231","name":"HOSPITAL SULTANAH BAHIYAH","lat":"6.150844","lon":"100.407547"},{"id":"7232","name":"SHELL JALAN LANGGAR","lat":"6.150783","lon":"100.409758"},{"id":"7233","name":"MASJID AL BADAR / TAMAN AWANA","lat":"6.150206","lon":"100.413261"},{"id":"7234","name":"TAMAN AMIRA","lat":"6.149586","lon":"100.415603"},{"id":"7235","name":"MASJID NURUL IHSAN / TAMAN SERI KOTA","lat":"6.148392","lon":"100.420983"},{"id":"7236","name":"KLINIK KESIHATAN LANGGAR","lat":"6.147333","lon":"100.425378"},{"id":"7237","name":"MAKAM DIRAJA LANGGAR","lat":"6.146606","lon":"100.428419"},{"id":"7238","name":"PEKAN LANGGAR","lat":"6.145878","lon":"100.431564"},{"id":"7239","name":"SJK(C) TAI CHONG","lat":"6.145692","lon":"100.432767"},{"id":"7240","name":"ESTET PADI PADANG LANGGAR","lat":"6.146861","lon":"100.441142"},{"id":"7241","name":"KG TANJUNG MUSANG","lat":"6.149128","lon":"100.451919"},{"id":"7242","name":"SENTAP / KILANG SCS","lat":"6.153581","lon":"100.464192"},{"id":"7243","name":"SIMPANG KEBUN 500 / TAMAN INDAH","lat":"6.156233","lon":"100.470181"},{"id":"7244","name":"SK JABI","lat":"6.159114","lon":"100.476131"},{"id":"7245","name":"BHP BATU 9","lat":"6.161189","lon":"100.481822"},{"id":"7246","name":"KILANG PAPAN BEST PRODUCT","lat":"6.162869","lon":"100.48735"},{"id":"7247","name":"BATU 11 / PASARAYA K CERIA POKOK SENA","lat":"6.166231","lon":"100.499206"},{"id":"7248","name":"JABATAN PENDAFTARAN NEGARA","lat":"6.167047","lon":"100.509331"},{"id":"7249","name":"SK POKOK SENA","lat":"6.167614","lon":"100.513375"},{"id":"7250","name":"KAMPUNG AMAN / PEKAN POKOK SENA","lat":"6.168161","lon":"100.516808"},{"id":"7251","name":"BALAI POLIS POKOK SENA","lat":"6.168606","lon":"100.518925"},{"id":"7252","name":"MASJID AR-RAUDAH","lat":"6.172208","lon":"100.524525"},{"id":"7253","name":"SENA SPORT / KILANG BESI","lat":"6.175975","lon":"100.528619"},{"id":"7254","name":"SM SAINS POKOK SENA","lat":"6.1796","lon":"100.532439"},{"id":"7255","name":"KOMPLEKS ISLAM DARUL ULUM","lat":"6.189792","lon":"100.542592"},{"id":"7256","name":"BUKIT LEREK","lat":"6.192078","lon":"100.545056"},{"id":"7257","name":"KG BUKIT LEREK 2","lat":"6.193894","lon":"100.547064"},{"id":"7258","name":"SIMPANG KUBU / BATU 16","lat":"6.203508","lon":"100.557586"},{"id":"7259","name":"PEJABAT FELCRA BUKIT TAMPOI","lat":"6.217494","lon":"100.569122"},{"id":"7260","name":"MAHAD TAHFIZ ABU BAKAR","lat":"6.218933","lon":"100.573817"},{"id":"7261","name":"SK BUKIT TAMPOI","lat":"6.220839","lon":"100.577081"},{"id":"7262","name":"RUMAH ORANG TUA-TUA BUKIT BETHEL","lat":"6.228083","lon":"100.583633"},{"id":"7263","name":"KG NAKO NAMBUA 1","lat":"6.234314","lon":"100.588914"},{"id":"7264","name":"KG NAKO NAMBUA 2","lat":"6.235569","lon":"100.591811"},{"id":"7265","name":"MASJID TENGKU SHARAFUDDIN BADLISHAH","lat":"6.237369","lon":"100.593975"},{"id":"7266","name":"KOLEJ MARA KUALA NERANG","lat":"6.241114","lon":"100.597336"},{"id":"7267","name":"TAMAN BELIMBING","lat":"6.245106","lon":"100.600072"},{"id":"7268","name":"SMK KUALA NERANG","lat":"6.243569","lon":"100.598369"},{"id":"7269","name":"KEMAS","lat":"6.248572","lon":"100.603169"},{"id":"7270","name":"SMK DATO SHEIKH AHMAD","lat":"6.251228","lon":"100.60585"},{"id":"7271","name":"PEJABAT PEKHIDMATAN VETERINAR DAERAH PADANG TERAP","lat":"6.253233","lon":"100.607797"},{"id":"7272","name":"PEKAN KUALA NERANG","lat":"6.255489","lon":"100.610064"},{"id":"7273","name":"CENTRAL SQUARE","lat":"5.636842","lon":"100.488086"},{"id":"7274","name":"BAKAR ARANG","lat":"5.632669","lon":"100.48285"},{"id":"7275","name":"MASJID ABU BAKAR AS SIDDIQ","lat":"5.628967","lon":"100.480625"},{"id":"7276","name":"SMK CHE TOM","lat":"5.624444","lon":"100.478747"},{"id":"7277","name":"LOTUS BAKAR ARANG","lat":"5.621828","lon":"100.476517"},{"id":"7278","name":"KAWASAN PERINDUSTRIAN BAKAR ARANG","lat":"5.615578","lon":"100.480869"},{"id":"7279","name":"SANSHIN","lat":"5.615556","lon":"100.490256"},{"id":"7280","name":"TAMAN SRI WANG","lat":"5.618242","lon":"100.498619"},{"id":"7281","name":"SK SRI WANG","lat":"5.619728","lon":"100.499931"},{"id":"7282","name":"TAMAN KELADI","lat":"5.618767","lon":"100.504278"},{"id":"7283","name":"MASJID TAMAN KELADI","lat":"5.615825","lon":"100.504592"},{"id":"7284","name":"TAMAN KELADI 2","lat":"5.615461","lon":"100.509503"},{"id":"7285","name":"SJK(T) TAMAN KELADI","lat":"5.615433","lon":"100.5119"},{"id":"7286","name":"SIN MIN SECONDARY SCHOOL","lat":"5.610556","lon":"100.510936"},{"id":"7287","name":"LEBUH PERDANA 1","lat":"5.605619","lon":"100.515656"},{"id":"7288","name":"LEBUH PERDANA 2","lat":"5.608586","lon":"100.525425"},{"id":"7289","name":"SIMPANG BINTANG MAYA","lat":"5.610836","lon":"100.526169"},{"id":"7290","name":"SIMPANG KUALA 2","lat":"6.096933","lon":"100.363689"},{"id":"7291","name":"SMK TEKNIK ALOR SETAR","lat":"6.093081","lon":"100.363461"},{"id":"7292","name":"HENTIAN KOMPLEKS WANTAS","lat":"6.088339","lon":"100.363175"},{"id":"7293","name":"LEBUHRAYA SELATAN","lat":"6.082653","lon":"100.362878"},{"id":"7294","name":"SK DATO WAN MOHAMAD SAMAN","lat":"6.074375","lon":"100.363758"},{"id":"7295","name":"TANDOP","lat":"6.063656","lon":"100.367672"},{"id":"7296","name":"TAMAN DESA KAMILAH","lat":"6.055047","lon":"100.370822"},{"id":"7297","name":"TAMAN BERSATU","lat":"6.043003","lon":"100.375122"},{"id":"7298","name":"TAMAN SIMPANG EMPAT","lat":"6.035347","lon":"100.377892"},{"id":"7299","name":"KG KEPALA PARIT DALAM","lat":"6.026386","lon":"100.387411"},{"id":"7300","name":"TAMAN MERPATI","lat":"6.027894","lon":"100.394733"},{"id":"7301","name":"SMK TOKAI","lat":"6.02735","lon":"100.403636"},{"id":"7302","name":"KLINIK DESA TOKAI","lat":"6.027319","lon":"100.412933"},{"id":"7303","name":"PEJABAT PENDIDIKAN DAERAH PENDANG","lat":"6.028169","lon":"100.428047"},{"id":"7304","name":"SIMPANG JELAI","lat":"6.029014","lon":"100.441167"},{"id":"7305","name":"SK KAMPUNG RAMBAI","lat":"6.029722","lon":"100.452508"},{"id":"7306","name":"MASJID HASANI KAMPUNG RAMBAI","lat":"6.029967","lon":"100.457164"},{"id":"7307","name":"KG ALOR BUNGA SENA","lat":"6.030614","lon":"100.469294"},{"id":"7308","name":"TANAH MERAH","lat":"6.028381","lon":"100.481142"},{"id":"7309","name":"KG BANGGOL BESI","lat":"6.019264","lon":"100.482531"},{"id":"7310","name":"SK TANAH MERAH","lat":"6.018186","lon":"100.482497"},{"id":"7311","name":"SMK TANAH MERAH","lat":"6.014575","lon":"100.482397"},{"id":"7312","name":"TAMAN AMAN SEJAHTERA","lat":"6.004528","lon":"100.481356"},{"id":"7313","name":"DARSVILLE PARK","lat":"5.998508","lon":"100.480453"},{"id":"7314","name":"SMA ISLAH","lat":"5.994072","lon":"100.479194"},{"id":"7315","name":"RUMAH TUN MAHATHIR","lat":"6.113686","lon":"100.362992"},{"id":"7316","name":"SK SUNGAI KOROK LAMA","lat":"6.108678","lon":"100.361728"},{"id":"7317","name":"SK JALAN PEGAWAI","lat":"6.103319","lon":"100.361406"},{"id":"7318","name":"MAKTAB MAHMUD","lat":"6.102567","lon":"100.361322"},{"id":"7319","name":"MAKTAB MAHMUD 2","lat":"6.098703","lon":"100.360628"},{"id":"7320","name":"AGROBAZAAR JLN GUNUNG PERAK","lat":"6.095036","lon":"100.354706"},{"id":"7321","name":"BHP TAMAN GUNUNG PERAK","lat":"6.090853","lon":"100.356064"},{"id":"7322","name":"SK HAJI HASSAN ITAM","lat":"6.021608","lon":"100.382839"},{"id":"7323","name":"SMA IHYA UL ULUM AD DINIAH","lat":"6.018197","lon":"100.384061"},{"id":"7324","name":"MASJID AT TAQWA","lat":"6.011483","lon":"100.386422"},{"id":"7325","name":"SK BULUH LIMA","lat":"5.988111","lon":"100.394778"},{"id":"7326","name":"PUSAT PERNIAGAAN KOTA JAYA / KOTA SARANG SEMUT","lat":"5.975483","lon":"100.399383"},{"id":"7327","name":"SJK(C) MIN SIN","lat":"5.974022","lon":"100.402514"},{"id":"7328","name":"JALAN PENDANG TANAH MERAH","lat":"5.972792","lon":"100.410403"},{"id":"7329","name":"SK BUKIT CHORAS","lat":"5.970589","lon":"100.419819"},{"id":"7330","name":"PEKAN KOBAH","lat":"5.970194","lon":"100.435958"},{"id":"7331","name":"SIMPANG KTM KOBAH","lat":"5.971389","lon":"100.441475"},{"id":"7332","name":"CALTEX PENDANG","lat":"5.9779","lon":"100.450575"},{"id":"7333","name":"SIMPANG BUKIT RAYA","lat":"5.980253","lon":"100.454614"},{"id":"7334","name":"TAMAN GEMILANG 2","lat":"5.985969","lon":"100.464947"},{"id":"7335","name":"JABATAN PENDAFTARAN NEGARA  PENDANG","lat":"5.988669","lon":"100.469892"},{"id":"7336","name":"SMK PENDANG","lat":"5.9906","lon":"100.473411"},{"id":"7337","name":"SJK(C) YENG CHENG","lat":"5.991325","lon":"100.474747"},{"id":"7338","name":"PERHENTIAN BAS KOTA SARANG SEMUT","lat":"5.97285","lon":"100.400378"},{"id":"7339","name":"TAMAN MADU LEBAH / SK BUKIT BESAR","lat":"5.953761","lon":"100.407631"},{"id":"7340","name":"SMA NAHDZAH","lat":"5.951881","lon":"100.408356"},{"id":"7341","name":"KG TUALANG","lat":"5.945167","lon":"100.410842"},{"id":"7342","name":"SIMPANG TIGA SG DAUN","lat":"5.934819","lon":"100.414811"},{"id":"7343","name":"SK SIMPANG TIGA SG DAUN","lat":"5.929253","lon":"100.418117"},{"id":"7344","name":"KLINIK DESA SIMPANG TIGA","lat":"5.916642","lon":"100.425783"},{"id":"7345","name":"PONDOK POLIS SG LIMA LUAR","lat":"5.913361","lon":"100.427772"},{"id":"7346","name":"SK PADANG LUMAT","lat":"5.906864","lon":"100.431692"},{"id":"7347","name":"MASJID UBUDIAH","lat":"5.905064","lon":"100.432761"},{"id":"7348","name":"SMA TAUFIKIAH KHAIRIYAH AL HALIMIAH","lat":"5.899736","lon":"100.435989"},{"id":"7349","name":"SJK(C) PEI HWA","lat":"5.884708","lon":"100.444647"},{"id":"7350","name":"TAMAN CEMPEDAK INDAH","lat":"5.8759","lon":"100.449581"},{"id":"7351","name":"SMK GUAR CEMPEDAK","lat":"5.866044","lon":"100.454233"},{"id":"7352","name":"SMK GUAR CHEMPEDAK 2","lat":"5.862878","lon":"100.455317"},{"id":"7353","name":"SK GUAR CHEMPEDAK","lat":"5.859539","lon":"100.456639"},{"id":"7354","name":"HOSPITAL ALOR SETAR 1","lat":"6.142819","lon":"100.370392"},{"id":"7355","name":"BALAI POLIS GUAR CHEMPEDAK / PEKAN GUAR CHEMPEDAK","lat":"5.857611","lon":"100.457494"},{"id":"7356","name":"KLINIK KESIHATAN GUAR CHEMPEDAK","lat":"5.853486","lon":"100.459542"},{"id":"7357","name":"BOMBA GUAR CEMPEDAK","lat":"5.852153","lon":"100.460319"},{"id":"7358","name":"GUNUNG JERAI","lat":"5.843578","lon":"100.466836"},{"id":"7359","name":"JERAI BESTARI","lat":"5.833525","lon":"100.473233"},{"id":"7360","name":"MASJID GURUN","lat":"5.826406","lon":"100.475497"},{"id":"7361","name":"SK GURUN PUSAT","lat":"5.822","lon":"100.476786"},{"id":"7362","name":"KLINIK KOMINITI GURUN","lat":"5.819661","lon":"100.477503"},{"id":"7363","name":"PEKAN GURUN","lat":"5.817483","lon":"100.477736"},{"id":"7364","name":"TAMAN SURIA GURUN","lat":"5.811344","lon":"100.478267"},{"id":"7365","name":"KG BARU GURUN","lat":"5.808103","lon":"100.478675"},{"id":"7366","name":"SK SRI JERAI","lat":"5.804614","lon":"100.479194"},{"id":"7367","name":"SMK GURUN","lat":"5.801864","lon":"100.4796"},{"id":"7368","name":"SMA PEKAN GURUN","lat":"5.798108","lon":"100.480158"},{"id":"7369","name":"KOMPLEKS SUKAN 1","lat":"6.137972","lon":"100.370094"},{"id":"7370","name":"TAMAN GURUN HARMONI","lat":"5.793758","lon":"100.481008"},{"id":"7371","name":"TAMAN MURNI","lat":"5.791064","lon":"100.481569"},{"id":"7372","name":"TAMAN LEMBAH JERAI","lat":"5.787333","lon":"100.483244"},{"id":"7373","name":"PERUMAHAN PERWAJA","lat":"5.773292","lon":"100.497703"},{"id":"7374","name":"THE CLOVE MONT RESORT","lat":"5.762228","lon":"100.499708"},{"id":"7375","name":"SJK(T) TOH PAWANG","lat":"5.752431","lon":"100.504206"},{"id":"7376","name":"SG TOK PAWANG","lat":"5.756728","lon":"100.502075"},{"id":"7377","name":"PEKAN BIDONG / TAMAN SELESA","lat":"5.743728","lon":"100.507169"},{"id":"7378","name":"PEKAN BEDONG","lat":"5.728736","lon":"100.513028"},{"id":"7379","name":"SK SERI AMAN","lat":"5.727242","lon":"100.513675"},{"id":"7380","name":"PERMAIPURA","lat":"5.722686","lon":"100.515536"},{"id":"7381","name":"TAMAN DESA BUDIMAN","lat":"5.715919","lon":"100.518081"},{"id":"7382","name":"PETRON SG LALANG","lat":"5.709058","lon":"100.520772"},{"id":"7383","name":"PEKAN SG LALANG","lat":"5.702031","lon":"100.519853"},{"id":"7384","name":"PEKAN SG LALANG 2","lat":"5.699378","lon":"100.517483"},{"id":"7385","name":"MASJID AL-MAKMUR SG LALANG","lat":"5.695981","lon":"100.514761"},{"id":"7386","name":"BUKIT MAKMUR","lat":"5.691522","lon":"100.511414"},{"id":"7387","name":"SUNGAI TUKANG","lat":"5.685733","lon":"100.509567"},{"id":"7388","name":"C MART SG PETANI","lat":"5.678158","lon":"100.5081"},{"id":"7389","name":"TAMAN RIA","lat":"5.667967","lon":"100.505853"},{"id":"7390","name":"LOTUS SG PETANI","lat":"5.660844","lon":"100.502544"},{"id":"7391","name":"SM SAINS SULTAN MUHAMMAD JIWA","lat":"5.655139","lon":"100.500831"},{"id":"7392","name":"PENJARA SG PETANI","lat":"5.647142","lon":"100.496386"},{"id":"7393","name":"PEJABAT DAERAH SG PETANI","lat":"5.643908","lon":"100.489081"},{"id":"7394","name":"KTM SUNGAI PETANI","lat":"5.642683","lon":"100.490603"},{"id":"7395","name":"UTC SUNGAI PETANI","lat":"5.640358","lon":"100.490714"},{"id":"7396","name":"JALAN SEKERAT","lat":"5.640358","lon":"100.490714"},{"id":"7397","name":"KK BEDONG / SKJ(T) BEDONG","lat":"5.722342","lon":"100.506514"},{"id":"7398","name":"TAMAN SEMELING INDAH","lat":"5.724908","lon":"100.495472"},{"id":"7399","name":"AIMST UNIVERSITY","lat":"5.721736","lon":"100.486711"},{"id":"7400","name":"TAMAN TASEK INDAH","lat":"5.713806","lon":"100.478292"},{"id":"7401","name":"TAMAN SEMELING MAJU","lat":"5.710028","lon":"100.475528"},{"id":"7402","name":"SK SEMELING","lat":"5.706211","lon":"100.470897"},{"id":"7403","name":"UITM PINTU UTAMA","lat":"5.714022","lon":"100.450908"},{"id":"7404","name":"PPU TNB UITM 1","lat":"5.715172","lon":"100.448472"},{"id":"7405","name":"SM PENDIDIKAN KHAS VOKASIONAL","lat":"5.711981","lon":"100.445664"},{"id":"7406","name":"PERMATA LEMBAH BUJANG","lat":"5.707039","lon":"100.440622"},{"id":"7407","name":"MRSM MERBOK","lat":"5.703036","lon":"100.436822"},{"id":"7408","name":"LEMBAH BUJANG UTAMA","lat":"5.697853","lon":"100.434467"},{"id":"7409","name":"MASJID AT MUTAAQIN","lat":"5.690969","lon":"100.435106"},{"id":"7410","name":"SK SULTAN MUZAFFAR","lat":"5.687856","lon":"100.435725"},{"id":"7411","name":"PONDOK AR RAHMAH","lat":"5.684536","lon":"100.436044"},{"id":"7412","name":"SIMPANG SEGANTANG GARAM","lat":"5.674558","lon":"100.431939"},{"id":"7413","name":"MASJID AT TAHIR","lat":"5.672667","lon":"100.426903"},{"id":"7414","name":"KLINIK DESA BAN MERBOK","lat":"5.681147","lon":"100.41675"},{"id":"7415","name":"MASJID PENGKALAN KAKAP","lat":"5.707606","lon":"100.394417"},{"id":"7416","name":"MASJID JAMEK AL ABIDI","lat":"5.713028","lon":"100.394767"},{"id":"7417","name":"SIMPANG TIGA PASIR","lat":"5.719039","lon":"100.394711"},{"id":"7418","name":"SMK SERI BADONG","lat":"5.726714","lon":"100.387575"},{"id":"7419","name":"DESA HARMONI / KLINIK DESA SINGKIR","lat":"5.731989","lon":"100.379942"},{"id":"7420","name":"MASJID UL ULA","lat":"5.731219","lon":"100.374889"},{"id":"7421","name":"SK SINGKIR","lat":"5.730658","lon":"100.373572"},{"id":"7422","name":"BALAI POLIS SINGKIR","lat":"5.727167","lon":"100.368431"},{"id":"7423","name":"SIMPANG TIGA SG PIAL","lat":"5.709653","lon":"100.356814"},{"id":"7424","name":"PANTAI RHU","lat":"5.687564","lon":"100.358422"},{"id":"7425","name":"SJK(C) CHOONG CHENG","lat":"5.681836","lon":"100.363486"},{"id":"7426","name":"FAMA SG PETANI","lat":"5.619167","lon":"100.473639"},{"id":"7427","name":"SG PASIR","lat":"5.598047","lon":"100.471683"},{"id":"7428","name":"TAMAN RHU","lat":"5.582269","lon":"100.462156"},{"id":"7429","name":"SJK(C) PENG MIN","lat":"5.587839","lon":"100.443711"},{"id":"7430","name":"BALAI POLIS TIKAM BATU","lat":"5.586783","lon":"100.440719"},{"id":"7431","name":"SK TIKAM BATU","lat":"5.585731","lon":"100.437486"},{"id":"7432","name":"KG PADANG","lat":"5.583983","lon":"100.431619"},{"id":"7433","name":"KG PERMATANG MERBAU","lat":"5.582747","lon":"100.428106"},{"id":"7434","name":"KG PERMATANG MERBAU 2","lat":"5.578292","lon":"100.421172"},{"id":"7435","name":"KG SUNGAI KOROK","lat":"5.576711","lon":"100.418753"},{"id":"7436","name":"KG PERMATANG PASIR","lat":"5.574178","lon":"100.415058"},{"id":"7437","name":"KG PADANG LIMAU","lat":"5.576206","lon":"100.408258"},{"id":"7438","name":"KG RANTAU PANJANG","lat":"5.578375","lon":"100.403367"},{"id":"7439","name":"SK RANTAU PANJANG","lat":"5.579247","lon":"100.401119"},{"id":"7440","name":"KG RANTAU PANJANG 2","lat":"5.581306","lon":"100.395194"},{"id":"7441","name":"MASJID AL MUQARRABIN","lat":"5.583969","lon":"100.387858"},{"id":"7442","name":"KG SEBERANG TERUS","lat":"5.585778","lon":"100.377222"},{"id":"7443","name":"SK KOTA KUALA MUDA","lat":"5.587086","lon":"100.373422"},{"id":"7444","name":"SMK KOTA KUALA MUDA","lat":"5.590967","lon":"100.372522"},{"id":"7445","name":"SINTOK BUGIS","lat":"5.602286","lon":"100.368564"},{"id":"7446","name":"MAKTAB MAHMUD KUALA MUDA","lat":"5.606256","lon":"100.362442"},{"id":"7447","name":"SMAIDA","lat":"5.609961","lon":"100.362033"},{"id":"7448","name":"KLINIK DESA BUKIT MERIAM","lat":"5.611983","lon":"100.361592"},{"id":"7449","name":"SK BUKIT MERIAM","lat":"5.612383","lon":"100.358736"},{"id":"7450","name":"KG BUKIT MERIAM","lat":"5.619153","lon":"100.358131"},{"id":"7451","name":"KILANG BERAS KUALA MUDA","lat":"5.632419","lon":"100.360125"},{"id":"7452","name":"SK BUKIT KECHIL","lat":"5.650767","lon":"100.3569"},{"id":"7453","name":"KG TELUK NIPAH","lat":"5.6575","lon":"100.360486"},{"id":"7454","name":"KG PANTAI MERDEKA","lat":"5.662142","lon":"100.367781"},{"id":"7455","name":"SMK AMAN JAYA","lat":"5.699989","lon":"100.520036"},{"id":"7456","name":"TAMAN GEMILANG","lat":"5.700328","lon":"100.525908"},{"id":"7457","name":"TAMAN SUNGAI LALANG","lat":"5.701092","lon":"100.530797"},{"id":"7458","name":"JALAN TAMAN BANDAR BARU","lat":"5.703325","lon":"100.534172"},{"id":"7459","name":"JALAN TAMAN BANDAR BARU 2","lat":"5.707133","lon":"100.534758"},{"id":"7460","name":"JALAN TAMAN BANDAR BARU / LORONG JATI 55C","lat":"5.710767","lon":"100.534814"},{"id":"7461","name":"JALAN TAMAN BANDAR BARU / LORONG JATI 61C","lat":"5.712419","lon":"100.534836"},{"id":"7462","name":"HOSPITAL SULTAN ABDUL HALIM","lat":"5.668092","lon":"100.516339"},{"id":"7463","name":"LHDN SUNGAI PETANI","lat":"5.6678","lon":"100.520586"},{"id":"7464","name":"TAMAN ANGGERIK","lat":"5.650797","lon":"100.538294"},{"id":"7465","name":"TAMAN AMANJAYA","lat":"5.639108","lon":"100.545617"},{"id":"7466","name":"PONDOK POLIS TAMAN KELISA RIA","lat":"5.637106","lon":"100.555581"},{"id":"7467","name":"TAMAN KELISA RIA A","lat":"5.637464","lon":"100.559072"},{"id":"7468","name":"IKM SUNGAI PETANI","lat":"5.652439","lon":"100.501344"},{"id":"7469","name":"TAMAN RIA INDAH","lat":"5.652069","lon":"100.508319"},{"id":"7470","name":"TAMAN RIA JAYA 1","lat":"5.649089","lon":"100.513233"},{"id":"7471","name":"TAMAN RIA JAYA 2","lat":"5.646908","lon":"100.51385"},{"id":"7472","name":"PASAR FLAT PAYA NAHU","lat":"5.644683","lon":"100.513625"},{"id":"7473","name":"FLAT PAYA NAHU","lat":"5.642122","lon":"100.515481"},{"id":"7474","name":"TAMAN RIA JAYA 3","lat":"5.646436","lon":"100.518294"},{"id":"7475","name":"MASJID SULTAN ABDUL HALIM SUNGAI PETANI","lat":"5.650753","lon":"100.518533"},{"id":"7476","name":"TAMAN RIA JAYA 4","lat":"5.650719","lon":"100.52075"},{"id":"7477","name":"SMK TAMAN RIA JAYA 1","lat":"5.650689","lon":"100.523333"},{"id":"7478","name":"SMK TAMAN RIA JAYA 2","lat":"5.650703","lon":"100.525047"},{"id":"7479","name":"KAWASAN PERINDUSTRIAN TAMAN RIA JAYA 1","lat":"5.648439","lon":"100.53145"},{"id":"7480","name":"KAWASAN PERINDUSTRIAN TAMAN RIA JAYA 2","lat":"5.646439","lon":"100.536072"},{"id":"7481","name":"TAMAN YAKIN / TAMAN DARUL AMAN","lat":"6.128511","lon":"100.373328"},{"id":"7482","name":"STAR VILLAGE","lat":"6.129833","lon":"100.359928"},{"id":"7483","name":"SIMPANG EMPAT","lat":"6.024306","lon":"100.381889"},{"id":"7484","name":"TAMAN UTAMA","lat":"6.137658","lon":"100.362453"},{"id":"7485","name":"TAMAN DELIMA / DESA BAIDURI","lat":"6.133097","lon":"100.360408"},{"id":"7486","name":"STADIUM DARUL AMAN KEDAH","lat":"6.136389","lon":"100.369689"},{"id":"7487","name":"STADIUM DARUL AMAN KEDAH 2","lat":"6.134444","lon":"100.369078"},{"id":"7488","name":"BAKAR BATA ALOR SETAR","lat":"6.131519","lon":"100.368314"},{"id":"7489","name":"WISMA KANCUT ALOR SETAR","lat":"6.128478","lon":"100.367597"},{"id":"7490","name":"SMK JITRA JITRA","lat":"6.260561","lon":"100.419967"},{"id":"7491","name":"SK JITRA KEDAH","lat":"6.261928","lon":"100.419978"},{"id":"7492","name":"PEKAN JITRA KEDAH","lat":"6.263481","lon":"100.419983"}]