[{"stop_id":"2000556","stop_name":"(M) BALOK MAKMUR","stop_desc":"JLN BALOK PERDANA","stop_lat":"3.9648293690809","stop_lon":"103.38295154249"},{"stop_id":"2000956","stop_name":"SIMPANG CARGILL","stop_desc":"JLN PERINDUSTRIAN GEBENG","stop_lat":"3.9763157664811","stop_lon":"103.39290642855"},{"stop_id":"2000911","stop_name":"KAWASAN PERINDUSTRIAN GEBENG","stop_desc":"JLN KUANTAN-KEMAMAN","stop_lat":"4.0151522094961","stop_lon":"103.4043484775"},{"stop_id":"2000913","stop_name":"SURAU AT TAUFIK","stop_desc":"JLN KUANTAN-KEMAMAN","stop_lat":"4.03920607336","stop_lon":"103.39444062451"},{"stop_id":"2000914","stop_name":"SK SG ULAR","stop_desc":"JLN KUANTAN-KEMAMAN","stop_lat":"4.0411941135053","stop_lon":"103.39368926074"},{"stop_id":"2000952","stop_name":"MASJID BARU SG ULAR","stop_desc":"JLN KUANTAN-KEMAMAN","stop_lat":"4.0439153726767","stop_lon":"103.39329666701"},{"stop_id":"2000916","stop_name":"SENCTUARY RESORT","stop_desc":"JLN KUANTAN-KEMAMAN","stop_lat":"4.0522182510402","stop_lon":"103.39385665264"},{"stop_id":"2000949","stop_name":"PERKAMPUNGAN SG ULAR AMAN","stop_desc":"JLN KUANTAN-KEMAMAN","stop_lat":"4.0628545117113","stop_lon":"103.38999020302"},{"stop_id":"2000919","stop_name":"TAMAN AGROTEKNOLOGI MARDI","stop_desc":"JLN KUANTAN-KEMAMAN","stop_lat":"4.0775426628989","stop_lon":"103.38640371094"},{"stop_id":"2000920","stop_name":"(M) PERUMAHAN KAKITANGAN MARDI","stop_desc":"JLN KUANTAN-KEMAMAN","stop_lat":"4.080335102871","stop_lon":"103.38544351653"},{"stop_id":"2000921","stop_name":"BIZ CLUB","stop_desc":"JLN KUANTAN-KEMAMAN","stop_lat":"4.0980161221718","stop_lon":"103.38167961679"},{"stop_id":"2000923","stop_name":"LEGEND RESORT","stop_desc":"JLN KUANTAN-KEMAMAN","stop_lat":"4.1012438744106","stop_lon":"103.38133989903"},{"stop_id":"2000924","stop_name":"KLINIK DESA CHERATING","stop_desc":"JLN KUANTAN-KEMAMAN","stop_lat":"4.1043544292716","stop_lon":"103.38118053195"},{"stop_id":"2000925","stop_name":"TAMAN ARMANI CHERATING","stop_desc":"JLN KUANTAN-KEMAMAN","stop_lat":"4.1071487089291","stop_lon":"103.38113887647"},{"stop_id":"2000926","stop_name":"S.K CHERATING","stop_desc":"JLN KUANTAN-KEMAMAN","stop_lat":"4.1104404748522","stop_lon":"103.38115025035"},{"stop_id":"2000928","stop_name":"LAGOONA VILLA","stop_desc":"JLN KUANTAN-KEMAMAN","stop_lat":"4.121573530473","stop_lon":"103.38155105548"},{"stop_id":"2000929","stop_name":"PANTAI CHERATING","stop_desc":"JLN KUANTAN-KEMAMAN","stop_lat":"4.1317863961167","stop_lon":"103.40084925303"},{"stop_id":"2000939","stop_name":"CLUB MED","stop_desc":"JLN KUANTAN-KEMAMAN","stop_lat":"4.140098732345","stop_lon":"103.40159814562"},{"stop_id":"2000931","stop_name":"KG KUBANG IKAN","stop_desc":"JLN KUANTAN-KEMAMAN","stop_lat":"4.1449820391856","stop_lon":"103.40155231518"},{"stop_id":"2000932","stop_name":"TAMAN BIMBINGAN KG KUBANG IKAN","stop_desc":"JLN KUANTAN-KEMAMAN","stop_lat":"4.1483454328081","stop_lon":"103.40119429447"},{"stop_id":"2000933","stop_name":"IMPIANA RESORT","stop_desc":"JLN KUANTAN-KEMAMAN","stop_lat":"4.1595152706871","stop_lon":"103.40184731437"},{"stop_id":"2000934","stop_name":"(M) BANDAR BARU CHENDOR","stop_desc":"JLN KUANTAN-KEMAMAN","stop_lat":"4.162084389814","stop_lon":"103.40224744334"},{"stop_id":"2000935","stop_name":"BANDAR BARU CHENDOR","stop_desc":"JLN KUANTAN-KEMAMAN","stop_lat":"4.162102732702","stop_lon":"103.40237350244"},{"stop_id":"2000937","stop_name":"TAMAN BIMBINGAN KG KUBANG IKAN","stop_desc":"JLN KEMAMAN-KUANTAN","stop_lat":"4.1483637019838","stop_lon":"103.40128432475"},{"stop_id":"2000938","stop_name":"KG KUBANG IKAN","stop_desc":"JLN KEMAMAN-KUANTAN","stop_lat":"4.1450272009387","stop_lon":"103.40152520446"},{"stop_id":"2000930","stop_name":"CLUB MED","stop_desc":"JLN KEMAMAN-KUANTAN","stop_lat":"4.1400988416548","stop_lon":"103.40165218506"},{"stop_id":"2000940","stop_name":"PANTAI CHERATING","stop_desc":"JLN KEMAMAN-KUANTAN","stop_lat":"4.1318406195052","stop_lon":"103.40083113137"},{"stop_id":"2000941","stop_name":"LAGOONA VILLA","stop_desc":"JLN KEMAMAN-KUANTAN","stop_lat":"4.1215644321674","stop_lon":"103.38152405495"},{"stop_id":"2000942","stop_name":"(M) SK CHERATING","stop_desc":"JLN KEMAMAN-KUANTAN","stop_lat":"4.1104494814245","stop_lon":"103.3811322198"},{"stop_id":"2000943","stop_name":"TAMAN ARMANI CHERATING","stop_desc":"JLN KEMAMAN-KUANTAN","stop_lat":"4.1071938700761","stop_lon":"103.38111176698"},{"stop_id":"2000944","stop_name":"KLINIK DESA CHERATING","stop_desc":"JLN KEMAMAN-KUANTAN","stop_lat":"4.1043092132039","stop_lon":"103.38118062303"},{"stop_id":"2000945","stop_name":"LEGEND RESORT","stop_desc":"JLN KEMAMAN-KUANTAN","stop_lat":"4.1014520511241","stop_lon":"103.38142954087"},{"stop_id":"2000946","stop_name":"BIZ CLUB","stop_desc":"JLN KEMAMAN-KUANTAN","stop_lat":"4.0982422208605","stop_lon":"103.38168816821"},{"stop_id":"2000948","stop_name":"TAMAN AGROTEKNOLOGI MARDI","stop_desc":"JLN KEMAMAN-KUANTAN","stop_lat":"4.0784829970869","stop_lon":"103.3863207823"},{"stop_id":"2000918","stop_name":"PERKAMPUNGAN SG ULAR AMAN","stop_desc":"JLN KEMAMAN-KUANTAN","stop_lat":"4.062836533239","stop_lon":"103.39004427283"},{"stop_id":"2000951","stop_name":"SENCTUARY RESORT","stop_desc":"JLN KEMAMAN-KUANTAN","stop_lat":"4.0523904676054","stop_lon":"103.39405443589"},{"stop_id":"2000915","stop_name":"MASJID BARU SG ULAR","stop_desc":"JLN KEMAMAN-KUANTAN","stop_lat":"4.0441328407456","stop_lon":"103.39351237063"},{"stop_id":"2000953","stop_name":"SK SG ULAR","stop_desc":"JLN KEMAMAN-KUANTAN","stop_lat":"4.0413929585053","stop_lon":"103.39363483657"},{"stop_id":"2000954","stop_name":"SURAU AT TAUFIK","stop_desc":"JLN KEMAMAN-KUANTAN","stop_lat":"4.0390978395699","stop_lon":"103.3945849245"},{"stop_id":"2000955","stop_name":"KAWASAN PERINDUSTRIAN GEBENG","stop_desc":"JLN KEMAMAN-KUANTAN","stop_lat":"4.0154049642391","stop_lon":"103.40411385055"},{"stop_id":"2000910","stop_name":"SIMPANG CARGILL","stop_desc":"JLN PERINDUSTRIAN GEBENG","stop_lat":"3.9763073741053","stop_lon":"103.39323962076"},{"stop_id":"2000325","stop_name":"(M) HENTIAN BANDAR","stop_desc":"JLN PASAR","stop_lat":"3.8122256488901","stop_lon":"103.32277938627"},{"stop_id":"2000395","stop_name":"PADANG BESAR MBK","stop_desc":"JLN BUKIT UBI","stop_lat":"3.805713","stop_lon":"103.326032"},{"stop_id":"2000133","stop_name":"MASJID NEGERI PAHANG","stop_desc":"JLN MAHKOTA","stop_lat":"3.806458","stop_lon":"103.327646"},{"stop_id":"2000198","stop_name":"UOB BANK","stop_desc":"JLN BESAR","stop_lat":"3.8072837119611","stop_lon":"103.32978402323"},{"stop_id":"2000470","stop_name":"MENARA KUANTAN 188","stop_desc":"JLN BESAR","stop_lat":"3.8035149065029","stop_lon":"103.32624424933"},{"stop_id":"2000329","stop_name":"HOSPITAL TENGKU AMPUAN AFZAN","stop_desc":"JLN TANAH PUTIH","stop_lat":"3.800603","stop_lon":"103.323625"},{"stop_id":"2000252","stop_name":"(M) MAJLIS BANDARAYA KUANTAN","stop_desc":"JLN TANAH PUTIH","stop_lat":"3.798661","stop_lon":"103.321761"},{"stop_id":"2000324","stop_name":"LHDN KUANTAN","stop_desc":"JLN TANAH PUTIH","stop_lat":"3.795984","stop_lon":"103.317042"},{"stop_id":"2000416","stop_name":"SJKC CHUNG CHING","stop_desc":"JLN TANAH PUTIH","stop_lat":"3.7938580654174","stop_lon":"103.31292117399"},{"stop_id":"2000475","stop_name":"(M) PASARAYA GIANT","stop_desc":"JLN TANAH PUTIH","stop_lat":"3.7924412965752","stop_lon":"103.30982708458"},{"stop_id":"2000460","stop_name":"TANAH PUTIH BARU","stop_desc":"JLN TANAH PUTIH","stop_lat":"3.7888798954459","stop_lon":"103.30139877901"},{"stop_id":"2000431","stop_name":"SHELL TAMAN KURNIA","stop_desc":"JLN TANAH PUTIH","stop_lat":"3.7841361211925","stop_lon":"103.28956103335"},{"stop_id":"2000165","stop_name":"BATU 3","stop_desc":"JLN TANAH PUTIH","stop_lat":"3.7824637448732","stop_lon":"103.28527925696"},{"stop_id":"2000274","stop_name":"TAMAN BELUKAR MAJU","stop_desc":"JLN GAMBANG","stop_lat":"3.780861","stop_lon":"103.281383"},{"stop_id":"2000199","stop_name":"PERKAMPUNGAN RAZALI","stop_desc":"JLN GAMBANG","stop_lat":"3.779545","stop_lon":"103.278044"},{"stop_id":"2000050","stop_name":"MENARA TM","stop_desc":"JLN PERMATANG BADAK","stop_lat":"3.7806647555755","stop_lon":"103.27192358738"},{"stop_id":"2000488","stop_name":"PONDOK POLIS P/BADAK","stop_desc":"JLN PERMATANG BADAK","stop_lat":"3.7850469342442","stop_lon":"103.27013247439"},{"stop_id":"2000137","stop_name":"MASJID LAMA","stop_desc":"JLN PERMATANG BADAK","stop_lat":"3.7882274791993","stop_lon":"103.26887485405"},{"stop_id":"2000502","stop_name":"KLINIK KESIHATAN PERMATANG BADAK","stop_desc":"JLN PERMATANG BADAK","stop_lat":"3.7912275244552","stop_lon":"103.26779762375"},{"stop_id":"2000515","stop_name":"KAMPUNG PERMATANG BADAK","stop_desc":"JLN PERMATANG BADAK","stop_lat":"3.7949039412164","stop_lon":"103.26580980629"},{"stop_id":"2000516","stop_name":"RESTORAN ALI HAJ","stop_desc":"JLN PERMATANG BADAK BARU 2","stop_lat":"3.7991066940373","stop_lon":"103.26474814989"},{"stop_id":"2000512","stop_name":"(M) SMK BUKIT RANGIN","stop_desc":"JLN PERMATANG BADAK BARU 3","stop_lat":"3.8015398154988","stop_lon":"103.26954152386"},{"stop_id":"2000554","stop_name":"TADIKA SERI ANAKKU","stop_desc":"JLN PERMATANG BADAK BARU 3","stop_lat":"3.7998913574147","stop_lon":"103.27271362834"},{"stop_id":"2000511","stop_name":"LOT KEDAI","stop_desc":"JLN SG.ISAP DAMAI 7","stop_lat":"3.7974568801583","stop_lon":"103.27624737762"},{"stop_id":"2000513","stop_name":"TANGKI AIR","stop_desc":"JLN SG. ISAP 5","stop_lat":"3.7934718873904","stop_lon":"103.27769564612"},{"stop_id":"2000509","stop_name":"PADANG BOLA","stop_desc":"JLN SG. ISAP 4","stop_lat":"3.7925353492331","stop_lon":"103.27513185297"},{"stop_id":"2000507","stop_name":"SUNGAI ISAP PERDANA","stop_desc":"JLN SG. ISAP 4","stop_lat":"3.7910353622478","stop_lon":"103.27569296637"},{"stop_id":"2000505","stop_name":"DEWAN SERI MENTIGA","stop_desc":"JLN SG. ISAP 4","stop_lat":"3.7876111634703","stop_lon":"103.27721212155"},{"stop_id":"2000508","stop_name":"SUNGAI ISAP 3","stop_desc":"JLN SG. ISAP 4","stop_lat":"3.7856685591588","stop_lon":"103.27801715936"},{"stop_id":"2000514","stop_name":"PENCAWANG TNB","stop_desc":"JLN SG. ISAP 4","stop_lat":"3.7828494452096","stop_lon":"103.27914800067"},{"stop_id":"2000098","stop_name":"SUNGAI ISAP/TOYOYA","stop_desc":"JLN GAMBANG","stop_lat":"3.781507","stop_lon":"103.282176"},{"stop_id":"2000382","stop_name":"TUNAS MANJA","stop_desc":"JLN GAMBANG","stop_lat":"3.7828805727095","stop_lon":"103.28571054377"},{"stop_id":"2000307","stop_name":"(M) SK BATU 3","stop_desc":"JLN TANAH PUTIH","stop_lat":"3.7840530063368","stop_lon":"103.2886879787"},{"stop_id":"2000116","stop_name":"TANAH PUTIH BARU","stop_desc":"JLN TANAH PUTIH","stop_lat":"3.788051688665","stop_lon":"103.29870869577"},{"stop_id":"2000297","stop_name":"TANAH PUTIH","stop_desc":"JLN TANAH PUTIH","stop_lat":"3.7896590923578","stop_lon":"103.30216245952"},{"stop_id":"2000043","stop_name":"PASARAYA GIANT","stop_desc":"JLN TANAH PUTIH","stop_lat":"3.7934207589975","stop_lon":"103.31126557187"},{"stop_id":"2000236","stop_name":"KEMUNTING","stop_desc":"JLN TANAH PUTIH","stop_lat":"3.796170910043","stop_lon":"103.31643665853"},{"stop_id":"2000154","stop_name":"HOSPITAL TENGKU AMPUAN AFZAN","stop_desc":"JLN TANAH PUTIH","stop_lat":"3.8004608487867","stop_lon":"103.32288317591"},{"stop_id":"2000014","stop_name":"KOMPLEKS TERUNTUM/IPD KUANTAN","stop_desc":"JLN MAHKOTA","stop_lat":"3.803174","stop_lon":"103.324399"},{"stop_id":"2000267","stop_name":"IBU PEJABAT POLIS KONTINJEN PAHANG","stop_desc":"JLN MERDEKA","stop_lat":"3.8097340263436","stop_lon":"103.32959924464"},{"stop_id":"2000012","stop_name":"LKPP","stop_desc":"JLN GAMBUT","stop_lat":"3.8111689940644","stop_lon":"103.32812003164"},{"stop_id":"2000193","stop_name":"UTC KUANTAN","stop_desc":"JLN STADIUM","stop_lat":"3.813708","stop_lon":"103.324358"},{"stop_id":"2000841","stop_name":"(M) RTC","stop_desc":"JLN KUALA PAHANG-TANAH PUTIH","stop_lat":"3.5316060905358","stop_lon":"103.46097898618"},{"stop_id":"2000842","stop_name":"PERKAMPUNGAN NELAYAN","stop_desc":"JLN KUALA PAHANG-TANAH PUTIH","stop_lat":"3.5334186842456","stop_lon":"103.45786182769"},{"stop_id":"2000843","stop_name":"KG. MARHUM","stop_desc":"JLN KUALA PAHANG-TANAH PUTIH","stop_lat":"3.5328993513533","stop_lon":"103.45555856202"},{"stop_id":"2000844","stop_name":"MAKAM DIRAJA KG. MARHUM","stop_desc":"JLN KUALA PAHANG-TANAH PUTIH","stop_lat":"3.5306583193029","stop_lon":"103.45122405169"},{"stop_id":"2000845","stop_name":"SK INDERA SHAHBANDAR","stop_desc":"JLN KUALA PAHANG-TANAH PUTIH","stop_lat":"3.5294142926789","stop_lon":"103.44821097281"},{"stop_id":"2000846","stop_name":"TAMAN MELUR","stop_desc":"JLN KUALA PAHANG-TANAH PUTIH","stop_lat":"3.5320927683648","stop_lon":"103.44375131373"},{"stop_id":"2000901","stop_name":"UNIVERSITI MALAYSIA PAHANG (PEKAN)","stop_desc":"JLN KUALA PAHANG-TANAH PUTIH","stop_lat":"3.5464039764842","stop_lon":"103.43553693512"},{"stop_id":"2000847","stop_name":"SMK INDERA SHAHBANDAR","stop_desc":"JLN KUALA PAHANG-TANAH PUTIH","stop_lat":"3.5499468224128","stop_lon":"103.43421689449"},{"stop_id":"2000848","stop_name":"SIMPANG KAMPUNG SERANDU","stop_desc":"JLN KUALA PAHANG-TANAH PUTIH","stop_lat":"3.5752447796578","stop_lon":"103.42021393914"},{"stop_id":"2000849","stop_name":"KLINIK DESA TANJUNG SELANGOR","stop_desc":"JLN KUALA PAHANG-TANAH PUTIH","stop_lat":"3.586082523769","stop_lon":"103.41187859847"},{"stop_id":"2000850","stop_name":"SEKOLAH KEBANGSAAN SERANDU","stop_desc":"JLN KUALA PAHANG-TANAH PUTIH","stop_lat":"3.5872658675094","stop_lon":"103.41110248555"},{"stop_id":"2000851","stop_name":"KAMPUNG SERANDU","stop_desc":"JLN KUALA PAHANG-TANAH PUTIH","stop_lat":"3.5965255882339","stop_lon":"103.40547891352"},{"stop_id":"2000335","stop_name":"PONDOK POLIS CHEROK PALOH","stop_desc":"JLN CHEROK PALOH","stop_lat":"3.6163969055867","stop_lon":"103.37659603578"},{"stop_id":"2000428","stop_name":"SURAU AL HIJRAH","stop_desc":"JLN CHEROK PALOH","stop_lat":"3.6327168703838","stop_lon":"103.36482051698"},{"stop_id":"2000005","stop_name":"PLKN","stop_desc":"JLN KUANTAN-CHEROK PALOH","stop_lat":"3.6339542066833","stop_lon":"103.36394518538"},{"stop_id":"2000283","stop_name":"KAMPUNG HIJRAH","stop_desc":"JLN PANTAI SEPAT","stop_lat":"3.6379719656403","stop_lon":"103.36038250798"},{"stop_id":"2000446","stop_name":"KLINIK DESA PENOR","stop_desc":"JLN PANTAI SEPAT","stop_lat":"3.6561708745132","stop_lon":"103.3526624537"},{"stop_id":"2000363","stop_name":"PADANG BOLA","stop_desc":"JLN PANTAI SEPAT","stop_lat":"3.6583948993077","stop_lon":"103.35233434731"},{"stop_id":"2000403","stop_name":"MENARA TM","stop_desc":"JLN PANTAI SEPAT","stop_lat":"3.6622004816725","stop_lon":"103.35146326695"},{"stop_id":"2000328","stop_name":"THE SADDLE RESORT","stop_desc":"JLN PANTAI SEPAT","stop_lat":"3.6889330857799","stop_lon":"103.34225060493"},{"stop_id":"2000224","stop_name":"PANTAI SEPAT 2","stop_desc":"JLN PANTAI SEPAT","stop_lat":"3.6936312085501","stop_lon":"103.33994649343"},{"stop_id":"2000189","stop_name":"PANTAI SEPAT 1","stop_desc":"JLN PANTAI SEPAT","stop_lat":"3.6967663627233","stop_lon":"103.33844640154"},{"stop_id":"2000498","stop_name":"MASJID PANTAI SEPAT","stop_desc":"JLN PANTAI SEPAT","stop_lat":"3.700271598566","stop_lon":"103.33658554075"},{"stop_id":"2000301","stop_name":"MABIQ","stop_desc":"JLN PANTAI SEPAT","stop_lat":"3.7059513195152","stop_lon":"103.32735725372"},{"stop_id":"2000349","stop_name":"LRG CEMPAKA 5","stop_desc":"JLN PANTAI SEPAT","stop_lat":"3.7115536160666","stop_lon":"103.32503328985"},{"stop_id":"2000108","stop_name":"KAMPUNG CEMPAKA AMAN","stop_desc":"JLN PANTAI SEPAT","stop_lat":"3.7153134471641","stop_lon":"103.32393699545"},{"stop_id":"2000398","stop_name":"KAMPUNG CEMPAKA","stop_desc":"JLN PANTAI SEPAT","stop_lat":"3.716723560308","stop_lon":"103.32361927342"},{"stop_id":"2000109","stop_name":"(M) LORONG CEMPAKA 2","stop_desc":"JLN PANTAI SEPAT","stop_lat":"3.7202395483102","stop_lon":"103.32269445198"},{"stop_id":"2000299","stop_name":"LRG CEMPAKA 1","stop_desc":"JLN PANTAI SEPAT","stop_lat":"3.723357380584","stop_lon":"103.3216353449"},{"stop_id":"2000207","stop_name":"(M) SMK SUNGAI SOI","stop_desc":"JLN PANTAI SEPAT","stop_lat":"3.7311695783748","stop_lon":"103.31639946459"},{"stop_id":"2000481","stop_name":"SIMPANG KEMPADANG","stop_desc":"JLN PANTAI SEPAT","stop_lat":"3.7338849691388","stop_lon":"103.31769056017"},{"stop_id":"2000550","stop_name":"PUSAT TENUN DI RAJA","stop_desc":"JLN PANTAI SEPAT","stop_lat":"3.7371933401454","stop_lon":"103.3169731087"},{"stop_id":"2000197","stop_name":"GIAT MARA","stop_desc":"JLN PANTAI SEPAT","stop_lat":"3.7427426695818","stop_lon":"103.31536917682"},{"stop_id":"2000278","stop_name":"BERKAT HARDWARE","stop_desc":"JLN PANTAI SEPAT","stop_lat":"3.7461691285186","stop_lon":"103.31493053055"},{"stop_id":"2000811","stop_name":"SURAU TANAH RTK","stop_desc":"JLN TANJUNG LUMPUR","stop_lat":"3.7555505166672","stop_lon":"103.31221193833"},{"stop_id":"2000810","stop_name":"TAMAN DESA PUTRA","stop_desc":"JLN TANJUNG LUMPUR","stop_lat":"3.7560058730093","stop_lon":"103.30920437669"},{"stop_id":"2000809","stop_name":"KEMPADANG DAMAI","stop_desc":"JLN TANJUNG LUMPUR","stop_lat":"3.7556762499993","stop_lon":"103.30710753565"},{"stop_id":"2000808","stop_name":"PERUMAHAN RAKYAT PAK MAHAT","stop_desc":"JLN TANJUNG LUMPUR","stop_lat":"3.7556818423479","stop_lon":"103.30533412458"},{"stop_id":"2000818","stop_name":"KEMPADANG DAMAI","stop_desc":"JLN TANJUNG LUMPUR","stop_lat":"3.7556130018758","stop_lon":"103.30713466365"},{"stop_id":"2000817","stop_name":"TAMAN DESA PUTRA","stop_desc":"JLN TANJUNG LUMPUR","stop_lat":"3.7559425023539","stop_lon":"103.30916849048"},{"stop_id":"2000816","stop_name":"SURAU TANAH RTK","stop_desc":"JLN TANJUNG LUMPUR","stop_lat":"3.7554870936852","stop_lon":"103.31214904578"},{"stop_id":"2000311","stop_name":"KAMPUNG PAK MAHAT","stop_desc":"JLN TANJUNG LUMPUR","stop_lat":"3.7548047450671","stop_lon":"103.31468893654"},{"stop_id":"2000248","stop_name":"KAMPUNG SUNGAI DERHAKA","stop_desc":"JLN TANJUNG LUMPUR","stop_lat":"3.7676126150213","stop_lon":"103.31621270568"},{"stop_id":"2000473","stop_name":"BANDAR PUTRA","stop_desc":"JLN TANJUNG LUMPUR","stop_lat":"3.7737746496162","stop_lon":"103.31813633468"},{"stop_id":"2000034","stop_name":"YAYASAN PAHANG","stop_desc":"JLN TANJUNG LUMPUR","stop_lat":"3.7813605333354","stop_lon":"103.32216378568"},{"stop_id":"2000064","stop_name":"MAAHAD TAHFIZ","stop_desc":"JLN TANJUNG LUMPUR","stop_lat":"3.7826749318466","stop_lon":"103.32379068959"},{"stop_id":"2000237","stop_name":"PERAMU MAJU","stop_desc":"JLN TANJUNG LUMPUR","stop_lat":"3.7863987356589","stop_lon":"103.32745652385"},{"stop_id":"2000456","stop_name":"KAMPUNG PERAMU","stop_desc":"JLN TANJUNG LUMPUR","stop_lat":"3.7887153754448","stop_lon":"103.32828930535"},{"stop_id":"2000153","stop_name":"LOT KEDAI TG. LUMPUR","stop_desc":"JLN TANJUNG LUMPUR","stop_lat":"3.7951388873078","stop_lon":"103.33447072045"},{"stop_id":"2000065","stop_name":"PETRONAS TANJUNG LUMPUR","stop_desc":"JLN TANJUNG LUMPUR","stop_lat":"3.7961807023615","stop_lon":"103.33543200034"},{"stop_id":"2000370","stop_name":"GEDUNG TEN TEN","stop_desc":"JLN TANJUNG LUMPUR","stop_lat":"3.7976756277895","stop_lon":"103.33688755806"},{"stop_id":"2000510","stop_name":"RANGKAIAN DELIMA","stop_desc":"JLN TELUK SISEK","stop_lat":"3.8101716478614","stop_lon":"103.33142594995"},{"stop_id":"2000032","stop_name":"RANGKAIAN DELIMA","stop_desc":"JLN TELUK SISEK","stop_lat":"3.8102163904375","stop_lon":"103.33118279052"},{"stop_id":"2000496","stop_name":"GEDUNG TEN TEN","stop_desc":"JLN TANJUNG LUMPUR","stop_lat":"3.7967974927376","stop_lon":"103.33639409626"},{"stop_id":"2000072","stop_name":"LOT KEDAI TG. LUMPUR","stop_desc":"JLN TANJUNG LUMPUR","stop_lat":"3.7940611784594","stop_lon":"103.33365355244"},{"stop_id":"2000103","stop_name":"FURINDO FUNITURE","stop_desc":"JLN TANJUNG LUMPUR","stop_lat":"3.7934064555476","stop_lon":"103.33178227809"},{"stop_id":"2000096","stop_name":"PEJABAT KEMAS","stop_desc":"JLN TANJUNG LUMPUR","stop_lat":"3.7910150985441","stop_lon":"103.32972528911"},{"stop_id":"2000350","stop_name":"PERAMU BARU","stop_desc":"JLN TANJUNG LUMPUR","stop_lat":"3.7889512966681","stop_lon":"103.32870296637"},{"stop_id":"2000451","stop_name":"PERAMU MAJU","stop_desc":"JLN TANJUNG LUMPUR","stop_lat":"3.7860369967245","stop_lon":"103.32744821577"},{"stop_id":"2000171","stop_name":"MAAHAD TAHFIZ","stop_desc":"JLN TANJUNG LUMPUR","stop_lat":"3.7825664854235","stop_lon":"103.32382690757"},{"stop_id":"2000235","stop_name":"YAYASAN PAHANG","stop_desc":"JLN TANJUNG LUMPUR","stop_lat":"3.7811799001402","stop_lon":"103.32228116384"},{"stop_id":"2000414","stop_name":"BANDAR PUTRA","stop_desc":"JLN TANJUNG LUMPUR","stop_lat":"3.7749333766585","stop_lon":"103.31876426516"},{"stop_id":"2000476","stop_name":"ASTANA VILLAGE","stop_desc":"JLN TANJUNG LUMPUR","stop_lat":"3.7666451025022","stop_lon":"103.31625957683"},{"stop_id":"2000462","stop_name":"KEMPADANG FUTSAL","stop_desc":"JLN TANJUNG LUMPUR","stop_lat":"3.7501297480262","stop_lon":"103.31481492414"},{"stop_id":"2000164","stop_name":"BERKAT HARDWARE","stop_desc":"JLN PANTAI SEPAT","stop_lat":"3.7462417157564","stop_lon":"103.31505641932"},{"stop_id":"2000437","stop_name":"GIAT MARA","stop_desc":"JLN PANTAI SEPAT","stop_lat":"3.7428513417159","stop_lon":"103.31544998661"},{"stop_id":"2000423","stop_name":"LRG CEMPAKA 1","stop_desc":"JLN PANTAI SEPAT","stop_lat":"3.72334854404","stop_lon":"103.32174338291"},{"stop_id":"2000089","stop_name":"LRG CEMPAKA 2","stop_desc":"JLN PANTAI SEPAT","stop_lat":"3.7202216512475","stop_lon":"103.32279350503"},{"stop_id":"2000177","stop_name":"KAMPUNG CEMPAKA","stop_desc":"JLN PANTAI SEPAT","stop_lat":"3.7168231366209","stop_lon":"103.32367309566"},{"stop_id":"2000244","stop_name":"KAMPUNG CEMPAKA AMAN","stop_desc":"JLN PANTAI SEPAT","stop_lat":"3.7154130920231","stop_lon":"103.3240268244"},{"stop_id":"2000162","stop_name":"LRG CEMPAKA 5","stop_desc":"JLN PANTAI SEPAT","stop_lat":"3.7115176493077","stop_lon":"103.32514137764"},{"stop_id":"2000293","stop_name":"MABIQ","stop_desc":"JLN PANTAI SEPAT","stop_lat":"3.7060507077584","stop_lon":"103.32731205887"},{"stop_id":"2000399","stop_name":"MASJID PANTAI SEPAT","stop_desc":"JLN PANTAI SEPAT","stop_lat":"3.7004164237143","stop_lon":"103.33665728343"},{"stop_id":"2000174","stop_name":"PANTAI SEPAT 1","stop_desc":"JLN PANTAI SEPAT","stop_lat":"3.6969020093241","stop_lon":"103.338446149"},{"stop_id":"2000352","stop_name":"PANTAI SEPAT 2","stop_desc":"JLN PANTAI SEPAT","stop_lat":"3.6935048413068","stop_lon":"103.34007275003"},{"stop_id":"2000486","stop_name":"THE SADDLE RESORT","stop_desc":"JLN PANTAI SEPAT","stop_lat":"3.6890506969339","stop_lon":"103.3422773915"},{"stop_id":"2000391","stop_name":"MENARA PENYELAMAT","stop_desc":"JLN PANTAI SEPAT","stop_lat":"3.6872347280416","stop_lon":"103.34318990847"},{"stop_id":"2000286","stop_name":"MENARA TM","stop_desc":"JLN PANTAI SEPAT","stop_lat":"3.6623357967587","stop_lon":"103.35128299349"},{"stop_id":"2000250","stop_name":"PADANG BOLA","stop_desc":"JLN PANTAI SEPAT","stop_lat":"3.6584040088784","stop_lon":"103.3523703357"},{"stop_id":"2000045","stop_name":"KLINIK DESA PENOR","stop_desc":"JLN PANTAI SEPAT","stop_lat":"3.6554023036755","stop_lon":"103.35271786392"},{"stop_id":"2000435","stop_name":"KAMPUNG HIJRAH","stop_desc":"JLN PANTAI SEPAT","stop_lat":"3.6374032116094","stop_lon":"103.36091460017"},{"stop_id":"2000063","stop_name":"PLKN","stop_desc":"JLN KUANTAN-CHEROK PALOH","stop_lat":"3.633909105099","stop_lon":"103.36400827411"},{"stop_id":"2000390","stop_name":"PONDOK POLIS CHEROK PALOH","stop_desc":"JLN CHEROK PALOH","stop_lat":"3.6167581847145","stop_lon":"103.37634336627"},{"stop_id":"2000825","stop_name":"KAMPUNG SERANDU","stop_desc":"JLN KUALA PAHANG-TANAH PUTIH","stop_lat":"3.5967695713124","stop_lon":"103.40537047887"},{"stop_id":"2000826","stop_name":"SEKOLAH KEBANGSAAN SERANDU","stop_desc":"JLN KUALA PAHANG-TANAH PUTIH","stop_lat":"3.5878530170589","stop_lon":"103.41071443602"},{"stop_id":"2000827","stop_name":"MASJID AS-SAKIRIN","stop_desc":"JLN KUALA PAHANG-TANAH PUTIH","stop_lat":"3.5851704510109","stop_lon":"103.41263623956"},{"stop_id":"2000828","stop_name":"SIMPANG KAMPUNG SERANDU","stop_desc":"JLN KUALA PAHANG-TANAH PUTIH","stop_lat":"3.5751003480629","stop_lon":"103.42036719885"},{"stop_id":"2000829","stop_name":"SMK INDERA SHAHBANDAR","stop_desc":"JLN KUALA PAHANG-TANAH PUTIH","stop_lat":"3.5496757450415","stop_lon":"103.43435235932"},{"stop_id":"2000900","stop_name":"UNIVERSITI MALAYSIA PAHANG (PEKAN)","stop_desc":"JLN KUALA PAHANG-TANAH PUTIH","stop_lat":"3.5466030267245","stop_lon":"103.43559060357"},{"stop_id":"2000837","stop_name":"KAMPUNG BERUAS","stop_desc":"JLN KUALA PAHANG-TANAH PUTIH","stop_lat":"3.5326529725022","stop_lon":"103.44345336651"},{"stop_id":"2000838","stop_name":"SK INDERA SHAHBANDAR","stop_desc":"JLN KUALA PAHANG-TANAH PUTIH","stop_lat":"3.5294961830208","stop_lon":"103.44850785051"},{"stop_id":"2000839","stop_name":"KG. MARHUM","stop_desc":"JLN KUALA PAHANG-TANAH PUTIH","stop_lat":"3.5327630803486","stop_lon":"103.4551897679"},{"stop_id":"2000840","stop_name":"PERKAMPUNGAN NELAYAN","stop_desc":"JLN KUALA PAHANG-TANAH PUTIH","stop_lat":"3.5334728712355","stop_lon":"103.45781673576"},{"stop_id":"2000339","stop_name":"(M) INDERA MAHKOTA 1","stop_desc":"JALAN INDERA MAHKOTA 1","stop_lat":"3.8226507540185","stop_lon":"103.30366430394"},{"stop_id":"2000157","stop_name":"MASJID INDERA MAHKOTA","stop_desc":"JLN INDERA MAHKOTA 1","stop_lat":"3.8227878437513","stop_lon":"103.30439325451"},{"stop_id":"2000090","stop_name":"DEWAN SERBAGUNA","stop_desc":"JALAN INDERA MAHKOTA 1","stop_lat":"3.8247197239521","stop_lon":"103.30272395177"},{"stop_id":"2000482","stop_name":"LOT KEDAI IM 2","stop_desc":"JALAN INDERA MAHKOTA 2","stop_lat":"3.8188673874455","stop_lon":"103.30194322427"},{"stop_id":"2000469","stop_name":"TUNAS MANJA","stop_desc":"JALAN INDERA MAHKOTA 2","stop_lat":"3.8161000803474","stop_lon":"103.29730330669"},{"stop_id":"2000315","stop_name":"INDERA MAHKOTA 2","stop_desc":"JALAN INDERA MAHKOTA 2","stop_lat":"3.8145110408629","stop_lon":"103.29402048998"},{"stop_id":"2000077","stop_name":"KAMPUNG TIRAM","stop_desc":"JLN INDERA MAHKOTA 3","stop_lat":"3.8135338381954","stop_lon":"103.289197044"},{"stop_id":"2000145","stop_name":"KOMPLEKS PENYAYANG","stop_desc":"JLN BUKIT SETONGKOL 6","stop_lat":"3.8108902908064","stop_lon":"103.29221811792"},{"stop_id":"2000117","stop_name":"LOT KEDAI PAYA TIGA","stop_desc":"JLN BUKIT SETONGKOL 6","stop_lat":"3.8090519340965","stop_lon":"103.29543564549"},{"stop_id":"2000091","stop_name":"PERUMAHAN PAYA TIGA","stop_desc":"JLN BUKIT SETONGKOL 6","stop_lat":"3.8071462436036","stop_lon":"103.29662772734"},{"stop_id":"2000080","stop_name":"SURAU BKT SETONGKOL","stop_desc":"JLN BUKIT SETONGKOL 12","stop_lat":"3.8007514275614","stop_lon":"103.30045733109"},{"stop_id":"2000135","stop_name":"CENDERAWASIH","stop_desc":"JLN BUKIT SETONGKOL 12","stop_lat":"3.7985624748627","stop_lon":"103.30017353757"},{"stop_id":"2000355","stop_name":"SURAU BKT SETONGKOL","stop_desc":"JLN BUKIT SETONGKOL 12","stop_lat":"3.8003168344097","stop_lon":"103.30018810802"},{"stop_id":"2000067","stop_name":"SHELL BUKIT SETONGKOL","stop_desc":"JLN BUKIT SETONGKOL","stop_lat":"3.805267647039","stop_lon":"103.30237502258"},{"stop_id":"2000367","stop_name":"TAMAN DAHLIA","stop_desc":"JLN BUKIT SETONGKOL","stop_lat":"3.8088621681785","stop_lon":"103.304636628"},{"stop_id":"2000326","stop_name":"MASJID BUKIT SETONGKOL","stop_desc":"JLN BUKIT SETONGKOL","stop_lat":"3.8100240350595","stop_lon":"103.30684899092"},{"stop_id":"2000226","stop_name":"BKT SETONGKOL 1","stop_desc":"JLN BUKIT SETONGKOL","stop_lat":"3.8090421437973","stop_lon":"103.31336879418"},{"stop_id":"2000163","stop_name":"PETRONAS DARAT MAKBAR","stop_desc":"JLN DARAT MAKBAR","stop_lat":"3.8087701853139","stop_lon":"103.31763656734"},{"stop_id":"2000181","stop_name":"KUANTAN PARADE","stop_desc":"JLN PENJARA","stop_lat":"3.8042397212113","stop_lon":"103.32230870698"},{"stop_id":"2000487","stop_name":"PERKESO","stop_desc":"JLN PENJARA","stop_lat":"3.8038960341228","stop_lon":"103.32228236404"},{"stop_id":"2000275","stop_name":"PETRONAS DARAT MAKBAR","stop_desc":"JLN DARAT MAKBAR","stop_lat":"3.8085535417308","stop_lon":"103.31783504601"},{"stop_id":"2000343","stop_name":"BKT SETONGKOL","stop_desc":"JLN BUKIT SETONGKOL","stop_lat":"3.8091086801758","stop_lon":"103.31501614425"},{"stop_id":"2000243","stop_name":"BKT SETONGKOL 1","stop_desc":"JLN BUKIT SETONGKOL","stop_lat":"3.8089427419141","stop_lon":"103.31340499821"},{"stop_id":"2000356","stop_name":"BKT SETONGKOL JAYA","stop_desc":"JLN BUKIT SETONGKOL","stop_lat":"3.8088928718177","stop_lon":"103.31103740897"},{"stop_id":"2000129","stop_name":"MASJID BUKIT SETONGKOL","stop_desc":"JLN BUKIT SETONGKOL","stop_lat":"3.8097516811451","stop_lon":"103.30630936792"},{"stop_id":"2000499","stop_name":"TAMAN DAHLIA","stop_desc":"JLN BUKIT SETONGKOL","stop_lat":"3.80840021441","stop_lon":"103.30425042172"},{"stop_id":"2000203","stop_name":"SHELL BUKIT SETONGKOL","stop_desc":"JLN BUKIT SETONGKOL","stop_lat":"3.805141117356","stop_lon":"103.30241128044"},{"stop_id":"2000208","stop_name":"PERUMAHAN PAYA TIGA","stop_desc":"JALAN BUKIT SETONGKOL 6","stop_lat":"3.8071728186873","stop_lon":"103.29634859702"},{"stop_id":"2000372","stop_name":"LOT KEDAI PAYA TIGA","stop_desc":"JALAN BUKIT SETONGKOL 6","stop_lat":"3.8088977939033","stop_lon":"103.29522889063"},{"stop_id":"2000052","stop_name":"KOMPLEKS PENYAYANG","stop_desc":"JALAN BUKIT SETONGKOL 6","stop_lat":"3.8107455870137","stop_lon":"103.29220940085"},{"stop_id":"2000044","stop_name":"KAMPUNG TIRAM","stop_desc":"JLN INDERA MAHKOTA 3","stop_lat":"3.8136328604328","stop_lon":"103.28897178437"},{"stop_id":"2000465","stop_name":"INDERA MAHKOTA 2","stop_desc":"JLN INDERA MAHKOTA 2","stop_lat":"3.8146373544047","stop_lon":"103.29387619946"},{"stop_id":"2000427","stop_name":"TUNAS MANJA","stop_desc":"JLN INDERA MAHKOTA 2","stop_lat":"3.816253469523","stop_lon":"103.29713195485"},{"stop_id":"2000093","stop_name":"LOT KEDAI IM 2","stop_desc":"JLN INDERA MAHKOTA 2","stop_lat":"3.8187764226545","stop_lon":"103.30167332314"},{"stop_id":"2000206","stop_name":"PERUMAHAN IM 1","stop_desc":"JALAN INDERA MAHKOTA 1","stop_lat":"3.8240758358514","stop_lon":"103.30179793834"},{"stop_id":"2000527","stop_name":"DEPOT","stop_desc":"JLN INDUSTRI SEMAMBU 9","stop_lat":"3.8559872267463","stop_lon":"103.32394551771"},{"stop_id":"2000557","stop_name":"(M) KOLEJ PSDC","stop_desc":"JLN INDUSTRI SEMAMBU 9","stop_lat":"3.8572829873826","stop_lon":"103.32069283686"},{"stop_id":"2000101","stop_name":"PASARAYA JAYA GADING","stop_desc":"JLN SEMAMBU 6","stop_lat":"3.8469592924375","stop_lon":"103.33162480418"},{"stop_id":"2000638","stop_name":"BAILEYS COURT","stop_desc":"JLN HAJI AHMAD","stop_lat":"3.8408188710198","stop_lon":"103.33153770766"},{"stop_id":"2000640","stop_name":"PERKAMPUNGAN SETALI","stop_desc":"JLN HAJI AHMAD","stop_lat":"3.8365543931783","stop_lon":"103.32889010739"},{"stop_id":"2000642","stop_name":"HOTEL BUMIMAS","stop_desc":"JLN HAJI AHMAD","stop_lat":"3.8350437477239","stop_lon":"103.32865896574"},{"stop_id":"2000643","stop_name":"PETRONAS","stop_desc":"JLN HAJI AHMAD","stop_lat":"3.8319233193216","stop_lon":"103.32836792955"},{"stop_id":"2000645","stop_name":"TADIKA SERI IMAN INTELEK","stop_desc":"JLN SEKILAU 4","stop_lat":"3.8279638409176","stop_lon":"103.32445936347"},{"stop_id":"2000646","stop_name":"PERKAMPUNGAN BUKIT SEKILAU","stop_desc":"JLN SEKILAU 1","stop_lat":"3.8266776666095","stop_lon":"103.32340853031"},{"stop_id":"2000647","stop_name":"MASJID SAIDINA ALI","stop_desc":"JLN BUKIT SEKILAU","stop_lat":"3.8243974859512","stop_lon":"103.32272874902"},{"stop_id":"2000648","stop_name":"SIMPANG BUKIT SEKILAU","stop_desc":"JLN BUKIT SEKILAU","stop_lat":"3.8232571663799","stop_lon":"103.32227182279"},{"stop_id":"2000649","stop_name":"KAMPUS UITM","stop_desc":"JLN BUKIT SEKILAU","stop_lat":"3.8221992936162","stop_lon":"103.32235490455"},{"stop_id":"2000650","stop_name":"KLINIK KESIHATAN BANDAR KUANTAN","stop_desc":"JLN BUKIT SEKILAU","stop_lat":"3.8199220789428","stop_lon":"103.32318758465"},{"stop_id":"2000026","stop_name":"SMK PAYA BESAR","stop_desc":"JLN GAMBANG","stop_lat":"3.7773290310862","stop_lon":"103.27246131404"},{"stop_id":"2000200","stop_name":"DEWAN MAT KILAU","stop_desc":"JLN GAMBANG","stop_lat":"3.7756838544773","stop_lon":"103.26824259681"},{"stop_id":"2000439","stop_name":"MASJID KIPSAS","stop_desc":"JLN GAMBANG","stop_lat":"3.7735844707037","stop_lon":"103.26299857564"},{"stop_id":"2000424","stop_name":"(M) KIPSAS","stop_desc":"JLN GAMBANG","stop_lat":"3.7698075323941","stop_lon":"103.25995440932"},{"stop_id":"2000158","stop_name":"PERKAMPUNGAN RASAU PERDANA","stop_desc":"L/RAYA PEKAN","stop_lat":"3.76702733385","stop_lon":"103.26243546796"},{"stop_id":"2000175","stop_name":"TAMAN INDERAPURA","stop_desc":"JLN SERI INDERAPURA","stop_lat":"3.7516380334536","stop_lon":"103.26318608118"},{"stop_id":"2000030","stop_name":"PERUMAHAN INDERAPURA","stop_desc":"JLN SERI INDERAPURA","stop_lat":"3.7511268461271","stop_lon":"103.26532051454"},{"stop_id":"2000336","stop_name":"PADANG BOLA INDERAPURA","stop_desc":"JLN SERI INDERAPURA","stop_lat":"3.7505163430549","stop_lon":"103.26753615948"},{"stop_id":"2000506","stop_name":"(M) LOT KEDAI INDERAPURA","stop_desc":"JLN SERI INDERAPURA","stop_lat":"3.7497887770384","stop_lon":"103.27000408438"},{"stop_id":"2000218","stop_name":"PERUMAHAN INDERAPURA","stop_desc":"JLN SERI INDERAPURA","stop_lat":"3.750981857521","stop_lon":"103.26516777005"},{"stop_id":"2000141","stop_name":"TAMAN INDERAPURA","stop_desc":"JLN SERI INDERAPURA","stop_lat":"3.7515113094957","stop_lon":"103.26312331896"},{"stop_id":"2000220","stop_name":"SMK MAT KILAU","stop_desc":"LALUAN PERSEKUTUAN 3","stop_lat":"3.750287","stop_lon":"103.261227"},{"stop_id":"2000463","stop_name":"JEJANTAS INDERA SEMPURNA","stop_desc":"LALUAN PERSEKUTUAN 3","stop_lat":"3.734709","stop_lon":"103.267817"},{"stop_id":"2000701","stop_name":"POS KRT FASA 1C","stop_desc":"JLN INDERA SEMPURNA 2","stop_lat":"3.7331977225954","stop_lon":"103.2666970326"},{"stop_id":"2000704","stop_name":"SEMPURNA RESORT","stop_desc":"JLN INDERA SEMPURNA 2","stop_lat":"3.7375966024393","stop_lon":"103.26419494118"},{"stop_id":"2000360","stop_name":"SIMPANG INDERA SEMPURNA 3","stop_desc":"JLN INDERA SEMPURNA 3","stop_lat":"3.7357896238682","stop_lon":"103.26043581572"},{"stop_id":"2000705","stop_name":"FASA ZON B","stop_desc":"JLN INDERA SEMPURNA 2","stop_lat":"3.733993112621","stop_lon":"103.25739681706"},{"stop_id":"2000706","stop_name":"PONDOK KRT","stop_desc":"JLN INDERA SEMPURNA 2","stop_lat":"3.7307923667814","stop_lon":"103.2575921597"},{"stop_id":"2000176","stop_name":"PUSAT RELA","stop_desc":"JLN INDERA SEMPURNA 2","stop_lat":"3.7287598833611","stop_lon":"103.2586673455"},{"stop_id":"2000362","stop_name":"SURAU AL ZAHRAA","stop_desc":"JLN INDERA SEMPURNA 2","stop_lat":"3.7314558087918","stop_lon":"103.26381993891"},{"stop_id":"2000531","stop_name":"INDERA SEMPURNA","stop_desc":"JLN INDERA SEMPURNA 2","stop_lat":"3.7326494616455","stop_lon":"103.26839041145"},{"stop_id":"2000377","stop_name":"JEJANTAS INDERA SEMPURNA","stop_desc":"LALUAN PERSEKUTUAN 3","stop_lat":"3.735539","stop_lon":"103.267075"},{"stop_id":"2000191","stop_name":"SMK MAT KILAU","stop_desc":"L/RAYA PEKAN","stop_lat":"3.7478362445001","stop_lon":"103.26126721273"},{"stop_id":"2000538","stop_name":"TAMAN SERI INDERAPURA","stop_desc":"LALUAN PERSEKUTUAN 3","stop_lat":"3.751544","stop_lon":"103.261129"},{"stop_id":"2000381","stop_name":"PERKAMPUNGAN RASAU PERDANA","stop_desc":"L/RAYA PEKAN","stop_lat":"3.7664308377459","stop_lon":"103.26259868621"},{"stop_id":"2000341","stop_name":"(M) KIPSAS","stop_desc":"L/RAYA PEKAN","stop_lat":"3.7694821569594","stop_lon":"103.26003607386"},{"stop_id":"2000148","stop_name":"HUB PERMATANG BADAK","stop_desc":"JLN GAMBANG","stop_lat":"3.7749736737469","stop_lon":"103.26582245369"},{"stop_id":"2000017","stop_name":"DEWAN MAT KILAU","stop_desc":"JLN GAMBANG","stop_lat":"3.7756734431781","stop_lon":"103.26755846104"},{"stop_id":"2000265","stop_name":"MASJID AL-HIDAYAH PERMATANG BADAK","stop_desc":"JLN GAMBANG","stop_lat":"3.77769081416","stop_lon":"103.2724966068"},{"stop_id":"2000027","stop_name":"TAMAN SEPAKAT","stop_desc":"JLN GAMBANG","stop_lat":"3.778426","stop_lon":"103.274318"},{"stop_id":"2000130","stop_name":"KOMERSIAL SUNGAI ISAP JAYA","stop_desc":"JLN GAMBANG","stop_lat":"3.779636","stop_lon":"103.277441"},{"stop_id":"2000405","stop_name":"KOMPLEKS BELIA","stop_desc":"JLN TUN ISMAIL","stop_lat":"3.8138343886602","stop_lon":"103.32693552395"},{"stop_id":"2000958","stop_name":"KUANTAN CITY/EAST COAST MALL","stop_desc":"JLN PUTRA SQUARE 6","stop_lat":"3.818019","stop_lon":"103.328202"},{"stop_id":"2000965","stop_name":"MARA PAHANG","stop_desc":"JLN GAMBUT","stop_lat":"3.808209","stop_lon":"103.325092"},{"stop_id":"2000957","stop_name":"KUANTAN PARADE PINTU UTAMA","stop_desc":"JLN HAJI ABDUL RAHMAN","stop_lat":"3.805273","stop_lon":"103.323129"},{"stop_id":"2000966","stop_name":"MAYBANK BUKIT UBI","stop_desc":"JLN BUKIT UBI","stop_lat":"3.806041","stop_lon":"103.325393"},{"stop_id":"2000240","stop_name":"(M) TELUK CEMPEDAK","stop_desc":"JLN TELOK CEMPEDAK","stop_lat":"3.8122632861423","stop_lon":"103.37044914889"},{"stop_id":"2000962","stop_name":"TAMAN TERUNTUM","stop_desc":"JLN TELOK CEMPEDAK","stop_lat":"3.812044","stop_lon":"103.363515"},{"stop_id":"2000963","stop_name":"DEWAN JUBLI PERAK SHAS","stop_desc":"JLN TELOK CEMPEDAK","stop_lat":"3.811851","stop_lon":"103.358011"},{"stop_id":"2000964","stop_name":"ANNEXE","stop_desc":"JLN DATO MAHMUD","stop_lat":"3.814633","stop_lon":"103.348022"},{"stop_id":"2000131","stop_name":"HOMEBOX DESIGN","stop_desc":"JLN TELUK SISEK","stop_lat":"3.8157380958031","stop_lon":"103.34329890595"},{"stop_id":"2000347","stop_name":"HOTEL KOSMA","stop_desc":"JLN TELUK SISEK","stop_lat":"3.8150811038066","stop_lon":"103.33559376889"},{"stop_id":"2000392","stop_name":"SHELL JLN BESERAH","stop_desc":"JLN BESERAH","stop_lat":"3.814333693372","stop_lon":"103.33257027773"},{"stop_id":"2000161","stop_name":"SHELL JLN BESERAH","stop_desc":"JLN BESERAH","stop_lat":"3.8153013703393","stop_lon":"103.33260442299"},{"stop_id":"2000323","stop_name":"HOTEL SERI MALAYSIA","stop_desc":"JLN TELUK SISEK","stop_lat":"3.814636524613","stop_lon":"103.33483839146"},{"stop_id":"2000069","stop_name":"HOMEBOX DESIGN","stop_desc":"JLN TELUK SISEK","stop_lat":"3.8159004016676","stop_lon":"103.34305551868"},{"stop_id":"2000959","stop_name":"ANNEXE REST HOUSE","stop_desc":"JLN DATO MAHMUD","stop_lat":"3.814835","stop_lon":"103.347883"},{"stop_id":"2000961","stop_name":"DEWAN JUBLI PERAK SHAS","stop_desc":"JLN TELOK CEMPEDAK","stop_lat":"3.812009","stop_lon":"103.357984"},{"stop_id":"2000255","stop_name":"(M) TAMAN IMPIAN","stop_desc":"JLN KG PADANG 4","stop_lat":"3.8688146451361","stop_lon":"103.25025681088"},{"stop_id":"2000035","stop_name":"PERUMAHAN TAMAN IMPIAN","stop_desc":"JLN KG PADANG 4","stop_lat":"3.8660006658705","stop_lon":"103.24943431518"},{"stop_id":"2000337","stop_name":"SM PENDIDIKAN KHAS VOKASIONAL","stop_desc":"JLN SG LEMBING","stop_lat":"3.8576859504549","stop_lon":"103.25603243199"},{"stop_id":"2000136","stop_name":"SK KG.PADANG JAYA","stop_desc":"JLN SG LEMBING","stop_lat":"3.8558990521118","stop_lon":"103.25776462113"},{"stop_id":"2000031","stop_name":"KAMPUNG PADANG","stop_desc":"JLN SG LEMBING","stop_lat":"3.851024853895","stop_lon":"103.26209588754"},{"stop_id":"2000070","stop_name":"KOLEJ PROFESSIONAL MARA","stop_desc":"JLN SG LEMBING","stop_lat":"3.8381990936407","stop_lon":"103.26499372247"},{"stop_id":"2000430","stop_name":"(M) WISMA BELIA","stop_desc":"JLN SULTAN ABDULLAH","stop_lat":"3.8237644780805","stop_lon":"103.28174060313"},{"stop_id":"2000006","stop_name":"BALAI BOMBA INDERA MAHKOTA","stop_desc":"JLN SULTAN ABDULLAH","stop_lat":"3.8212757767935","stop_lon":"103.28529258448"},{"stop_id":"2000389","stop_name":"INDERA MAHKOTA 5","stop_desc":"JLN SULTAN ABDULLAH","stop_lat":"3.8223004637818","stop_lon":"103.29123229006"},{"stop_id":"2000028","stop_name":"SMK TENGKU PANGLIMA PERANG","stop_desc":"JLN SULTAN ABDULLAH","stop_lat":"3.8232911505606","stop_lon":"103.2937420728"},{"stop_id":"2000474","stop_name":"INDERA MAHKOTA 6","stop_desc":"JLN SULTAN ABDULLAH","stop_lat":"3.8239114151312","stop_lon":"103.2964236468"},{"stop_id":"2000054","stop_name":"INDERA MAHKOTA 8","stop_desc":"JLN SG LEMBING","stop_lat":"3.8265456771183","stop_lon":"103.30236024786"},{"stop_id":"2000256","stop_name":"SHAHPUTRA VILLAGE","stop_desc":"JLN SG LEMBING","stop_lat":"3.8236328139972","stop_lon":"103.30639920328"},{"stop_id":"2000195","stop_name":"SHELL JLN SG. LEMBING","stop_desc":"JLN SG LEMBING","stop_lat":"3.8220353148566","stop_lon":"103.30796881233"},{"stop_id":"2000016","stop_name":"JKR DAERAH KUANTAN","stop_desc":"JLN SG LEMBING","stop_lat":"3.8199782730532","stop_lon":"103.31037656759"},{"stop_id":"2000452","stop_name":"PERSATUAN BOLA SEPAK NEGERI PAHANG","stop_desc":"JLN SG LEMBING","stop_lat":"3.8185102888075","stop_lon":"103.31343135728"},{"stop_id":"2000442","stop_name":"LOT KEDAI BKT UBI","stop_desc":"JLN SG LEMBING","stop_lat":"3.8148957136223","stop_lon":"103.31937118394"},{"stop_id":"2000156","stop_name":"PADANG MPK 2","stop_desc":"JLN BUKIT UBI","stop_lat":"3.8114547216031","stop_lon":"103.32161953427"},{"stop_id":"2000548","stop_name":"7 ELEVEN BKT UBI","stop_desc":"JLN BUKIT UBI","stop_lat":"3.8102614498865","stop_lon":"103.32182890913"},{"stop_id":"2000185","stop_name":"KOSPEK MPK","stop_desc":"JLN SG LEMBING","stop_lat":"3.8147507256109","stop_lon":"103.31921841975"},{"stop_id":"2000147","stop_name":"PEJABAT KEMAS","stop_desc":"JLN SG LEMBING","stop_lat":"3.8182846933878","stop_lon":"103.31367487094"},{"stop_id":"2000159","stop_name":"JKR DAERAH KUANTAN","stop_desc":"JLN SG LEMBING","stop_lat":"3.8199777398678","stop_lon":"103.31010648715"},{"stop_id":"2000393","stop_name":"MASJID INDERA MAHKOTA","stop_desc":"JLN SG LEMBING","stop_lat":"3.8239299287656","stop_lon":"103.30574142016"},{"stop_id":"2000305","stop_name":"SMK TENGKU PANGLIMA PERANG","stop_desc":"JLN SULTAN ABDULLAH","stop_lat":"3.8229470903612","stop_lon":"103.29352668905"},{"stop_id":"2000365","stop_name":"INDERA MAHKOTA 5","stop_desc":"JLN SULTAN ABDULLAH","stop_lat":"3.8221568028962","stop_lon":"103.29174572562"},{"stop_id":"2000107","stop_name":"BALAI BOMBA INDERA MAHKOTA","stop_desc":"JLN SULTAN ABDULLAH","stop_lat":"3.820815349917","stop_lon":"103.28567160853"},{"stop_id":"2000002","stop_name":"KOLEJ SHAHPUTRA","stop_desc":"JLN SULTAN ABDULLAH","stop_lat":"3.8239171383858","stop_lon":"103.28120914432"},{"stop_id":"2000124","stop_name":"(M) SMK INDERA MAHKOTA 2","stop_desc":"JLN SG LEMBING","stop_lat":"3.8320791791975","stop_lon":"103.27045266597"},{"stop_id":"2000172","stop_name":"KOLEJ PROFESSIONAL MARA","stop_desc":"JLN SG LEMBING","stop_lat":"3.8382711787797","stop_lon":"103.26486753922"},{"stop_id":"2000190","stop_name":"KAMPUNG PADANG","stop_desc":"JLN SG LEMBING","stop_lat":"3.8522613824236","stop_lon":"103.26095902236"},{"stop_id":"2000522","stop_name":"SK KG.PADANG JAYA","stop_desc":"JLN SG LEMBING","stop_lat":"3.8555015435063","stop_lon":"103.25794548745"},{"stop_id":"2000300","stop_name":"SM PENDIDIKAN KHAS VOKASIONAL","stop_desc":"JLN SG LEMBING","stop_lat":"3.8578930614225","stop_lon":"103.25560887526"},{"stop_id":"2000202","stop_name":"MEDAN SELERA","stop_desc":"JLN KG PADANG 4","stop_lat":"3.8636329995328","stop_lon":"103.25016840523"},{"stop_id":"2000209","stop_name":"PERUMAHAN TAMAN IMPIAN","stop_desc":"JLN KG PADANG 4","stop_lat":"3.8657195424335","stop_lon":"103.2490477668"},{"stop_id":"2000440","stop_name":"(M) BUKIT SAGU","stop_desc":"JLN BUKIT SAGU","stop_lat":"3.9634048790893","stop_lon":"103.18914052341"},{"stop_id":"2000526","stop_name":"SIMPANG JLN TERATAI","stop_desc":"JLN KEMUNING","stop_lat":"3.9490673555917","stop_lon":"103.19496993176"},{"stop_id":"2000524","stop_name":"BUKIT KUANTAN","stop_desc":"JLN BUKIT KUANTAN","stop_lat":"3.9506789134269","stop_lon":"103.23786887934"},{"stop_id":"2000048","stop_name":"TAMAN BUKIT GOH PERDANA","stop_desc":"JLN UTAMA BUKIT GOH","stop_lat":"3.9093065056273","stop_lon":"103.25396370428"},{"stop_id":"2000433","stop_name":"BUKIT GOH","stop_desc":"JLN UTAMA BUKIT GOH","stop_lat":"3.9126668967999","stop_lon":"103.25662176519"},{"stop_id":"2000239","stop_name":"SHELL  BUKIT GOH","stop_desc":"JLN BUKIT GOH","stop_lat":"3.9042191472467","stop_lon":"103.24706867471"},{"stop_id":"2000426","stop_name":"MAN AIK TRADING","stop_desc":"JLN BUKIT GOH","stop_lat":"3.8725397704687","stop_lon":"103.25003309113"},{"stop_id":"2000001","stop_name":"PASARAYA JAYA GADING","stop_desc":"JLN BUKIT GOH","stop_lat":"3.8696401692459","stop_lon":"103.24716710538"},{"stop_id":"2000368","stop_name":"TERUS MAJU","stop_desc":"JLN BUKIT GOH","stop_lat":"3.8650009248669","stop_lon":"103.24263918674"},{"stop_id":"2000400","stop_name":"KAMPUNG PADANG PERDANA","stop_desc":"JLN SG LEMBING","stop_lat":"3.8637213385405","stop_lon":"103.24479350495"},{"stop_id":"2000216","stop_name":"SMK INDERA MAHKOTA 2","stop_desc":"JLN SG LEMBING","stop_lat":"3.8322688033775","stop_lon":"103.27031724512"},{"stop_id":"2000467","stop_name":"ASTANA GOLF","stop_desc":"JLN SG LEMBING","stop_lat":"3.8376264819222","stop_lon":"103.2858902335"},{"stop_id":"2000547","stop_name":"KUANTAN MEDICAL CENTER","stop_desc":"JLN SG LEMBING","stop_lat":"3.8286463880665","stop_lon":"103.29919614036"},{"stop_id":"2000007","stop_name":"INDERA MAHKOTA 8","stop_desc":"JLN SG LEMBING","stop_lat":"3.8258865279963","stop_lon":"103.30285669655"},{"stop_id":"2000330","stop_name":"GEDUNG TEN TEN","stop_desc":"JLN SG LEMBING","stop_lat":"3.8628810258994","stop_lon":"103.24947672429"},{"stop_id":"2000186","stop_name":"KAMPUNG PADANG PERDANA","stop_desc":"JLN SG LEMBING","stop_lat":"3.8636573678974","stop_lon":"103.2444695333"},{"stop_id":"2000020","stop_name":"TERUS MAJU","stop_desc":"JLN BUKIT GOH","stop_lat":"3.8649464073405","stop_lon":"103.24251325883"},{"stop_id":"2000120","stop_name":"PASARAYA JAYA GADING","stop_desc":"JLN BUKIT GOH","stop_lat":"3.8696127238379","stop_lon":"103.24701411183"},{"stop_id":"2000082","stop_name":"WAWASAN AL HUDA","stop_desc":"JLN BUKIT GOH","stop_lat":"3.8715608502292","stop_lon":"103.24891873337"},{"stop_id":"2000334","stop_name":"(M) AKADEMI FELDA","stop_desc":"JLN BUKIT GOH","stop_lat":"3.9027817456675","stop_lon":"103.24725172223"},{"stop_id":"2000525","stop_name":"BHP BUKIT KUANTAN","stop_desc":"JLN BUKIT KUANTAN","stop_lat":"3.9441959181354","stop_lon":"103.24239340591"},{"stop_id":"2000100","stop_name":"SIMPANG JLN TERATAI","stop_desc":"JLN KEMUNING","stop_lat":"3.9488864494424","stop_lon":"103.1949433121"},{"stop_id":"2000454","stop_name":"LOT KEDAI","stop_desc":"JLN BUKIT SAGU","stop_lat":"3.9501961588036","stop_lon":"103.1942832225"},{"stop_id":"2000081","stop_name":"(M) SUNGAI LEMBING","stop_desc":"JLN SG LEMBING","stop_lat":"3.9159885041067","stop_lon":"103.03403555962"},{"stop_id":"2000211","stop_name":"BALAI POLIS SG. LEMBING","stop_desc":"JLN SG LEMBING","stop_lat":"3.9185425612079","stop_lon":"103.03587508456"},{"stop_id":"2000545","stop_name":"MASJID SUNGAI LEMBING","stop_desc":"JLN SG LEMBING","stop_lat":"3.9205600325729","stop_lon":"103.03638351306"},{"stop_id":"2000457","stop_name":"PINTU GERBANG SG. LEMBING","stop_desc":"JLN SG LEMBING","stop_lat":"3.9225872246792","stop_lon":"103.03717999702"},{"stop_id":"2000112","stop_name":"SK SUNGAI LEMBING","stop_desc":"JLN SG LEMBING","stop_lat":"3.9277952046663","stop_lon":"103.04487398377"},{"stop_id":"2000126","stop_name":"KAMPUNG KUALA KENAU","stop_desc":"JLN SG LEMBING","stop_lat":"3.9306304861208","stop_lon":"103.04710902031"},{"stop_id":"2000183","stop_name":"LOJI AIR SG.LEMBING","stop_desc":"JLN SG LEMBING","stop_lat":"3.9319546199736","stop_lon":"103.05655868535"},{"stop_id":"2000292","stop_name":"KLINIK KESIHATAN SG. LEMBING","stop_desc":"JLN SG LEMBING","stop_lat":"3.9254098644661","stop_lon":"103.07274253039"},{"stop_id":"2000409","stop_name":"SIMPANG KG. KAWAH","stop_desc":"JLN SG LEMBING","stop_lat":"3.9244243223905","stop_lon":"103.07666094621"},{"stop_id":"2000546","stop_name":"KAMPUNG BATU 6","stop_desc":"JLN SG LEMBING","stop_lat":"3.9137547868303","stop_lon":"103.09631100598"},{"stop_id":"2000023","stop_name":"KAMPUNG NADAK","stop_desc":"JLN SG LEMBING","stop_lat":"3.909987506054","stop_lon":"103.10568225661"},{"stop_id":"2000042","stop_name":"KAMPUNG KOLEK","stop_desc":"JLN SG LEMBING","stop_lat":"3.907795","stop_lon":"103.104436"},{"stop_id":"2000551","stop_name":"KAMPUNG SUNGAI DERHAKA","stop_desc":"JLN SG LEMBING","stop_lat":"3.9048270455653","stop_lon":"103.12285289372"},{"stop_id":"2000322","stop_name":"KAMPUNG SUNGAI CHARU","stop_desc":"JLN SG LEMBING","stop_lat":"3.9031976380388","stop_lon":"103.12607047352"},{"stop_id":"2000410","stop_name":"(M) P.A.K.R PANCHING","stop_desc":"JLN SG LEMBING","stop_lat":"3.8998522782859","stop_lon":"103.13833955529"},{"stop_id":"2000319","stop_name":"PEKAN PANCHING","stop_desc":"JLN SG LEMBING","stop_lat":"3.8963132513556","stop_lon":"103.14490130867"},{"stop_id":"2000115","stop_name":"KLINIK DESA PANCHING","stop_desc":"JLN SG LEMBING","stop_lat":"3.8913568110965","stop_lon":"103.14839619796"},{"stop_id":"2000258","stop_name":"SK PANCHING","stop_desc":"JLN SG LEMBING","stop_lat":"3.8901199214569","stop_lon":"103.14925415328"},{"stop_id":"2000242","stop_name":"KAMPUNG PANCHING","stop_desc":"JLN SG LEMBING","stop_lat":"3.8869328345096","stop_lon":"103.15143974725"},{"stop_id":"2000036","stop_name":"KAMPUNG BARU ATONG","stop_desc":"JLN SG LEMBING","stop_lat":"3.8829331365734","stop_lon":"103.16659090949"},{"stop_id":"2000215","stop_name":"TONG AH ESTATE","stop_desc":"JLN SG LEMBING","stop_lat":"3.8821781326942","stop_lon":"103.16868116135"},{"stop_id":"2000314","stop_name":"SURAU KAMPUNGBARU ATONG","stop_desc":"JLN SG LEMBING","stop_lat":"3.8816847411959","stop_lon":"103.17049176499"},{"stop_id":"2000219","stop_name":"SIMPANG SUNGAI PANDAN","stop_desc":"JLN SG LEMBING","stop_lat":"3.8805810181696","stop_lon":"103.1744013086"},{"stop_id":"2000477","stop_name":"SIMPANG JALAN JELAWAT","stop_desc":"JLN SG LEMBING","stop_lat":"3.8792444288284","stop_lon":"103.17935566292"},{"stop_id":"2000503","stop_name":"PASIR KEMUDI","stop_desc":"JLN SG LEMBING","stop_lat":"3.8759320456425","stop_lon":"103.18641186099"},{"stop_id":"2000346","stop_name":"BALAI PEMERIKSAAN","stop_desc":"JLN SG LEMBING","stop_lat":"3.872240047982","stop_lon":"103.19358586572"},{"stop_id":"2000085","stop_name":"SIMPANG BUKIT KUIN 3","stop_desc":"JLN SG LEMBING","stop_lat":"3.8630940673617","stop_lon":"103.20440840167"},{"stop_id":"2000228","stop_name":"KAMPUNG BATU SAWAR","stop_desc":"JLN SG LEMBING","stop_lat":"3.8620619866378","stop_lon":"103.21236893429"},{"stop_id":"2000504","stop_name":"SIMPANG BUKIT KUIN","stop_desc":"JLN SG LEMBING","stop_lat":"3.8627752190175","stop_lon":"103.21612157103"},{"stop_id":"2000317","stop_name":"PEJABAT RENJER HUTAN","stop_desc":"JLN SG LEMBING","stop_lat":"3.8642574477549","stop_lon":"103.24168641428"},{"stop_id":"2000549","stop_name":"MEDAN SELERA","stop_desc":"JLN SG LEMBING","stop_lat":"3.8629896121866","stop_lon":"103.24951251323"},{"stop_id":"2000489","stop_name":"PEJABAT RENJER HUTAN","stop_desc":"JLN SG LEMBING","stop_lat":"3.8641216963173","stop_lon":"103.24163267675"},{"stop_id":"2000458","stop_name":"SIMPANG BUKIT KUIN","stop_desc":"JLN SG LEMBING","stop_lat":"3.8627117698247","stop_lon":"103.21604968183"},{"stop_id":"2000041","stop_name":"KAMPUNG BATU SAWAR","stop_desc":"JLN SG LEMBING","stop_lat":"3.8621818191692","stop_lon":"103.21344900702"},{"stop_id":"2000146","stop_name":"SIMPANG BUKIT KUIN 3","stop_desc":"JLN SG LEMBING","stop_lat":"3.8629943523564","stop_lon":"103.20429157674"},{"stop_id":"2000288","stop_name":"PASIR KEMUDI","stop_desc":"JLN SG LEMBING","stop_lat":"3.8759587274856","stop_lon":"103.18620474178"},{"stop_id":"2000371","stop_name":"SIMPANG JALAN JELAWAT","stop_desc":"JLN SG LEMBING","stop_lat":"3.8792077345637","stop_lon":"103.17911266831"},{"stop_id":"2000298","stop_name":"SIMPANG SUNGAI PANDAN","stop_desc":"JLN SG LEMBING","stop_lat":"3.8803376178299","stop_lon":"103.17474393388"},{"stop_id":"2000450","stop_name":"SURAU KAMPUNGBARU ATONG","stop_desc":"JLN SG LEMBING","stop_lat":"3.8815670354629","stop_lon":"103.17041999686"},{"stop_id":"2000106","stop_name":"TONG AH ESTATE","stop_desc":"JLN SG LEMBING","stop_lat":"3.8820426555968","stop_lon":"103.16875347484"},{"stop_id":"2000479","stop_name":"KAMPUNG BARU ATONG","stop_desc":"JLN SG LEMBING","stop_lat":"3.8829863902145","stop_lon":"103.16613165759"},{"stop_id":"2000008","stop_name":"KAMPUNG PANCHING","stop_desc":"JLN SG LEMBING","stop_lat":"3.8869414612049","stop_lon":"103.15125067277"},{"stop_id":"2000277","stop_name":"SK PANCHING","stop_desc":"JLN SG LEMBING","stop_lat":"3.890246075352","stop_lon":"103.14905581905"},{"stop_id":"2000304","stop_name":"PEKAN PANCHING","stop_desc":"JLN SG LEMBING","stop_lat":"3.8961957037825","stop_lon":"103.14490156624"},{"stop_id":"2000056","stop_name":"P.A.K.R PANCHING","stop_desc":"JLN SG LEMBING","stop_lat":"3.8998967090617","stop_lon":"103.1379883513"},{"stop_id":"2000084","stop_name":"KAMPUNG SUNGAI CHARU","stop_desc":"JLN SG LEMBING","stop_lat":"3.9031252615862","stop_lon":"103.12605262862"},{"stop_id":"2000338","stop_name":"KAMPUNG SUNGAI DERHAKA","stop_desc":"JLN SG LEMBING","stop_lat":"3.9046551869285","stop_lon":"103.12282626752"},{"stop_id":"2000272","stop_name":"KAMPUNG KOLEK","stop_desc":"JLN SG LEMBING","stop_lat":"3.9079954100808","stop_lon":"103.1044173566"},{"stop_id":"2000373","stop_name":"KAMPUNG NADAK","stop_desc":"JLN SG LEMBING","stop_lat":"3.9100054267394","stop_lon":"103.10561019506"},{"stop_id":"2000800","stop_name":"KAMPUNG BATU 6","stop_desc":"JLN SG LEMBING","stop_lat":"3.9137093723788","stop_lon":"103.09622108202"},{"stop_id":"2000231","stop_name":"SIMPANG KG. KAWAH","stop_desc":"JLN SG LEMBING","stop_lat":"3.9243873032668","stop_lon":"103.07629192164"},{"stop_id":"2000222","stop_name":"KLINIK KESIHATAN SG. LEMBING","stop_desc":"JLN SG LEMBING","stop_lat":"3.9253191346723","stop_lon":"103.07260769865"},{"stop_id":"2000210","stop_name":"LOJI AIR SG.LEMBING","stop_desc":"JLN SG LEMBING","stop_lat":"3.9318549304248","stop_lon":"103.05645988727"},{"stop_id":"2000449","stop_name":"KAMPUNG KUALA KENAU","stop_desc":"JLN SG LEMBING","stop_lat":"3.9314275204102","stop_lon":"103.04769233337"},{"stop_id":"2000249","stop_name":"SK SUNGAI LEMBING","stop_desc":"JLN SG LEMBING","stop_lat":"3.9276951975023","stop_lon":"103.04464015075"},{"stop_id":"2000501","stop_name":"PINTU GERBANG SG. LEMBING","stop_desc":"JLN SG LEMBING","stop_lat":"3.9225332933565","stop_lon":"103.03731515947"},{"stop_id":"2000666","stop_name":"SMK PELABUHAN","stop_desc":"JLN BALOK PERDANA","stop_lat":"3.9604778864803","stop_lon":"103.3774942476"},{"stop_id":"2000667","stop_name":"KUARTERS TLDM","stop_desc":"JLN BALOK PERDANA","stop_lat":"3.9581625310208","stop_lon":"103.37275339612"},{"stop_id":"2000668","stop_name":"PERUMAHAN BALOK PERDANA","stop_desc":"JLN BALOK PERDANA","stop_lat":"3.9591008243991","stop_lon":"103.37163500874"},{"stop_id":"2000558","stop_name":"KAMPUNG BERAHI","stop_desc":"JLN BESERAH","stop_lat":"3.9624284530139","stop_lon":"103.39457212313"},{"stop_id":"2000559","stop_name":"KAMPUNG SEBERANG BALOK","stop_desc":"JLN BESERAH","stop_lat":"3.9575256692185","stop_lon":"103.38925988508"},{"stop_id":"2000560","stop_name":"TAMAN KASHA VILLA","stop_desc":"JLN BESERAH","stop_lat":"3.9530045394969","stop_lon":"103.38489244139"},{"stop_id":"2000630","stop_name":"TAMAN BALOK AMAN","stop_desc":"JLN BESERAH","stop_lat":"3.9454436083155","stop_lon":"103.37988262055"},{"stop_id":"2000562","stop_name":"TAMAN BALOK PANTAI","stop_desc":"JLN BESERAH","stop_lat":"3.9408146159593","stop_lon":"103.3712384587"},{"stop_id":"2000563","stop_name":"SK BALOK","stop_desc":"JLN BESERAH","stop_lat":"3.9380269944318","stop_lon":"103.37006432523"},{"stop_id":"2000564","stop_name":"MASJID PANTAI BALOK","stop_desc":"JLN BESERAH","stop_lat":"3.9346329147153","stop_lon":"103.36860324213"},{"stop_id":"2000565","stop_name":"KAMPUNG BALOK","stop_desc":"JLN BESERAH","stop_lat":"3.9303162904999","stop_lon":"103.3670719281"},{"stop_id":"2000567","stop_name":"TAMAN BALOK JAYA","stop_desc":"JLN BESERAH","stop_lat":"3.9280005277128","stop_lon":"103.36671626755"},{"stop_id":"2000568","stop_name":"TAMAN BALOK JAYA 2","stop_desc":"JLN BESERAH","stop_lat":"3.9255583727403","stop_lon":"103.36646890117"},{"stop_id":"2000569","stop_name":"NATURAL BATIK VILLAGE","stop_desc":"JLN BESERAH","stop_lat":"3.9229715448283","stop_lon":"103.36623081846"},{"stop_id":"2000570","stop_name":"KAMPUNG CHENGAL LEMPONG","stop_desc":"JLN BESERAH","stop_lat":"3.9184851193544","stop_lon":"103.36572630159"},{"stop_id":"2000572","stop_name":"KAMPUNG SUNGAI KARANG PANTAI","stop_desc":"JLN BESERAH","stop_lat":"3.9155543167784","stop_lon":"103.36531780603"},{"stop_id":"2000573","stop_name":"LE VILLAGE","stop_desc":"JLN BESERAH","stop_lat":"3.9130213269443","stop_lon":"103.36486351786"},{"stop_id":"2000574","stop_name":"(M) SWISS GARDEN RESORT SPA","stop_desc":"JLN BESERAH","stop_lat":"3.9097827936938","stop_lon":"103.36432055809"},{"stop_id":"2000571","stop_name":"KAMPUNG SUNGAI KARANG DARAT","stop_desc":"JLN BESERAH","stop_lat":"3.9035604169976","stop_lon":"103.3639904653"},{"stop_id":"2000575","stop_name":"MASJID TENGKU PANGLIMA PERANG","stop_desc":"JLN BESERAH","stop_lat":"3.8956568697194","stop_lon":"103.3641047918"},{"stop_id":"2000576","stop_name":"KAMPUNG SUNGAI KARANG","stop_desc":"JLN BESERAH","stop_lat":"3.8937403287698","stop_lon":"103.36442362427"},{"stop_id":"2000577","stop_name":"TAMAN BATU HITAM","stop_desc":"JLN BESERAH","stop_lat":"3.8899885105378","stop_lon":"103.36499809698"},{"stop_id":"2000578","stop_name":"PANTAI BATU HITAM","stop_desc":"JLN BESERAH","stop_lat":"3.8823108958657","stop_lon":"103.36503989553"},{"stop_id":"2000579","stop_name":"SMK BESERAH","stop_desc":"JLN BESERAH","stop_lat":"3.8789299823568","stop_lon":"103.36568565267"},{"stop_id":"2000580","stop_name":"KAMPUNG BATU HITAM","stop_desc":"JLN BESERAH","stop_lat":"3.8761363680428","stop_lon":"103.36606916869"},{"stop_id":"2000665","stop_name":"SHELL TAMAN BESERAH","stop_desc":"JLN BESERAH","stop_lat":"3.8708644981408","stop_lon":"103.36624134604"},{"stop_id":"2000582","stop_name":"DUTA SAND","stop_desc":"JLN BESERAH","stop_lat":"3.8673926059709","stop_lon":"103.36660813753"},{"stop_id":"2000583","stop_name":"SURAU HAJI ZAINON","stop_desc":"JLN BESERAH","stop_lat":"3.8645243990845","stop_lon":"103.36583032858"},{"stop_id":"2000584","stop_name":"TAMAN SATELIT VILLAGE","stop_desc":"JLN BESERAH","stop_lat":"3.8625235749867","stop_lon":"103.36465471078"},{"stop_id":"2000585","stop_name":"MASJID BESERAH","stop_desc":"JLN BESERAH","stop_lat":"3.8605058999704","stop_lon":"103.36411836982"},{"stop_id":"2000586","stop_name":"ASTAKA","stop_desc":"JLN BESERAH","stop_lat":"3.8581821476093","stop_lon":"103.36430288423"},{"stop_id":"2000587","stop_name":"TAMAN PELINDUNG BAYU","stop_desc":"JLN BESERAH","stop_lat":"3.8557124705528","stop_lon":"103.36384843706"},{"stop_id":"2000588","stop_name":"POLIKLINIK KOMUNITI","stop_desc":"JLN BESERAH","stop_lat":"3.8494318627448","stop_lon":"103.36145656626"},{"stop_id":"2000589","stop_name":"TAMAN PELINDUNG","stop_desc":"JLN BESERAH","stop_lat":"3.8470974375255","stop_lon":"103.36079478907"},{"stop_id":"2000590","stop_name":"PASARAYA TUNAS MANJA","stop_desc":"JLN BESERAH","stop_lat":"3.8369436612412","stop_lon":"103.35232424502"},{"stop_id":"2000591","stop_name":"PETRON","stop_desc":"JLN BESERAH","stop_lat":"3.8335271013763","stop_lon":"103.34855851509"},{"stop_id":"2000592","stop_name":"GEDUNG TEN TEN","stop_desc":"JLN BESERAH","stop_lat":"3.8327197003507","stop_lon":"103.34723662019"},{"stop_id":"2000593","stop_name":"KOTA MOTOR","stop_desc":"JLN BESERAH","stop_lat":"3.8312322671146","stop_lon":"103.34498872627"},{"stop_id":"2000631","stop_name":"SMK SULTAN ABU BAKAR","stop_desc":"JLN BESERAH","stop_lat":"3.8265344991446","stop_lon":"103.33807449834"},{"stop_id":"2000633","stop_name":"RESTORAN ZAM ZAM","stop_desc":"JLN BESERAH","stop_lat":"3.8250911489197","stop_lon":"103.33525037245"},{"stop_id":"2000259","stop_name":"SK GALING","stop_desc":"JLN BESERAH","stop_lat":"3.8240746249372","stop_lon":"103.33335272888"},{"stop_id":"2000632","stop_name":"NISSAN SERVICE CENTRE","stop_desc":"JLN BESERAH","stop_lat":"3.8198495357823","stop_lon":"103.3323435684"},{"stop_id":"2000596","stop_name":"KEMAMAN KOPITIAM","stop_desc":"JLN TUN ISMAIL","stop_lat":"3.8163183961791","stop_lon":"103.33011769565"},{"stop_id":"2000348","stop_name":"DEWAN GALING","stop_desc":"JLN BESERAH","stop_lat":"3.8221460850608","stop_lon":"103.33214107005"},{"stop_id":"2000294","stop_name":"SK GALING","stop_desc":"JLN BESERAH","stop_lat":"3.8242372069111","stop_lon":"103.33325338324"},{"stop_id":"2000223","stop_name":"RESTORAN ZAM ZAM","stop_desc":"JLN BESERAH","stop_lat":"3.8250994730393","stop_lon":"103.33488123815"},{"stop_id":"2000594","stop_name":"SMK SULTAN ABU BAKAR","stop_desc":"JLN BESERAH","stop_lat":"3.8265521124903","stop_lon":"103.33783138576"},{"stop_id":"2000597","stop_name":"CIMB BANK","stop_desc":"JLN BESERAH","stop_lat":"3.8279311419494","stop_lon":"103.34013347687"},{"stop_id":"2000599","stop_name":"PETRON","stop_desc":"JLN BESERAH","stop_lat":"3.8291730535744","stop_lon":"103.34167959241"},{"stop_id":"2000598","stop_name":"KOTA MOTOR","stop_desc":"JLN BESERAH","stop_lat":"3.8313404701409","stop_lon":"103.34482646442"},{"stop_id":"2000600","stop_name":"GEDUNG TEN TEN","stop_desc":"JLN BESERAH","stop_lat":"3.8327646717488","stop_lon":"103.34711049157"},{"stop_id":"2000601","stop_name":"(M) PASARAYA TUNAS MANJA JALAN BESERAH","stop_desc":"JLN BESERAH","stop_lat":"3.8368707068122","stop_lon":"103.35200927688"},{"stop_id":"2000602","stop_name":"JPAM","stop_desc":"JLN BESERAH","stop_lat":"3.8479388351078","stop_lon":"103.36099125177"},{"stop_id":"2000603","stop_name":"POLIKLINIK KOMUNITI","stop_desc":"JLN BESERAH","stop_lat":"3.8501279618017","stop_lon":"103.36133819277"},{"stop_id":"2000604","stop_name":"PMC","stop_desc":"JLN BESERAH","stop_lat":"3.8535492031948","stop_lon":"103.362844202"},{"stop_id":"2000605","stop_name":"ASTAKA","stop_desc":"JLN BESERAH","stop_lat":"3.8580189878817","stop_lon":"103.36410512241"},{"stop_id":"2000606","stop_name":"MASJID BESERAH","stop_desc":"JLN BESERAH","stop_lat":"3.859366301556","stop_lon":"103.36403952073"},{"stop_id":"2000607","stop_name":"TAMAN SATELIT VILLAGE","stop_desc":"JLN BESERAH","stop_lat":"3.8624507076585","stop_lon":"103.36438474803"},{"stop_id":"2000608","stop_name":"KAMPUNG ALOR LADANG","stop_desc":"JLN BESERAH","stop_lat":"3.864678116043","stop_lon":"103.36582103086"},{"stop_id":"2000609","stop_name":"DUTA SAND","stop_desc":"JLN BESERAH","stop_lat":"3.8685045367568","stop_lon":"103.36640793141"},{"stop_id":"2000610","stop_name":"KAMPUNG BATU HITAM","stop_desc":"JLN BESERAH","stop_lat":"3.8768774391176","stop_lon":"103.36582464947"},{"stop_id":"2000611","stop_name":"SMK BESERAH","stop_desc":"JLN BESERAH","stop_lat":"3.87855908926","stop_lon":"103.36562334028"},{"stop_id":"2000612","stop_name":"GIAT MARA","stop_desc":"JLN BESERAH","stop_lat":"3.8827085165345","stop_lon":"103.36489507241"},{"stop_id":"2000613","stop_name":"TAMAN BATU HITAM","stop_desc":"JLN BESERAH","stop_lat":"3.8899789069262","stop_lon":"103.36470999703"},{"stop_id":"2000614","stop_name":"KAMPUNG SUNGAI KARANG","stop_desc":"JLN BESERAH","stop_lat":"3.8935865244991","stop_lon":"103.36438790623"},{"stop_id":"2000615","stop_name":"MASJID TENGKU PANGLIMA PERANG","stop_desc":"JLN BESERAH","stop_lat":"3.8958918169791","stop_lon":"103.36401430028"},{"stop_id":"2000616","stop_name":"KAMPUNG SUNGAI KARANG DARAT","stop_desc":"JLN BESERAH","stop_lat":"3.9029010382873","stop_lon":"103.36438791052"},{"stop_id":"2000617","stop_name":"SWISS GARDEN RESORT SPA","stop_desc":"JLN BESERAH","stop_lat":"3.9113655968342","stop_lon":"103.36444354397"},{"stop_id":"2000618","stop_name":"KAMPUNG SUNGAI KARANG PANTAI","stop_desc":"JLN BESERAH","stop_lat":"3.9150927972126","stop_lon":"103.36515662998"},{"stop_id":"2000619","stop_name":"KAMPUNG CHENGAL LEMPONG","stop_desc":"JLN BESERAH","stop_lat":"3.9198598068992","stop_lon":"103.36578666062"},{"stop_id":"2000620","stop_name":"NATURAL BATIK VILLAGE","stop_desc":"JLN BESERAH","stop_lat":"3.92366778191","stop_lon":"103.36618444526"},{"stop_id":"2000621","stop_name":"TAMAN BALOK JAYA 2","stop_desc":"JLN BESERAH","stop_lat":"3.930506003065","stop_lon":"103.3669725134"},{"stop_id":"2000622","stop_name":"MASJID PANTAI BALOK","stop_desc":"JLN BESERAH","stop_lat":"3.9337095545949","stop_lon":"103.36811881266"},{"stop_id":"2000623","stop_name":"SK BALOK","stop_desc":"JLN BESERAH","stop_lat":"3.9373841849862","stop_lon":"103.3696873982"},{"stop_id":"2000624","stop_name":"PERKAMPUNGAN BALOK BARU","stop_desc":"JLN BESERAH","stop_lat":"3.9403800649771","stop_lon":"103.37099618893"},{"stop_id":"2000625","stop_name":"KAMPUNG SEBERANG BALOK 1","stop_desc":"JLN BESERAH","stop_lat":"3.9459143849448","stop_lon":"103.38015183931"},{"stop_id":"2000626","stop_name":"TAMAN AISHAH","stop_desc":"JLN BESERAH","stop_lat":"3.9531402587689","stop_lon":"103.38492819658"},{"stop_id":"2000627","stop_name":"TAMAN CAHAYA","stop_desc":"JLN BESERAH","stop_lat":"3.9556408398315","stop_lon":"103.38730054333"},{"stop_id":"2000628","stop_name":"KOMPLEK PERUMAHAN TLDM","stop_desc":"JLN BESERAH","stop_lat":"3.9575254761518","stop_lon":"103.38916083557"},{"stop_id":"2000629","stop_name":"KAMPUNG SEBERANG BALOK","stop_desc":"JLN BESERAH","stop_lat":"3.9611681752016","stop_lon":"103.39289969867"},{"stop_id":"2000662","stop_name":"PERUMAHAN BALOK PERDANA","stop_desc":"JLN BALOK PERDANA","stop_lat":"3.9590918344458","stop_lon":"103.37166203974"},{"stop_id":"2000663","stop_name":"KUARTERS TLDM","stop_desc":"JLN BALOK PERDANA","stop_lat":"3.9581986861191","stop_lon":"103.37274432106"},{"stop_id":"2000664","stop_name":"SMK PELABUHAN","stop_desc":"JLN BALOK PERDANA","stop_lat":"3.9605320927757","stop_lon":"103.37746712846"},{"stop_id":"2000102","stop_name":"(M) POLISAS","stop_desc":"JLN POLITEKNIK","stop_lat":"3.861418419587","stop_lon":"103.31298699207"},{"stop_id":"2000353","stop_name":"PEJABAT POLISAS","stop_desc":"JLN SEMAMBU","stop_lat":"3.8639327272487","stop_lon":"103.31770870605"},{"stop_id":"2000357","stop_name":"PINTU UTAMA POLISAS","stop_desc":"JLN SEMAMBU","stop_lat":"3.8656347398845","stop_lon":"103.31867770065"},{"stop_id":"2000104","stop_name":"PERUMAHAN SEMAMBU 1","stop_desc":"JLN SEMAMBU","stop_lat":"3.8516928711655","stop_lon":"103.33368631395"},{"stop_id":"2000480","stop_name":"PERUMAHAN SEMAMBU 2","stop_desc":"JLN SEMAMBU","stop_lat":"3.8495980428877","stop_lon":"103.33530195008"},{"stop_id":"2000396","stop_name":"MACINDA HONDA","stop_desc":"JLN SEMAMBU 5","stop_lat":"3.8506300782046","stop_lon":"103.33126653682"},{"stop_id":"2000394","stop_name":"LEONG ART","stop_desc":"JLN SERI SETALI","stop_lat":"3.84481948028","stop_lon":"103.33335755718"},{"stop_id":"2000057","stop_name":"ENG HONG","stop_desc":"JLN AIR PUTIH","stop_lat":"3.8423592497418","stop_lon":"103.3377198187"},{"stop_id":"2000287","stop_name":"(M) CRYSTAL CITY HOTEL","stop_desc":"JLN AIR PUTIH","stop_lat":"3.8393393200546","stop_lon":"103.33795974247"},{"stop_id":"2000047","stop_name":"LOT KEDAI AIR PUTIH","stop_desc":"JLN AIR PUTIH","stop_lat":"3.8353852663113","stop_lon":"103.33682400559"},{"stop_id":"2000295","stop_name":"BALAI POLIS","stop_desc":"JLN AIR PUTIH","stop_lat":"3.8329334354674","stop_lon":"103.33623454881"},{"stop_id":"2000420","stop_name":"AIR PUTIH","stop_desc":"JLN AIR PUTIH","stop_lat":"3.8303199886546","stop_lon":"103.33623959905"},{"stop_id":"2000212","stop_name":"SMK AIR PUTIH","stop_desc":"JLN AIR PUTIH","stop_lat":"3.8284656333092","stop_lon":"103.3359730926"},{"stop_id":"2000073","stop_name":"TUNAS CAPITAL","stop_desc":"JLN HJ AHMAD","stop_lat":"3.8212567935668","stop_lon":"103.33056729364"},{"stop_id":"2000260","stop_name":"KUARTERS SKM","stop_desc":"JLN DATO'LIM HOE LEK","stop_lat":"3.8225433531526","stop_lon":"103.32718874463"},{"stop_id":"2000113","stop_name":"TUNAS MANJA","stop_desc":"JLN DATO'LIM HOE LEK","stop_lat":"3.8205585628024","stop_lon":"103.32495989756"},{"stop_id":"2000530","stop_name":"KUARTERS KESIHATAN","stop_desc":"JLN DATO'LIM HOE LEK","stop_lat":"3.8195095902392","stop_lon":"103.32497093494"},{"stop_id":"2000188","stop_name":"KUARTERS KESIHATAN","stop_desc":"JLN DATO' LIM HOE LEK","stop_lat":"3.8192561743255","stop_lon":"103.32486339306"},{"stop_id":"2000493","stop_name":"TUNAS MANJA","stop_desc":"JLN DATO' LIM HOE LEK","stop_lat":"3.8206577893013","stop_lon":"103.32483366601"},{"stop_id":"2000517","stop_name":"KUARTERS SKM","stop_desc":"JLN DATO' LIM HOE LEK","stop_lat":"3.8226605955831","stop_lon":"103.32702646658"},{"stop_id":"2000173","stop_name":"(M) COWBOY JALAN HAJI AHMAD","stop_desc":"JLN HJ AHMAD","stop_lat":"3.8212121930535","stop_lon":"103.33088247869"},{"stop_id":"2000094","stop_name":"TUNAS MANJA","stop_desc":"JLN AIR PUTIH","stop_lat":"3.8276878066883","stop_lon":"103.33591157411"},{"stop_id":"2000375","stop_name":"HOME PLUS","stop_desc":"JLN AIR PUTIH","stop_lat":"3.8301657300591","stop_lon":"103.33596980879"},{"stop_id":"2000140","stop_name":"BALAI POLIS","stop_desc":"JLN AIR PUTIH","stop_lat":"3.8328156473146","stop_lon":"103.3361177379"},{"stop_id":"2000484","stop_name":"LOT KEDAI AIR PUTIH","stop_desc":"JLN AIR PUTIH","stop_lat":"3.8349054566836","stop_lon":"103.33655484349"},{"stop_id":"2000169","stop_name":"CRYSTAL CITY HOTEL","stop_desc":"JLN AIR PUTIH","stop_lat":"3.8375385537075","stop_lon":"103.33735101913"},{"stop_id":"2000264","stop_name":"ENG HONG","stop_desc":"JLN AIR PUTIH","stop_lat":"3.8422866589454","stop_lon":"103.33759391619"},{"stop_id":"2000380","stop_name":"LEONG ART","stop_desc":"JLN SERI SETALI","stop_lat":"3.8446120016694","stop_lon":"103.33361904953"},{"stop_id":"2000088","stop_name":"PASARAYA JAYA GADING","stop_desc":"JLN INDUSTRI SEMAMBU 5","stop_lat":"3.8476099673786","stop_lon":"103.33140746368"},{"stop_id":"2000221","stop_name":"PERODUA","stop_desc":"JLN INDUSTRI SEMAMBU 6","stop_lat":"3.8501326578452","stop_lon":"103.33124049626"},{"stop_id":"2000125","stop_name":"PERUMAHAN SEMAMBU","stop_desc":"JLN INDUSTRI SEMAMBU 7","stop_lat":"3.8515479349223","stop_lon":"103.33356055176"},{"stop_id":"2000066","stop_name":"GAMBANG RESORT","stop_desc":"JLN GAMBANG","stop_lat":"3.7087800436756","stop_lon":"103.05343382522"},{"stop_id":"2000519","stop_name":"(M) SIMPANG GAMBANG RESORT","stop_desc":"JLN GAMBANG","stop_lat":"3.7026211913909","stop_lon":"103.0486861763"},{"stop_id":"2000021","stop_name":"KOLEJ MATRIKULASI GAMBANG","stop_desc":"JLN GAMBANG","stop_lat":"3.7170973962261","stop_lon":"103.07349556538"},{"stop_id":"2000544","stop_name":"UIA GAMBANG","stop_desc":"JLN GAMBANG","stop_lat":"3.7278984035753","stop_lon":"103.06348145488"},{"stop_id":"2000205","stop_name":"SIMPANG KOLEJ MATRIKULASI","stop_desc":"JLN GAMBANG","stop_lat":"3.7136103786551","stop_lon":"103.07492520265"},{"stop_id":"2000058","stop_name":"PERUMAHAN RAKYAT","stop_desc":"JLN GAMBANG","stop_lat":"3.7066767288678","stop_lon":"103.09223004371"},{"stop_id":"2000232","stop_name":"KEDAI BUAH","stop_desc":"JLN GAMBANG","stop_lat":"3.7063014061777","stop_lon":"103.09428295733"},{"stop_id":"2000118","stop_name":"BHP GAMBANG","stop_desc":"JLN GAMBANG","stop_lat":"3.7061567851527","stop_lon":"103.09849549796"},{"stop_id":"2000095","stop_name":"BALAI POLIS GAMBANG","stop_desc":"JLN GAMBANG","stop_lat":"3.7066513511412","stop_lon":"103.10141960949"},{"stop_id":"2000404","stop_name":"KLINIK KESIHATAN GAMBANG","stop_desc":"JLN GAMBANG","stop_lat":"3.7073261149824","stop_lon":"103.10825858748"},{"stop_id":"2000345","stop_name":"ESSO","stop_desc":"LEBUHRAYA TUN RAZAK","stop_lat":"3.7108582582416","stop_lon":"103.11939385697"},{"stop_id":"2000099","stop_name":"KEDIAMAN UMP 3","stop_desc":"PERSIARAN UMP","stop_lat":"3.7229394910035","stop_lon":"103.12410267692"},{"stop_id":"2000313","stop_name":"KEDIAMAN UMP 2","stop_desc":"PERSIARAN UMP","stop_lat":"3.7290895479999","stop_lon":"103.12477371284"},{"stop_id":"2000824","stop_name":"KEDIAMAN UMP 4","stop_desc":"PERSIARAN UMP","stop_lat":"3.7286282493261","stop_lon":"103.12470268366"},{"stop_id":"2000039","stop_name":"UMP","stop_desc":"LEBUHRAYA TUN RAZAK","stop_lat":"3.7212847938522","stop_lon":"103.11987581263"},{"stop_id":"2000453","stop_name":"ESSO","stop_desc":"LEBUHRAYA TUN RAZAK","stop_lat":"3.7124509428658","stop_lon":"103.11999353254"},{"stop_id":"2000170","stop_name":"CALTEX GAMBANG","stop_desc":"JLN GAMBANG","stop_lat":"3.7081967888615","stop_lon":"103.12218068292"},{"stop_id":"2000253","stop_name":"MEDAN SELERA","stop_desc":"JLN GAMBANG","stop_lat":"3.7091242902159","stop_lon":"103.12462690543"},{"stop_id":"2000445","stop_name":"SERI FAJAR","stop_desc":"JLN GAMBANG","stop_lat":"3.714092490263","stop_lon":"103.1307999285"},{"stop_id":"2000010","stop_name":"BATU 16","stop_desc":"JLN GAMBANG","stop_lat":"3.7273241386185","stop_lon":"103.14927795322"},{"stop_id":"2000123","stop_name":"LADANG TUNAS AGRO","stop_desc":"JLN GAMBANG","stop_lat":"3.7356548156096","stop_lon":"103.16779380399"},{"stop_id":"2000419","stop_name":"BATU 12","stop_desc":"JLN GAMBANG","stop_lat":"3.7403809865641","stop_lon":"103.17935958176"},{"stop_id":"2000251","stop_name":"(M) TUNAS MART BATU 11","stop_desc":"JLN GAMBANG","stop_lat":"3.7440744611081","stop_lon":"103.18571588598"},{"stop_id":"2000466","stop_name":"MAHKOTA AMAN","stop_desc":"JLN GAMBANG","stop_lat":"3.7488610739366","stop_lon":"103.19160193938"},{"stop_id":"2000245","stop_name":"SMK SRI MAHKOTA","stop_desc":"JLN GAMBANG","stop_lat":"3.754382739856","stop_lon":"103.19875576743"},{"stop_id":"2000049","stop_name":"JAYA GADING","stop_desc":"JLN GAMBANG","stop_lat":"3.7561254740362","stop_lon":"103.20193873588"},{"stop_id":"2000418","stop_name":"TUDM","stop_desc":"JLN GAMBANG","stop_lat":"3.7578862132175","stop_lon":"103.20508567777"},{"stop_id":"2000289","stop_name":"RESTORAN ZAMAN","stop_desc":"JLN GAMBANG","stop_lat":"3.7621336302085","stop_lon":"103.21262035765"},{"stop_id":"2000167","stop_name":"BATU 9","stop_desc":"JLN GAMBANG","stop_lat":"3.7675528529581","stop_lon":"103.22276325807"},{"stop_id":"2000422","stop_name":"MAYBANK TAMAN TAS","stop_desc":"JLN GAMBANG","stop_lat":"3.7694769333727","stop_lon":"103.23063592365"},{"stop_id":"2000354","stop_name":"TAMAN TAS","stop_desc":"JLN GAMBANG","stop_lat":"3.769811655774","stop_lon":"103.23514516366"},{"stop_id":"2000521","stop_name":"HAPPY HOME","stop_desc":"JLN GAMBANG","stop_lat":"3.7698442387278","stop_lon":"103.24228357157"},{"stop_id":"2000485","stop_name":"BATU 6","stop_desc":"JLN GAMBANG","stop_lat":"3.7710115474084","stop_lon":"103.2516252091"},{"stop_id":"2000282","stop_name":"(M) PASARAYA TERUS MAJU","stop_desc":"JLN GAMBANG","stop_lat":"3.7713715754116","stop_lon":"103.25527927913"},{"stop_id":"2000660","stop_name":"BATU 7","stop_desc":"JLN GAMBANG","stop_lat":"3.7698878091839","stop_lon":"103.24593824926"},{"stop_id":"2000661","stop_name":"HAPPY HOME","stop_desc":"JLN GAMBANG","stop_lat":"3.7695444632093","stop_lon":"103.24160903336"},{"stop_id":"2000376","stop_name":"TAMAN TAS","stop_desc":"JLN GAMBANG","stop_lat":"3.7695877333175","stop_lon":"103.23619883063"},{"stop_id":"2000464","stop_name":"SEKOLAH MENENGAH SAINS SULTAN HAJI AHMAD SHAH","stop_desc":"JLN GAMBANG","stop_lat":"3.7693033830212","stop_lon":"103.23421899981"},{"stop_id":"2000229","stop_name":"KAMPUNG SERI DAMAI","stop_desc":"JLN GAMBANG","stop_lat":"3.7690788579145","stop_lon":"103.23053770848"},{"stop_id":"2000268","stop_name":"BATU 8","stop_desc":"JLN GAMBANG","stop_lat":"3.7687195443468","stop_lon":"103.22727978348"},{"stop_id":"2000331","stop_name":"SIN KEE HUNG","stop_desc":"JLN GAMBANG","stop_lat":"3.7655483102105","stop_lon":"103.21976974959"},{"stop_id":"2000497","stop_name":"PASARAYA SAKAN","stop_desc":"JLN GAMBANG","stop_lat":"3.7644675411851","stop_lon":"103.21747651048"},{"stop_id":"2000455","stop_name":"RESTORAN ZAMAN","stop_desc":"JLN GAMBANG","stop_lat":"3.762316608757","stop_lon":"103.21365517518"},{"stop_id":"2000053","stop_name":"PASARAYA NIRWANA","stop_desc":"JLN GAMBANG","stop_lat":"3.7568899460469","stop_lon":"103.20431358034"},{"stop_id":"2000097","stop_name":"JAYA GADING","stop_desc":"JLN GAMBANG","stop_lat":"3.7550922555226","stop_lon":"103.20078865566"},{"stop_id":"2000037","stop_name":"BATU 11","stop_desc":"JLN GAMBANG","stop_lat":"3.7490975758917","stop_lon":"103.1922765596"},{"stop_id":"2000230","stop_name":"TUNAS MART","stop_desc":"JLN GAMBANG","stop_lat":"3.7442844362717","stop_lon":"103.18667859687"},{"stop_id":"2000138","stop_name":"BATU 12","stop_desc":"JLN GAMBANG","stop_lat":"3.7403371996795","stop_lon":"103.18004376838"},{"stop_id":"2000361","stop_name":"LADANG TUNAS AGRO","stop_desc":"JLN GAMBANG","stop_lat":"3.7355286572197","stop_lon":"103.16800109236"},{"stop_id":"2000379","stop_name":"SERI FAJAR","stop_desc":"JLN GAMBANG","stop_lat":"3.7134132060132","stop_lon":"103.13027031397"},{"stop_id":"2000134","stop_name":"CALTEX GAMBANG","stop_desc":"JLN GAMBANG","stop_lat":"3.7091254775229","stop_lon":"103.12518494454"},{"stop_id":"2000332","stop_name":"KLINIK KESIHATAN GAMBANG","stop_desc":"JLN GAMBANG","stop_lat":"3.7072348648552","stop_lon":"103.10787175716"},{"stop_id":"2000417","stop_name":"BALAI POLIS GAMBANG","stop_desc":"JLN GAMBANG","stop_lat":"3.7066433941711","stop_lon":"103.10192365592"},{"stop_id":"2000281","stop_name":"BHP GAMBANG","stop_desc":"JLN GAMBANG","stop_lat":"3.706003053125","stop_lon":"103.09848682585"},{"stop_id":"2000279","stop_name":"KEDAI BUAH","stop_desc":"JLN GAMBANG","stop_lat":"3.7062290904508","stop_lon":"103.09429211264"},{"stop_id":"2000359","stop_name":"PERUMAHAN RAKYAT","stop_desc":"JLN GAMBANG","stop_lat":"3.7066225359639","stop_lon":"103.0922571613"},{"stop_id":"2000543","stop_name":"KOLEJ KOMUNITI GAMBANG","stop_desc":"JLN GAMBANG","stop_lat":"3.7242019259574","stop_lon":"103.07242706389"},{"stop_id":"2000500","stop_name":"(M) TERMINAL SENTRAL KUANTAN","stop_desc":"JLN DALAM TERMINAL","stop_lat":"3.8307689764174","stop_lon":"103.28439143973"},{"stop_id":"2000820","stop_name":"KLINIK KESIHATAN INDERA MAHKOTA","stop_desc":"LORONG IM 5/15","stop_lat":"3.8247523929584","stop_lon":"103.28736528922"},{"stop_id":"2000821","stop_name":"SEK ASRAMA PENUH INTEGRASI KUANTAN","stop_desc":"LORONG IM 5/15","stop_lat":"3.8271247019353","stop_lon":"103.28890003687"},{"stop_id":"2000822","stop_name":"PEJABAT KESIHATAN NEGERI PAHANG","stop_desc":"LORONG IM 5/15","stop_lat":"3.8279641202184","stop_lon":"103.2926344946"},{"stop_id":"2000823","stop_name":"FELDA WILAYAH KUANTAN","stop_desc":"JLN KOMPLEKS TUN RAZAK","stop_lat":"3.8257703169453","stop_lon":"103.29444838215"},{"stop_id":"2000812","stop_name":"SIMPANG KOMPLEKS TUN RAZAK","stop_desc":"LORONG IM 5/15","stop_lat":"3.8277388582334","stop_lon":"103.2930400631"},{"stop_id":"2000813","stop_name":"KLINIK KESIHATAN INDERA MAHKOTA","stop_desc":"LORONG IM 5/15","stop_lat":"3.8244633286134","stop_lon":"103.28751890834"},{"stop_id":"2000814","stop_name":"SEK REN KEB IM","stop_desc":"LORONG IM 5/15","stop_lat":"3.82399974475","stop_lon":"103.28632247625"},{"stop_id":"2000815","stop_name":"SK TUNKU AZIZAH","stop_desc":"LORONG IM 5/15","stop_lat":"3.8247561472125","stop_lon":"103.28472750435"},{"stop_id":"2000494","stop_name":"(M) TERMINAL PEKAN","stop_desc":"JLN ENGKU MUDA MANSUR","stop_lat":"3.4899867969634","stop_lon":"103.39622949559"},{"stop_id":"2000029","stop_name":"SHELL PEKAN","stop_desc":"JLN SULTAN AHMAD","stop_lat":"3.4909375726665","stop_lon":"103.39693886844"},{"stop_id":"2000254","stop_name":"TABUNG HAJI","stop_desc":"JLN TENG QUEE","stop_lat":"3.4905226565421","stop_lon":"103.39229567167"},{"stop_id":"2000461","stop_name":"IBU PEJABAT MDP","stop_desc":"JLN SULTAN ABU BAKAR","stop_lat":"3.491874105363","stop_lon":"103.38935043736"},{"stop_id":"2000401","stop_name":"PEKAN LAMA","stop_desc":"JLN SULTAN ABU BAKAR","stop_lat":"3.4928574777669","stop_lon":"103.38798079105"},{"stop_id":"2000241","stop_name":"TANGKI AIR","stop_desc":"JLN SULTAN ABU BAKAR","stop_lat":"3.4942118731949","stop_lon":"103.38675450541"},{"stop_id":"2000342","stop_name":"RESTORAN RASA MESRA","stop_desc":"JLN SULTAN ABU BAKAR","stop_lat":"3.4968846985915","stop_lon":"103.3844279822"},{"stop_id":"2000180","stop_name":"SEKOLAH SAINS SULTAN HJ. AHMAD SHAH","stop_desc":"JLN SULTAN ABU BAKAR","stop_lat":"3.4990970027885","stop_lon":"103.38250722763"},{"stop_id":"2000257","stop_name":"MASJID PEKAN","stop_desc":"L/RAYA PEKAN","stop_lat":"3.5017193703756","stop_lon":"103.38238572997"},{"stop_id":"2000471","stop_name":"IBU PEJABAT POLIS DAERAH PEKAN","stop_desc":"L/RAYA PEKAN","stop_lat":"3.5121757947872","stop_lon":"103.39414873531"},{"stop_id":"2000227","stop_name":"BAITUR RAHAH","stop_desc":"L/RAYA PEKAN","stop_lat":"3.5147697101448","stop_lon":"103.39325329671"},{"stop_id":"2000432","stop_name":"PERODUA","stop_desc":"L/RAYA PEKAN","stop_lat":"3.516568240043","stop_lon":"103.39261121444"},{"stop_id":"2000238","stop_name":"KOLEJ KOMUNITI PEKAN","stop_desc":"L/RAYA PEKAN","stop_lat":"3.5212047533844","stop_lon":"103.3910192514"},{"stop_id":"2000168","stop_name":"PERUMAHAN LKNP","stop_desc":"L/RAYA PEKAN","stop_lat":"3.5249284853389","stop_lon":"103.38977983843"},{"stop_id":"2000415","stop_name":"ICAM","stop_desc":"L/RAYA PEKAN","stop_lat":"3.5280646893571","stop_lon":"103.38871242461"},{"stop_id":"2000468","stop_name":"SHELL PEKAN","stop_desc":"L/RAYA PEKAN","stop_lat":"3.5360361030352","stop_lon":"103.38592661106"},{"stop_id":"2000438","stop_name":"MC DONALD","stop_desc":"L/RAYA PEKAN","stop_lat":"3.5383678726274","stop_lon":"103.38511255624"},{"stop_id":"2000536","stop_name":"PETRONAS PERAMU JAYA","stop_desc":"L/RAYA PEKAN","stop_lat":"3.5412781615675","stop_lon":"103.38415348798"},{"stop_id":"2000273","stop_name":"DIN MOTOR","stop_desc":"L/RAYA PEKAN","stop_lat":"3.54380875249","stop_lon":"103.38326707153"},{"stop_id":"2000444","stop_name":"MASJID TAQWA","stop_desc":"L/RAYA PEKAN","stop_lat":"3.5474239084363","stop_lon":"103.38201874972"},{"stop_id":"2000478","stop_name":"TAMAN SEPEKAN JAYA","stop_desc":"L/RAYA PEKAN","stop_lat":"3.5521957168583","stop_lon":"103.38026437779"},{"stop_id":"2000537","stop_name":"WISMA PLMP","stop_desc":"L/RAYA PEKAN","stop_lat":"3.5560277543596","stop_lon":"103.37893463783"},{"stop_id":"2000383","stop_name":"RUMAH 500","stop_desc":"L/RAYA PEKAN","stop_lat":"3.5600676376193","stop_lon":"103.37752351312"},{"stop_id":"2000061","stop_name":"KILANG VAC","stop_desc":"L/RAYA PEKAN","stop_lat":"3.565083408367","stop_lon":"103.37566963542"},{"stop_id":"2000150","stop_name":"CALTEX","stop_desc":"L/RAYA PEKAN","stop_lat":"3.5742052847422","stop_lon":"103.37406951336"},{"stop_id":"2000472","stop_name":"SK TANAH PUTEH","stop_desc":"L/RAYA PEKAN","stop_lat":"3.5784899465927","stop_lon":"103.3730178973"},{"stop_id":"2000071","stop_name":"SMK DATOMAHMUD MAT","stop_desc":"L/RAYA PEKAN","stop_lat":"3.5813916383285","stop_lon":"103.3723377312"},{"stop_id":"2000105","stop_name":"KAMPUNG LAMIR","stop_desc":"L/RAYA PEKAN","stop_lat":"3.5909877291533","stop_lon":"103.35286138001"},{"stop_id":"2000306","stop_name":"(M) KAMPUNG UBAI","stop_desc":"L/RAYA PEKAN","stop_lat":"3.6052382650621","stop_lon":"103.32730086991"},{"stop_id":"2000483","stop_name":"KAMPUNG SEMANGAT","stop_desc":"L/RAYA PEKAN","stop_lat":"3.6280376741576","stop_lon":"103.31368584547"},{"stop_id":"2000246","stop_name":"KAMPUNG BATU PUTIH","stop_desc":"L/RAYA PEKAN","stop_lat":"3.6470716622057","stop_lon":"103.30325436833"},{"stop_id":"2000142","stop_name":"KUARTERS PENJARA PENOR","stop_desc":"L/RAYA PEKAN","stop_lat":"3.6925979133335","stop_lon":"103.28182630126"},{"stop_id":"2000004","stop_name":"PENJARA PENOR","stop_desc":"L/RAYA PEKAN","stop_lat":"3.6959855675042","stop_lon":"103.28006452905"},{"stop_id":"2000051","stop_name":"SERI MELATI","stop_desc":"L/RAYA PEKAN","stop_lat":"3.7029677232194","stop_lon":"103.27597344593"},{"stop_id":"2000968","stop_name":"SMK MAT KILAU","stop_desc":"LALUAN PERSEKUTUAN 3","stop_lat":"3.750566","stop_lon":"103.260879"},{"stop_id":"2000532","stop_name":"PERMATANG BADAK JAYA","stop_desc":"JLN GAMBANG","stop_lat":"3.7766097257765","stop_lon":"103.26999616585"},{"stop_id":"2000967","stop_name":"TAMAN SERI INDERAPURA","stop_desc":"LALUAN PERSEKUTUAN 3","stop_lat":"3.751369","stop_lon":"103.26142"},{"stop_id":"2000369","stop_name":"SERI MELATI","stop_desc":"L/RAYA PEKAN","stop_lat":"3.7040976878505","stop_lon":"103.27577322909"},{"stop_id":"2000270","stop_name":"PENJARA PENOR","stop_desc":"L/RAYA PEKAN","stop_lat":"3.6961393481797","stop_lon":"103.28009123666"},{"stop_id":"2000385","stop_name":"KUARTERS PENJARA PENOR","stop_desc":"L/RAYA PEKAN","stop_lat":"3.6928511653267","stop_lon":"103.28185281807"},{"stop_id":"2000459","stop_name":"KAMPUNG BATU PUTIH","stop_desc":"L/RAYA PEKAN","stop_lat":"3.6336444927245","stop_lon":"103.30894100775"},{"stop_id":"2000378","stop_name":"KAMPUNG SEMANGAT","stop_desc":"L/RAYA PEKAN","stop_lat":"3.6288419792446","stop_lon":"103.31340532955"},{"stop_id":"2000429","stop_name":"(M) KLINIK KESIHATAN KG.UBAI","stop_desc":"L/RAYA PEKAN","stop_lat":"3.6054644581482","stop_lon":"103.32736346082"},{"stop_id":"2000144","stop_name":"KAMPUNG LAMIR","stop_desc":"L/RAYA PEKAN","stop_lat":"3.5912316184727","stop_lon":"103.3527079327"},{"stop_id":"2000397","stop_name":"TANAH PUTEH","stop_desc":"L/RAYA PEKAN","stop_lat":"3.5887829928194","stop_lon":"103.36390006131"},{"stop_id":"2000441","stop_name":"SMK DATOMAHMUD MAT","stop_desc":"L/RAYA PEKAN","stop_lat":"3.5819795481442","stop_lon":"103.37239069603"},{"stop_id":"2000076","stop_name":"SK TANAH PUTEH","stop_desc":"L/RAYA PEKAN","stop_lat":"3.5765380220687","stop_lon":"103.37382238883"},{"stop_id":"2000535","stop_name":"CALTEX","stop_desc":"L/RAYA PEKAN","stop_lat":"3.5738893134613","stop_lon":"103.37437608754"},{"stop_id":"2000068","stop_name":"KILANG VAC","stop_desc":"L/RAYA PEKAN","stop_lat":"3.5653096982446","stop_lon":"103.37578624405"},{"stop_id":"2000490","stop_name":"RUMAH 500","stop_desc":"L/RAYA PEKAN","stop_lat":"3.5609898486037","stop_lon":"103.37740489325"},{"stop_id":"2000121","stop_name":"PEJABAT PELAJARAN DAERAH PEKAN","stop_desc":"L/RAYA PEKAN","stop_lat":"3.5531540241154","stop_lon":"103.38010070037"},{"stop_id":"2000149","stop_name":"TAMAN MENTIGA JAYA","stop_desc":"L/RAYA PEKAN","stop_lat":"3.5490871070578","stop_lon":"103.38157484066"},{"stop_id":"2000025","stop_name":"KLINIK KESIHATAN PERAMU JAYA","stop_desc":"L/RAYA PEKAN","stop_lat":"3.5461317857303","stop_lon":"103.38263301639"},{"stop_id":"2000128","stop_name":"PETRONAS PERAMU JAYA","stop_desc":"L/RAYA PEKAN","stop_lat":"3.5420466252708","stop_lon":"103.38402615165"},{"stop_id":"2000132","stop_name":"MC DONALD","stop_desc":"L/RAYA PEKAN","stop_lat":"3.5382507338747","stop_lon":"103.38535576512"},{"stop_id":"2000011","stop_name":"DHAS","stop_desc":"L/RAYA PEKAN","stop_lat":"3.5362262806676","stop_lon":"103.38607928563"},{"stop_id":"2000266","stop_name":"ISUZU","stop_desc":"L/RAYA PEKAN","stop_lat":"3.5323038025016","stop_lon":"103.38742709184"},{"stop_id":"2000033","stop_name":"TAMAN LKNP","stop_desc":"L/RAYA PEKAN","stop_lat":"3.5287428323864","stop_lon":"103.38864825519"},{"stop_id":"2000166","stop_name":"KOLEJ KOMUNITI PEKAN","stop_desc":"L/RAYA PEKAN","stop_lat":"3.521232195543","stop_lon":"103.391199206"},{"stop_id":"2000143","stop_name":"PERODUA","stop_desc":"L/RAYA PEKAN","stop_lat":"3.517291648813","stop_lon":"103.39257397492"},{"stop_id":"2000412","stop_name":"BAITUR RAHAH","stop_desc":"L/RAYA PEKAN","stop_lat":"3.5148784796626","stop_lon":"103.39339711111"},{"stop_id":"2000013","stop_name":"TAMAN SRI MAULANA","stop_desc":"L/RAYA PEKAN","stop_lat":"3.5116881346124","stop_lon":"103.39454556911"},{"stop_id":"2000139","stop_name":"MASJID PEKAN","stop_desc":"L/RAYA PEKAN","stop_lat":"3.5018926443083","stop_lon":"103.38322241981"},{"stop_id":"2000003","stop_name":"SEKOLAH SAINS SULTAN HJ. AHMAD SHAH","stop_desc":"JLN SULTAN ABU BAKAR","stop_lat":"3.4991875765244","stop_lon":"103.38258807081"},{"stop_id":"2000009","stop_name":"RESTORAN RASA MESRA","stop_desc":"JLN SULTAN ABU BAKAR","stop_lat":"3.4971287291553","stop_lon":"103.38434656598"},{"stop_id":"2000127","stop_name":"TANGKI AIR","stop_desc":"JLN SULTAN ABU BAKAR","stop_lat":"3.4944468765214","stop_lon":"103.38668210548"},{"stop_id":"2000491","stop_name":"PEKAN LAMA","stop_desc":"JLN SULTAN ABU BAKAR","stop_lat":"3.4929209984429","stop_lon":"103.38810667987"},{"stop_id":"2000280","stop_name":"PEJABAT POS","stop_desc":"JLN SULTAN MAHMUD","stop_lat":"3.4922125954778","stop_lon":"103.39160881143"},{"stop_id":"2000970","stop_name":"(M) HOSPITAL KPJ PAHANG","stop_desc":"JLN TANJUNG LUMPUR","stop_lat":"3.801682","stop_lon":"103.336565"},{"stop_id":"2000969","stop_name":"(M) SERAMBI TERUNTUM","stop_desc":"JLN TANJUNG LUMPUR","stop_lat":"3.802738","stop_lon":"103.336392"}]