stop_id,stop_code,stop_name,stop_lat,stop_lon
12000418,IBE0418,Setia Triangle,5.30294,100.26187
12000427,IBE0427,Tingkat Kenari,5.31454,100.266
12000512,IBN0512,Surau Gertak Sanggul,5.2823,100.1942
12000513,IBN0513,Klinik Desa,5.28238,100.1976
12000616,ICG0616,Masjid Makbul Teluk Kumbar,5.29419,100.22805
12000847,IDN0847,KFC Jalan Mahsuri,5.32686,100.28667
12000885,IDT0885,Sunshine Square,5.325499,100.2875
12001442,IGR1442,Terminal Bas Ekpress Sg Nibong,5.3429400000000005,100.30105999999999
12001847,IID1847,Kompleks Bukit Jambul,5.3327029999999995,100.29074
12002205,IGR1500,Klinik Rakyat,5.348064900000001,100.30371629999999
12001425,IGR1425,B Braun,5.3083800000000005,100.28226
12001815,IHX1815,Fortune Court,5.3978,100.28845
12001973,IJI1973,Lebuhraya Thean Teik,5.38875,100.27956
12000213,IAD0213,Mar Vista,5.4707300000000005,100.27724
12000232,IAD0232,Moon Light Cafe,5.47812,100.26286
12000833,IDJ0833,Hospital Loh Guan Lye,5.4191199999999995,100.3182
12001060,IEV1060,Komtar Utara,5.41513,100.32899
12001662,IHJ1662,Chinese Swimming Club,5.46285,100.30404
12001671,IHJ1671,Harmony Residence,5.46546,100.28178
12001677,IHJ1677,Tsunami Village,5.4662,100.27991
12001832,IIC1832,Wisma MCA,5.41841,100.32954000000001
12002230,IKY2120,Feringghi Villa,5.46537604,100.24112262
12002976,IHP1901,Hotel Angsana,5.4621399,100.220251
12000753,MCW0753,Kampung Telok Manan,5.57533,100.36786
12001716,MHO1716,Kuarters TUDM,5.4596599999999995,100.3832
12001731,MHO1731,Masjid Jamek Teluk Air Tawar,5.4882,100.3838
12002544,ICT0701,SK Bagan Jermal,5.431374,100.378297
12002637,MCW0780,Hub Kuala Muda,5.5692459,100.34842330000001
12000746,MCW0746,Padang SK Pulau Mertajam,5.57072,100.36244
12000748,MCW0748,SK Pulau Mertajam,5.57275,100.36416
12001110,MFC1110,Masjid Bakar Kapor,5.53999,100.37881
12001111,MFC1111,Bakar Kapor,5.544969999999999,100.37819
12001113,MFC1113,Pasir Gebu,5.54724,100.37779
12001714,MHO1714,Padang Golf TUDM,5.45589,100.38345
12001715,MHO1715,Kuarters TUDM,5.45942,100.38332
12001728,MHO1728,SK Telok Air Tawar,5.4842699999999995,100.38365999999999
12001730,MHO1730,Klinik Desa Teluk Air Tawar,5.48784,100.38381
12002549,ICT0706,Maybank Butterworth,5.3977580000000005,100.367789
12000460,IBF0460,Penjara P.Pinang(Hospital),5.41364,100.31312
12000963,IEJ0963,Lorong Padang Tembak,5.40683,100.29616
12001379,IGE1379,Flat Padang Tembak,5.41063,100.29005
12000063,I0Q0063,BHP Kampung Baru,5.40468,100.29051
12000968,IEJ0968,SK Padang Tembak,5.41019,100.29205
12001376,IGE1376,Jalan Sempadan,5.40766,100.28867
12001508,MGX1508,Pusat Perniagaan Desa Murni,5.4371,100.43021
12001547,MGX1547,Masjid Nyior Sebatang,5.46042,100.44818000000001
12002361,ICT0104,Taman Pasir Indah,5.429739,100.432323
12002364,ICT0107,Pejabat Pos Penanti,5.405272,100.463646
12000251,MAI0251,Hospital Kepala Batas,5.51273,100.43768
12001851,MIE1851,Taman Perda Indah,5.510836,100.50480999999999
12001855,MIE1855,Kiosk Bertam,5.5181,100.44866999999999
12001856,MIE1856,Kayangan,5.51812,100.45221
12001858,MIE1858,Masjid Kubang Menerong,5.5185699999999995,100.50645
12001863,MIE1863,MRSM Kepala Batas,5.519430000000001,100.47277
12001872,MIE1872,Taman Sri Menderung,5.51461,100.50601999999999
12002949,MFH1302,Bertam Putra 3,5.5181192,100.4811417
12002950,MFH1303,Pusat Penjaja Bandar Putra Bertam,5.518487599999999,100.4811202
12000059,I0Q0059,Pejabat Pos Ayer Itam,5.4041,100.28008
12000151,I0Z0151,Kek Lok Si Temple,5.40238,100.27728
12001066,IEV1066,Hotel Cititel,5.42143,100.3337
12002243,I0G0015,Anggerik Villa,5.368602,100.3084
12002245,IKY2505,Jalan Delima 6,5.383780000000001,100.3046
12001215,MFI1215,Sunway Wellesley,5.368530000000001,100.45774
12001216,MFI1216,Pusat Perniagaan Permatang Rawa,5.36862,100.44489
12001176,MFH1176,Pangsapuri Seri Pauh,5.36905,100.42336999999999
12001185,MFH1185,Masjid Permatang Janggus,5.40102,100.41705999999999
12001192,MFH1192,Shell Mak Mandin,5.41427,100.38765
12002604,ICT0902,Kompleks Fareeda,5.405966200000001,100.4151894
12000391,MBA0391,Taman Limbungan Chain Ferry,5.40078,100.37832
12000392,MBA0392,Pusat Perniagaan Chain Ferry I,5.40128,100.37952
12001879,MIF1879,Hospital Seberang Jaya II,5.3931,100.4062
12001881,MIF1881,Hospital Seberang Jaya,5.39454,100.40633000000001
12001996,MJM1996,Pangsapuri RPKN,5.395011,100.40444000000001
12002533,ICT0418,Taman Usahaniaga,5.362278,100.465059
12002534,ICT0306,Taman Machang Bubok III,5.342005,100.50447
12000802,MDA0802,Cheruk Tokun,5.34746,100.4846
12000840,MDK0840,SK Machang Bubok II,5.32764,100.50294
12002540,ICT0233,Sentosa Residence,5.353794000000001,100.4714
12002542,ICT0236,SJK(C) Jit Sin,5.363758,100.462845
12000127,M0Y0127,Peladang Sg.Petani,5.6192400000000005,100.47349
12000133,M0Y0133,DSOP Sungai Petani,5.6323099999999995,100.48248000000001
12001291,MFP1291,(M2) Terminal Jalan Petri,5.6397699999999995,100.48807
12000276,MAL0276,Masjid Lama Sungai Bakap,5.221830000000001,100.49725
12000327,MAU0327,Taman Sukun Indah,5.31311,100.46412
12000336,MAU0336,Taman Pulasan Bukit Minyak,5.32445,100.44852
12000887,IDT0887,Sunshine Square,5.3255300000000005,100.28769
12001420,IGR1420,Sungai Tiram,5.30216,100.2761
12001424,IGR1424,Kilang Clarion,5.30821,100.28236
12000403,MBD0403,Jalan Damai,5.33871,100.47378
12001272,MFK1272,SRJK Permatang Tinggi,5.29968,100.47754
12001370,MGC1370,Taman Nirwana,5.32784,100.48575
12001681,MHK1681,Muda Paper II,5.28447,100.51924
12002579,ICT0225,Bandar Tasek Mutiara,5.283273,100.49255
12002581,ICT0228,Taman Seri Impian,5.320972,100.480637
12002583,ICT0230,Kilang Ayamas,5.325512000000001,100.48589799999999
12000056,M0P0056,SM Persendirian Jit Sin,5.36339,100.4632
12000799,MDA0799,Taman Jaya,5.35426,100.47074
12002593,ICT0427,Masjid Jamek Alma Jaya,5.322132,100.47837700000001
12002599,ICT0223,Kampung Tasek Junjung,5.297051000000001,100.52891
12000340,MAV0340,Balai Polis,5.33627,100.50874
12000789,MDA0789,Kampung Janggus,5.3438300000000005,100.49600000000001
12000796,MDA0796,Taman Bukit Indah,5.3501,100.47958
12001094,MFA1094,Pejabat MPSP,5.36985,100.43394
12001184,MFH1184,Shell Permatang To' Kandu,5.39384,100.41790999999999
12000350,MAW0350,(M3) Kilang Leader Steel,5.340330000000001,100.43884
12000351,MAW0351,Balai Polis Bukit Tengah,5.34661,100.43484000000001
12000355,MAW0355,Taman Indah,5.35732,100.42726
12001264,MFK1264,SMK Simpang Empat,5.2792,100.47689
12000177,MAA0177,(M2) Mydin Mall,5.36972,100.41516999999999
12000273,MAL0273,Balai Polis Sungai Bakap,5.21584,100.49724
12000328,MAU0328,Taman Sukun Indah,5.31439,100.46295
12000918,MEB0918,Super-Rider Motor Sdn Bhd,5.18075,100.48394
12001263,MFK1263,SMK Simpang Empat,5.27778,100.47686999999999
12001482,MGV1482,Perkampungan Jawi,5.21173,100.49705
12002338,ICT0075,RTC Jalan Simpang Empat,5.262094,100.472864
12002348,ICT0090,Masjid Kampung Setol,5.372746,100.409622
12000703,MCP0703,Masjid Permatang Kebun Sireh,5.36085,100.43733
12000958,MEI0958,Taman Desa Damai,5.36532,100.44327
12000267,MAK0267,Jalan Besar,5.13523,100.46947
12002346,ICT0083,Bank Rakyat Perda,5.366926,100.435744
12002347,ICT0084,Allagapas,5.36458,100.426927
12001099,MFB1099,Permatang Batu,5.36439,100.43153000000001
12002015,IJT2015,Flat Boon Siew,5.45615,100.28251
12000027,I0H0027,Dell,5.307167,100.29253
12000030,I0H0030,Brady Technology,5.305717,100.29559
12002049,IKH2049,Mini Circuits,5.294636,100.29098499999999
12002069,IKJ2069,Jeti Pulau Jerejak,5.34301,100.31121999999999
12000013,I0F0013,Intel PG12,5.328467,100.30004
12000874,IDT0874,Dynacraft Industries,5.305075,100.27721
12000807,IDC0807,Pepper Estate,5.454606,100.29941
12000812,IDF0812,Tenby School,5.458625,100.28201
12001411,IGQ1411,Menara KWSP,5.42341,100.3304
12000195,IAB0195,YGGS World,5.29422,100.27915
12000196,IAB0196,Pasar Batu Maung,5.29516,100.27979
12000240,IAE0240,Pejabat Pos Batu Maung,5.285419999999999,100.28663
12000296,IAR0296,(M3) Hotel Vistana,5.33655,100.2913
12000311,IAR0311,Taman Bukit Gambir,5.37312,100.29845
12000584,ICA0584,Masjid Jelutong,5.39272,100.31461
12000610,ICF0610,Kampung Kolam,5.41606,100.33669
12001805,IHU1805,Klinik Kesihatan,5.320778,100.27965999999999
12002304,ICT0033,Taman Sri Bayu,5.29714,100.2566
12002312,IFE1144,SK Batu  Maung,5.2812222,100.2825437
12002314,ICT0046,Mutiara Vista,5.398549,100.320515
12000360,IAX0360,Chinese Recreation Club,5.42517,100.3191
12000722,ICR0722,Flat Kelawei,5.4313,100.31533
12000724,ICR0724,Pangsapuri Festival,5.43341,100.31219
12001655,IHI1655,Masjid Karwa,5.45482,100.30678
12001659,IHI1659,Flat UDA,5.46192,100.30644000000001
12001766,IHP1766,Teluk Bahang,5.45971,100.21781999999999
12003014,IAD0299,Masjid Terapung,5.4676422,100.2772938
12000052,I0M0052,Wisma Persekutuan,5.419625,100.32334
12000006,I0C0006,Pejabat Pos Macallum,5.40606,100.3319
12001448,IGR1448,Jejantas Batu Uban,5.35418,100.30793
12002316,ICT0049,Gedung Height IV,5.316179,100.282016
12001438,IGR1438,SK Sungai Nibong,5.338830000000001,100.29911
12001453,IGR1453,Restoran Kampung Ku,5.366709999999999,100.31078000000001
12001495,IGX1495,Klinik Kesihatan Sg Dua,5.34375,100.29753000000001
12001498,IGX1498,SRJK Keong Hoe,5.34655,100.29575
12002082,IKP2082,Taman Gedung Heights II,5.317312,100.27995
12000897,IDX0897,Hong Seng Estate,5.440930000000001,100.30298
12002028,IJZ2028,Lorong Lembah Permai 3,5.45394,100.28836
12001085,IEX1085,Kem Wataniah 509,5.422586,100.31718000000001
12001976,IJI1976,Desa Intan,5.392608,100.28696
12002032,MKA2032,Evergreen Paper,5.41941,100.39243
12000032,M0I0032,Petronas Tanah Liat,5.3755,100.46486999999999
12001554,MGX1554,Lubuk Meriam,5.4743699999999995,100.45741
12002356,ICT0099,PPD Tengah Permatang Pasir,5.418114,100.43713699999999
12000776,MCZ0776,Klinik Kesihatan Kubang Semang,5.397869999999999,100.46471
12000778,MCZ0778,SK Penanti,5.40285,100.46455
12001169,MFG1169,Permatang Pasir,5.41999,100.43668000000001
12001172,MFG1172,Kampung Kota II,5.42361,100.43552
12000640,MCK0640,Kampung Besar,5.48453,100.50381999999999
12001525,MGX1525,Hadapan Stesen Minyak Shell,5.44855,100.41399
12001595,MHB1595,Pekan Maklom,5.45056,100.40128
12002611,MCK0900,SMK Kampung Selamat,5.4991742,100.5205353
12002612,MCK0901,Balai Bomba Kampung Selamat,5.5002047,100.52147409999999
12002614,MCK0903,Taman Selesa,5.504220200000001,100.52571999999999
12002622,MCK0907,PUSAT PERNIAGAAN PADANG SERAI,5.5153426,100.5446671
12002623,MCK0908,Klinik Kesihatan Padang Serai,5.510301999999999,100.5536579
12000489,MBM0489,Pusat Komersial,5.48402,100.4897
12000491,MBM0491,Petronas Tasek Gelugor,5.48454,100.48759
12000501,MBM0501,Tali Air Pokok Macang,5.48854,100.47059
12000503,MBM0503,Dewan Seri Pokok Macang,5.4888900000000005,100.46866999999999
12000648,MCK0648,Kampung Selamat III,5.48874,100.50533
12001518,MGX1518,Taman Sungai Dua,5.44548,100.42498
12001527,MGX1527,Petronas Sg.Lokan,5.44909,100.41186
12001537,MGX1537,Alor Merah,5.45068,100.40347
12000148,I0Z0148,Taman Seri Indah,5.34345,100.22733000000001
12001950,IJC1950,Renesas,5.311275,100.28414000000001
12001952,IJC1952,B. Braun,5.312558,100.28348000000001
12001967,IJH1967,UTIC Service,5.318922,100.29341
12002043,IKD2043,B. Braun Medical,5.309883,100.28114000000001
12001951,IJC1951,Renesas,5.3113150000000005,100.28407
12002274,ICV1029,Kuala Sg.Pinang 2,5.39091,100.19928
12000376,MAY0376,Permatang Pak Elong,5.507999999999999,100.40021999999999
12000385,MAY0385,Taman Aman Putra,5.51751,100.42488
12000998,MEQ0998,Taman Paya Keladi,5.53379,100.43171
12000768,MCY0768,Jalan Kuala Sungai Udang,5.16071,100.42565
12001467,MGT1467,SK Sungai Setar,5.14691,100.4325
12001490,MGW1490,Kampung Sungai Air Itam,5.136769999999999,100.41943
12002280,ICT0001,SK Kongsi,5.34657,100.2305
12000154,IAA0154,Klinik Desa,5.337969999999999,100.20715
12000160,IAA0160,Surau Sungai Burung,5.3461300000000005,100.20839000000001
12000176,IAA0176,Hadapan Balai Polis,5.36486,100.2158
12000631,ICI0631,Hadapan Lrg Kpg Perlis 3,5.33141,100.20634
12000651,ICL0651,Kg Pulau Betong,5.30359,100.1974
12000653,ICL0653,Pekan Pulau Betong,5.30391,100.19951999999999
12000661,ICL0661,Balai Bomba Balik Pulau,5.32599,100.21291
12001565,IGZ1565,(M1) SMK Seri Balik Pulau,5.3343,100.21234
12001566,IHA1566,Pejabat Daerah dan Tanah,5.3506599999999995,100.23408
12001572,IHA1572,Taman Poket Jalan Chai,5.35418,100.22922
12000762,ICX0762,Kuala Sg. Pinang,5.39048,100.19598
12000977,IEN0977,Kem PLKN Sg.Pinang,5.39998,100.21115
12000979,IEN0979,Jalan Haji Hamid Senawi,5.4004199999999996,100.20902
12002631,MCK0916,TAMAN SELESA,5.5040867,100.52571999999999
12001209,MFH1209,Kompleks Fareeda,5.40604,100.41534
12000064,I0Q0064,Maybank Air Itam,5.40482,100.28426999999999
12000628,ICH0628,Lorong Kampung Melayu,5.40372,100.28837
12002616,ICT1113,Ideal Summer Skye Square,5.299314,100.26698499999999
12001460,IGR1460,Taman Sri Tunas,5.320189,100.28914
12002256,IKY2517,Pekan Bayan Lepas,5.294630000000001,100.25861
12000810,IDE0810,Perumahan Kastam,5.37447,100.30129000000001
12002242,IKY2503,Dewan JKKK Bukit Gelugor,5.3726769999999995,100.3028
12000144,I0Z0144,Taman Sri Genting,5.3383199999999995,100.22207
12000147,I0Z0147,Taman Seri Indah,5.343380000000001,100.22744
12002214,IAR0350,Hub Padang Kawad,5.3560444,100.29454040000002
12003018,IAR0352,Desasiswa Indah Kembara,5.355855,100.29519
12003019,IAR0353,Jabatan Keselamatan,5.355061,100.297966
12003024,IAR0358,Dewan Budaya,5.356643,100.30398000000001
12003026,IAR0360,Desasiswa Harapan,5.354758,100.3004
12001342,MFU1342,Pusat Perniagaan Raja Uda,5.41782,100.38020999999999
12001344,MFU1344,Petron Bagan Lalang,5.42519,100.3827
12001039,MES1039,Madrasah Adiniah A-Islamiah,5.461915,100.4004
12001041,MES1041,Surau Permatang Tok Jaya,5.4675,100.40021999999999
12002382,ICT0126,Pekan Maklom II,5.452896,100.401896
12000111,M0W0111,Taman Sentral,5.42532,100.39706
12002126,MLC2116,Lorong Nagasari23,5.36679,100.41381
12002523,ICT0413,Taman Kota Permai II,5.339943,100.45622
12000731,MCT0731,Taman Kota Permai,5.34397,100.45679
12002514,ICT0401,Taman Lembah Permai,5.349429,100.457412
12001979,IJI1979,All Season Place,5.39689,100.29035
12000242,IAE0242,Balai Polis,5.28793,100.2828
12001131,IFE1131,Sekolah Memandu Damar Laut,5.27816,100.26536999999999
12001156,IFE1156,SJK(T) Bayan Lepas,5.29306,100.25668
12002490,ICT0322,Pekan Sg.Acheh,5.1473212,100.42172
12002491,ICT0323,Lorong Haji Hashim,5.154751,100.42398
12002495,ICT0328,Kampung Chenaam III,5.141934,100.407896
12000415,IBE0415,Klinik Kesihatan Bayan Lepas,5.299901,100.26219
12000417,IBE0417,JPAM Bayan Lepas,5.301789,100.26191999999999
12000423,IBE0423,Pasar MBPP,5.306801,100.26429
12000430,IBE0430,Kem Sungai Ara 2,5.317285,100.26814
12000517,IBN0517,Kg. Nelayan Teluk Kumbar,5.2881,100.22796
12000617,ICG0617,SK Seri Bayu,5.29434,100.23005
12001447,IGR1447,JPJ Batu Uban,5.35184,100.30481
12001776,IHQ1776,Hotel Grand Lexis,5.28696,100.23383000000001
12001837,IID1837,Setia Welcome Center,5.32963,100.27883
12001840,IID1840,SRJK Min Sin,5.331169,100.281425
12001842,IID1842,Bukit Jambul Golf Club,5.33199,100.28419
12002063,IKJ2063,Bay Garden,5.336976,100.308266
12000048,I0L0048,Petronas Farlim,5.38858,100.28429
12000067,I0Q0067,Balai Polis Kampung Baru,5.40526,100.29424
12000849,IDN0849,Jalan Mahsuri,5.32695,100.28878
12000206,IAD0206,Hotel Hard Rock,5.466819999999999,100.242
12000217,IAD0217,Night Market,5.473763,100.24805
12000236,IAD0236,Sri Sayang,5.47896,100.25527
12000361,IAX0361,Kolej MSU,5.426480000000001,100.31749
12001083,IEX1083,Pangsapuri Sri Pinang,5.42086,100.31724
12001084,IEX1084,Kem Wataniah 509,5.42258,100.31714000000001
12001670,IHJ1670,Menara Asas,5.46545,100.28374000000001
12001919,IIP1919,Love Lane,5.41834,100.3364
12002971,IIR1926,Pejabat Pos Besar P.Pinang 1,5.4180154,100.3436892
12000739,MCW0739,Dewan Bakau Tua,5.567819999999999,100.35953
12001056,MEU1056,Kampung Penaga Dua,5.521438,100.38201
12001114,MFC1114,SMK Tok Labu,5.55056,100.3773
12001711,MHO1711,SMK ST Mark,5.44981,100.38293
12000092,M0U0092,SK Bagan Jermal,5.4318800000000005,100.37853
12000756,MCW0756,Taman Desa Kuala Muda,5.56752,100.35681
12000757,MCW0757,Dewan Bakau Tua,5.56786,100.35959
12001057,MEU1057,Pekan Penaga,5.5246699999999995,100.38145
12001124,MFC1124,Masjid Permatang Bendahari,5.5789599999999995,100.37469
12001722,MHO1722,Kolej Vokasional Butterworth,5.47414,100.38322
12001725,MHO1725,Taman Ratna,5.47749,100.38341
12001732,MHO1732,Taman Air Tawar Indah 2,5.490819999999999,100.38428
12002551,ICT0708,Tesco Bagan Ajam,5.4393519999999995,100.38134000000001
12000120,M0X0120,Taman Selat,5.40005,100.36809000000001
12000123,M0X0123,Pejabat Kesihatan SPU,5.40636,100.36949
12000902,MDY0902,Simpang Lorong Murni 5,5.43602,100.43273
12000455,IBF0455,Padang Brown,5.412893,100.317986
12000459,IBF0459,Penang Times Square,5.41332,100.3262
12000075,I0Q0075,SMK Sri Mutiara,5.41031,100.30745
12000461,IBF0461,Pasaraya Gama,5.413819,100.3281
12000966,IEJ0966,PBA,5.4088199999999995,100.29326999999999
12001378,IGE1378,Flat Padang Tembak,5.41046,100.29009
12001822,IHY1822,Wisma Yatim,5.40404,100.29160999999999
12001920,IIP1920,Love Lane,5.418401,100.33614
12001556,MGX1556,Taman Pokok Sena Indah,5.47935,100.4575
12002363,ICT0106,Masjid Al Muhtadin,5.4073459999999995,100.453356
12002365,ICT0108,Shell Kubang Semang,5.394344,100.464442
12001852,MIE1852,Taman Perda Indah,5.5109,100.50464000000001
12001864,MIE1864,MRSM Kepala Batas,5.51963,100.47281
12002089,MKR2089,Bertam Putra 1,5.517612000000001,100.48601500000001
12000635,ICJ0635,Kampung Pisang,5.39829,100.28194
12001323,IFR1323,Jalan Pisang Embun,5.39853,100.28353
12000860,IDS0860,Shell Green Lane,5.3855900000000005,100.30514000000001
12000864,IDS0864,Persatuan Kanak-Kanak Sepastik,5.3891,100.30325
12000991,IEO0991,Apartmen Taman Seri Petani,5.40585,100.32143
12000993,IEO0993,Jalan Patani.,5.409741,100.32274
12001456,IGR1456,Astaka Gelugor,5.37239,100.30944000000001
12001588,IHA1588,Penang Japanese School,5.40843,100.3176
12002002,IJP2002,Pasar Batu Lanchang II,5.39051,100.30660999999999
12002222,IKY2110,Taman Free School,5.40456399,100.30861159999999
12000019,I0G0019,Taman Tun Sardon,5.371651,100.30281
12001214,MFH1214,Taman Bandar Ampang Jajar,5.41415,100.40545999999999
12001217,MFI1217,Permatang Rawa,5.36889,100.45274
12001218,MFI1218,SMK Permatang Rawa,5.36891,100.44688000000001
12001219,MFI1219,Petronas Permatang Rawa,5.36903,100.4496
12001092,MEZ1092,Perda Timur,5.3695,100.441
12001194,MFH1194,Taman Bagan,5.41458,100.38433
12001199,MFH1199,Kampung Belah 2,5.3784,100.42045999999999
12001220,MFI1220,Caltex Permatang Rawa,5.3686,100.44541
12003015,ICT0A81,KTM Bukit Mertajam,5.368924,100.448113
12000913,MEA0913,Taman Mewah,5.3985,100.37189000000001
12001878,MIF1878,Pangsapuri B3,5.390969999999999,100.40536
12001953,MJD1953,Kastam Seberang Jaya,5.39465,100.4
12000180,MAA0180,Padang Kilat,5.381530000000001,100.39312
12000393,MBA0393,Pusat Perniagaan Chain Ferry II,5.40244,100.38308
12000788,MDA0788,Taman Remia,5.34326,100.49753
12000790,MDA0790,Kampung Janggus,5.34441,100.4942
12002981,MDP0857,Terminal UTC Ukir Square,5.6402774,100.49054749999999
12000126,M0Y0126,Peladang Sg.Petani,5.61914,100.47372
12000185,MAA0185,Masjid Jalan Baru,5.36774,100.41932
12000275,MAL0275,Hospital Sungai Bakap,5.21959,100.49815
12000329,MAU0329,Taman Markisah,5.31616,100.46169
12000438,IBE0438,Public Bank,5.330747,100.27945
12001016,IER1016,Pangsapuri Green Garden,5.36604,100.27329
12001433,IGR1433,Petronas Kampung Jawa,5.32956,100.29436
12000041,M0J0041,Hub Jalan Air Puteh,5.28661,100.54287
12000598,MCC0598,Taman Alma Perpaduan,5.34585,100.47166
12001266,MFK1266,Kg. Baru Simpang Empat,5.28653,100.47731
12001682,MHK1682,Muda Paper III,5.28453,100.51734
12000046,M0K0046,SJKC Sin Ya,5.330019999999999,100.47829
12000798,MDA0798,Taman Sentosa,5.35331,100.47288
12001358,MFX1358,Taman Seri Impian,5.31124,100.47958
12001362,MFX1362,AEON Pintu Utama,5.31962,100.47699
12001684,MHK1684,Kampung Hj. Abdullah,5.2847,100.51559
12002586,ICT0419,B Garden,5.346003,100.47193100000001
12002590,ICT0424,Pasar Awam Taman Selamat,5.327946,100.48588000000001
12000341,MAV0341,Chinese Temple,5.33916,100.5096
12000787,MDA0787,Taman Remia,5.34314,100.49807
12000805,MDB0805,Pangsapuri Taman Chai Leng,5.384123000000001,100.39255
12001178,MFH1178,Politeknik Seberang Perai,5.37299,100.42214
12000917,MEB0917,Balai Polis Lama Bukit Panchor,5.177230000000001,100.48228
12001258,MFK1258,Taman Tangling,5.2682199999999995,100.476
12001259,MFK1259,Taman Belibis,5.26949,100.47668
12001483,MGV1483,Perkampungan Jawi,5.21248,100.49722
12002326,ICT0063,Essex,5.304322,100.47229200000001
12002331,ICT0068,Premium Outlet,5.250563,100.475252
12002332,ICT0069,JKR Jawi,5.207808999999999,100.497725
12000183,MAA0183,Taman Bunga Raya,5.36632,100.42163000000001
12000278,MAL0278,Taman Penyu,5.2304900000000005,100.49231999999999
12000343,MAW0343,Pejabat Veterinar,5.33632,100.44294000000001
12000347,MAW0347,Masjid Balik Bukit,5.354080000000001,100.42859
12001253,MFK1253,Taman Perdana,5.26818,100.47570999999999
12001254,MFK1254,Balai Polis Simpang Empat,5.2836,100.47659
12001257,MFK1257,Taman IKS Perda,5.26508,100.47411
12001596,MHC1596,Masjid Sungai Rambai,5.36436,100.45317
12002339,ICT0076,Kampung Tengah Kebun Sireh,5.353937999999999,100.435063
12000266,MAK0266,Jalan Besar,5.131538,100.471214
12002165,8041002,Mydin Mall,5.128312,100.4821847
12000270,MAK0270,Taman Fajar,5.1477900000000005,100.47102
12000028,I0H0028,ASE,5.308572,100.29408000000001
12002007,IJQ2007,SAM Engineering & Equipment,5.29565,100.28665
12002010,IJQ2010,Elsoft Research,5.292789,100.28856
12002051,IKH2051,Motorola,5.297999999999999,100.29276999999999
12000014,I0F0014,GUH Holdings,5.328583,100.30004
12002206,IAD0301,Hill Top,5.4781325999999995,100.2650227
12001412,IGQ1412,The Mansion,5.42345,100.33253
12001415,IGQ1415,Feruni,5.42541,100.32504
12000204,IAD0204,Apartment Baiduri,5.46443,100.23876
12000225,IAD0225,Feringghi Plaza,5.47743,100.2538
12000227,IAD0227,Mount Pleasure,5.47754,100.27243
12000231,IAD0231,Moon Light Caf√©,5.47801,100.26288000000001
12000234,IAD0234,Double Tree Resort,5.47825,100.26897
12001915,IIO1915,Hotel Armenian,5.415494,100.335
12001942,IIY1942,Kompleks Makanan,5.33636,100.29348
12002993,IIX1942,Presgrave Corner,5.41122,100.33043599999999
12000198,IAB0198,SJKC Weng Khai,5.29526,100.27976
12000308,IAR0308,Petronas,5.362509999999999,100.29554
12000568,ICA0568,Taman Dato Syed Abbas,5.3945099999999995,100.31638000000001
12001139,IFE1139,Kampung Batu Lima,5.280432,100.28036
12001141,IFE1141,Taman Gembira,5.28062,100.27474000000001
12001838,IID1838,SPICE,5.33071,100.28059
12000718,ICR0718,Sri Pangkor Kondominium,5.42875,100.31974
12000972,IEL0972,Gleneagles II,5.427282,100.31952
12001754,IHP1754,SMK Teluk Bahang,5.45075,100.21473
12002223,IKY2111,Dewan Teluk Bahang,5.45713881,100.21489682
12002250,IKY2511,HILLTOP,5.47794445,100.2650168
12000081,I0S0081,Sekolah Ikthisas Tentera Udara,5.45918,100.28918
12000078,I0R0078,Taman Pantai Jerejak,5.340268,100.30331
12000869,IDS0869,SMK Convent Green Lane,5.39722,100.30376
12000872,IDS0872,SMK Penang Free,5.40292,100.30405
12000576,ICA0576,SJK(C) MOH GHEE Cawangan,5.4004199999999996,100.3222
12001435,IGR1435,SRJK Kwang Hwa,5.33615,100.29726
12001439,IGR1439,Masjid Jamek Sg Nibong,5.340112,100.29935
12001457,IGR1457,KTM Motor,5.3727800000000006,100.30903
12001499,IGX1499,Tesco Sungai Dua,5.35025,100.29694
12000894,IDX0894,Kwang Tung & Teng Chow Association,5.43515,100.30301999999999
12001564,IGY1564,Petron Jalan Sungai Kelian,5.46497,100.29183
12000865,IDS0865,Gembira Parade,5.3891279999999995,100.30334
12001445,IGR1445,Taman Century,5.3477,100.30336
12002048,IKG2048,SMK Georgetown,5.3992,100.29881
12001594,MHB1594,Pekan Maklom,5.45055,100.40146999999999
12000039,M0I0039,Masjid Kubang Semang,5.39912,100.46474
12001338,MFT1338,Kolej Matrikulasi Kepala Batas,5.49712,100.43635
12001540,MGX1540,Masjid Al Marbawi,5.452975,100.436775
12001548,MGX1548,Masjid Nyior Sebatang,5.46106,100.44891
12001550,MGX1550,Nyior Sebatang,5.46652,100.45461999999999
12001557,MGX1557,Taman Pokok Sena Indah,5.47957,100.45745
12002359,ICT0102,Masjid Jamek Pongsu Seribu,5.497138,100.44274200000001
12000535,MBQ0535,SMK Dato Haji Ahmad Badawi,5.50721,100.42981
12000772,MCZ0772,Taman Guru,5.38209,100.46393
12001168,MFG1168,Pejabat Pelajaran,5.4176,100.43729
12001337,MFT1337,JPS Pokok Sena,5.4970989999999995,100.430435
12001771,IHQ1771,Masjid Sungai Batu,5.28632,100.241
12002305,ICT0035,Saujana Height,5.291580000000001,100.25035
12002307,ICT0037,Pekan Teluk Kumbar,5.28745,100.23263
12001449,IGR1449,Jejantas Batu Uban,5.3545,100.30856
12000500,MBM0500,Tali Air Pokok Macang,5.48851,100.47104
12000642,MCK0642,Kampung Selamat I,5.493930000000001,100.50885
12001591,MHB1591,Pekan Sungai Puyu,5.44873,100.39698
12001592,MHB1592,(M3) Taman Seri Pinang,5.449669999999999,100.39922
12000504,MBM0504,Pejabat Veterinar,5.48891,100.46059
12000649,MCK0649,Kampung Selamat II,5.49319,100.50822
12001886,IIG1886,SRJK Chong Teik,5.3512699999999995,100.23708
12001963,IJH1963,Cincaria Sdn. Bhd,5.314344,100.29616
12002277,ICV2031,Jalan Sungai Rusa 2,5.3786614,100.2140788
12000259,MAJ0259,Bertam Indah,5.5251,100.43509
12000387,MAY0387,Balai Polis Trafik Kepala Batas,5.52289,100.42712
12000708,MCQ0708,Lahar Ikan Mati,5.53074,100.42953
12002546,ICT0703,Pasar Awam Kepala Batas,5.515288,100.415881
12000140,I0Z0140,Pekan Kongsi,5.35078,100.23510999999999
12000167,IAA0167,SK Sg. Korok,5.3537,100.20965
12000171,IAA0171,Hadapan Masjid Jalan Baru,5.35715,100.2104
12000629,ICI0629,Lrg Kpg Perlis 3,5.31961,100.20483
12000652,ICL0652,Kampung Pulau Betong 2,5.30379,100.19846
12000660,ICL0660,Kampung Terang,5.32126,100.21199
12000736,ICV0736,Kg. Sungai Korok,5.352930000000001,100.20356
12001569,IHA1569,Taman Impian,5.35206,100.23124
12001574,IHA1574,Pejabat Agama Daerah,5.35669,100.22716
12002258,ICV1002,Titi Sungai Korok,5.352684,100.2055337
12000985,IEN0985,Pusat Falak Sheik Tahir,5.4116800000000005,100.19651999999999
12000986,IEN0986,Hub Pantai Acheh,5.41632,100.19726999999999
12001614,IHD1614,Sekolah Agama Sungai Rusa,5.384957,100.21305
12001618,IHD1618,Kampung Sungai Rusa,5.38703,100.21226
12001619,IHD1619,Madrasah Tahfiz - Irfanratul,5.39123,100.21046
12002345,ICT0082,TM Point Perda,5.368551999999999,100.436851
12002969,JPB0001,Jalan Perda Barat I,5.366708900000001,100.43406359999999
12002970,JPB0002,Jalan Perda Barat II,5.3677931,100.4322504
12001025,IER1025,JKR Paya Terubong,5.38604,100.27467
12000068,I0Q0068,CIMB Bank Ayer Itam,5.4053,100.28384
12000626,ICH0626,Makam Shaikh Omar,5.40091,100.28718
12002300,ICT2024,Klinik Kesihatan  Air Itam,5.40604,100.28224
12000051,I0M0051,Kolej MSU,5.41477,100.31888000000001
12000937,IEE0937,(M3) SMK Abdullah Munshi,5.40857,100.31331
12000135,I0Z0135,Kolej Kemahiran Tinggi Mara Balik Pulau,5.33228,100.21706999999999
12000149,I0Z0149,SK Kongsi,5.34619,100.23028000000001
12002313,ICT0019,Pejabat Pos B.Pulau,5.3492573,100.23353780000001
12002208,I0M0054,Pasar Jalan Anson,5.416127599999999,100.3209253
12001383,IGH1383,Palm / Nipah Court,5.45043,100.30725
12002977,IJA2000,Taman Alor Vista I,5.341661,100.269612
12003025,IAR0359,Kompleks Eureka,5.354763,100.30273000000001
12001341,MFU1341,Pusat Perniagaan Raja Uda,5.4164,100.37955
12001345,MFU1345,Taman Anggerik,5.42596,100.38276
12001524,MGX1524,Shell Sg. Lokan,5.44853,100.41405
12000109,M0W0109,Taman Carissa Villa,5.4235,100.39725
12000113,M0W0113,Pusat Perniagaan Taman Mesra,5.43041,100.397
12002386,ICT0130,Pejabat Agama Daerah SPU,5.4895011,100.39712420000001
12002024,MJY2024,SMK Tun Hussein Onn,5.38805,100.40646
12002125,MLC2115,Padang Permainan Taman Nagasari,5.36497,100.41395
12002127,MLC2117,Padang Permainan Taman Nagasari,5.3649,100.41395
12002129,MLB2119,Warung Bonda,5.3612,100.41079
12002130,MET2120,Nashmir Car Park,5.340143,100.42792
12001282,MFL1282,Pusat Perniagaan Juru Evenue,5.32564,100.43531999999999
12002585,ICT0700,Pusat Perniagaan Desa Wawasa,5.358213,100.447397
12002296,ICT0017,Temple Jalan Tun Sardon,5.3392599999999995,100.2375
12000241,IAE0241,Institut Penyelidikan Perikanan,5.28554,100.28662
12000312,IAR0312,Jalan Permai 1,5.37326,100.29838000000001
12001147,IFE1147,Kampung Binjai,5.2834,100.25713
12001148,IFE1148,Muzium Perang,5.28372,100.28618
12002497,ICT0329,Terusan Air itam,5.144508999999999,100.413652
12001076,IEX1076,Kampung Dodol,5.40492,100.31538
12002278,IKY2201,Klinik Comfort,5.397133,100.31464799999999
12000246,IAF0246,Kampung Sungai Ara,5.32355,100.27444
12000410,IBE0410,SK Bayan Lepas,5.29676,100.25974000000001
12000413,IBE0413,Bayu Mutiara,5.297193,100.25646
12000432,IBE0432,SMK Sungai Ara,5.3196699999999995,100.27074
12000509,IBN0509,Gertak Sanggul,5.2792699999999995,100.20470999999999
12000514,IBN0514,Taman Pasir Belanda,5.284813,100.21954000000001
12000522,IBN0522,Balai Polis Teluk Kumbar,5.28742,100.23045
12001492,IGX1492,Terminal Ekspress Sg Nibong,5.342442,100.29952
12001500,IGX1500,Tesco Sungai Dua,5.35118,100.29788
12001504,IGX1504,USM,5.352876999999999,100.30185
12001955,IJE1955,Krystal Point Corporate Park,5.330701,100.298996
12002012,IJS2012,Lintang Kg. Masjid,5.288959999999999,100.22724000000001
12002059,IKJ2059,Queensbay Mall,5.331947,100.30790999999999
12000071,I0Q0071,Masjid Negeri P.Pinang,5.407769999999999,100.29997
12000839,IDJ0839,St. Christoper School,5.42288,100.30614
12001011,IER1011,Apartmen Taman Bendera,5.3396,100.27426
12001020,IER1020,Oriental Garden,5.37547,100.27575999999999
12001355,IFV1355,(M2) SK Jalan Residensi,5.42026,100.31155
12001368,IGA1368,Heritage Club,5.41869,100.30466
12001422,IGR1422,Sungai Tiram,5.302697,100.27651
12001432,IGR1432,Taman Mahsuri,5.32846,100.29335999999999
12001814,IHX1814,Pasaraya Sunshine Farlim,5.39577,100.28657
12000205,IAD0205,Apartment Baiduri,5.46459,100.23866
12000221,IAD0221,Long Beach,5.4749,100.25005
12000237,IAD0237,Basket Ball Court,5.4802599999999995,100.26052
12000828,IDJ0828,Masjid Simpang Enam,5.414540000000001,100.32774
12000832,IDJ0832,Tropicana Hotel,5.418019999999999,100.32038
12001917,IIP1917,Little India,5.4164699999999995,100.33854000000001
12002057,IKI2057,Church Street Pier,5.41664,100.34413
12002204,IAD0300,By The Sea,5.4691428,100.2443992
12002253,IKY2514,Moon Light Bay,5.47848702,100.2616271
12002972,IIR1927,Swettenham Pier Cruise Terminal,5.4185041,100.34508129999999
12000602,MCD0602,SJKC Chung Hwa Pusat,5.41634,100.37329
12000604,MCD0604,Masjid Kubang Buaya,5.41944,100.37469
12001116,MFC1116,Tali Air Permatang Bendahari,5.55865,100.3771
12001121,MFC1121,Kampung Sungai Kedak,5.567830000000001,100.37629
12001122,MFC1122,Permatang Bendahari,5.57297,100.37571
12001717,MHO1717,(M3) Pangkalan TUDM,5.463769999999999,100.38248
12001720,MHO1720,SK Taman Senangan,5.471480000000001,100.38296
12002322,MEM0973,(M1) Penang Sentral,5.3948602,100.3653495
12000096,M0U0096,Pejabat Pos Bagan Ajam,5.43869,100.3811
12001052,MEU1052,Permatang Berah,5.51375,100.38306
12001710,MHO1710,SMK ST Mark,5.44958,100.383
12001721,MHO1721,SK Taman Senangan,5.4717199999999995,100.38309
12001726,MHO1726,Masjid Jamek Daerah SPU,5.479248999999999,100.383484
12000007,I0D0007,Container Hotel,5.41415,100.34042
12001019,IER1019,Surau Al Muttaqin,5.37176,100.27534
12001374,IGE1374,Nasi Kandar Salam,5.405191,100.28876
12001916,IIP1916,Restoran Kapitan,5.41602,100.33892
12001510,MGX1510,Desa Murni,5.4404900000000005,100.42953
12001553,MGX1553,Simpang Lahar Yooi,5.4691,100.45682
12002119,MAI0254,IPD Seberang Prai Utara,5.5140447,100.4395871
12002201,MOO0056,(M1) The Summit,5.3657975,100.462624
12000252,MAI0252,Hospital Kepala Batas,5.51283,100.43711
12001849,MIE1849,(M2) Taman Sepadu,5.487509999999999,100.49526
12001853,MIE1853,Taman Seri Menerong,5.513803,100.50583
12002072,MKM2072,MPC,5.5153300000000005,100.4457
12002075,MKM2075,Sunshine Bertam,5.51561,100.44977
12002574,ICT8309,Midtown PERDA,5.502243,100.501664
12000623,ICH0623,Medan Niaga Kampung Melayu,5.39941,100.28599
12000809,IDE0809,Perumahan Kastam,5.37408,100.30198
12001212,MFH1212,Kawasan Industri Mak Mandin,5.4134400000000005,100.39491
12002372,ICT0116,Shell Mak Mandin,5.414322,100.388326
12001189,MFH1189,Kawasan Industri Mak Mandin,5.41246,100.39816
12001190,MFH1190,Taman Ampang Jajar,5.41376,100.40154
12001193,MFH1193,Taman Bagan II,5.414540000000001,100.38274
12001201,MFH1201,Kampung Pertama,5.38516,100.41869
12002370,ICT0113,Taman Bagan III,5.414457,100.38091700000001
12001067,MEW1067,(M2) Megamall - Pacific,5.37879,100.39794
12002020,MJW2020,Pangsapuri D18,5.39595,100.40404000000001
12000179,MAA0179,Kuil Sri Muniswara,5.380380000000001,100.39541
12002529,ICT0302,Poliklinik Famili,5.391042,100.401315
12002530,ICT0303,Hotel Blanket,5.3948529999999995,100.40001
12000803,MDA0803,Taman Tenang,5.35147,100.47639000000001
12002021,MJW2021,Lintang Tenggiri,5.396186,100.402794
12002541,ICT0234,SK Convent Bukit Mertajam,5.359338,100.465325
12000134,M0Y0134,MSU,5.63274,100.48289
12002979,PLH0001,CP1,5.458735099999999,100.4193436
12000284,MAM0284,Kilang Silitech,5.256390000000001,100.4724
12000337,MAU0337,Klinik Kesihatan Bukit Minyak,5.32642,100.44798
12000846,IDN0846,Jalan Mahsuri,5.32677,100.28886
12001005,IER1005,Flat 88,5.33592,100.27525
12001010,IER1010,Apartmen Taman Bendera,5.339542,100.27439
12001896,IIK1896,Komplek Masyarakat Penyayang,5.41817,100.30575
12000044,M0J0044,Pekan Junjung,5.297969999999999,100.53416
12001271,MFK1271,Taman Perwira,5.29726,100.47861
12000042,M0J0042,SK. Permatang Tiong,5.289569999999999,100.53738
12000047,M0K0047,SK Alma,5.3320099999999995,100.47456
12000404,MBD0404,SM Sains Tun Syed Sheh Shahabudin,5.34162,100.47417
12001686,MHK1686,Taman Puteri Gunung,5.285069999999999,100.50108
12001893,MIJ1893,JPA Bukit Mertajam,5.35942,100.46595
12002587,ICT0420,AADK Bukit Mertajam,5.343323000000001,100.471626
12000786,MDA0786,Taman Machang Bubok,5.34236,100.50032
12000797,MDA0797,Gereja St Anne,5.351255,100.47725
12000806,MDB0806,Petronas Taman Chai Leng,5.386939,100.39364
12001180,MFH1180,UITM,5.38391,100.41908000000001
12001808,MHV1808,Pasar Awam,5.392678,100.401474
12002528,ICT0301,Padang Sony,5.38697,100.3988
12000920,MEB0920,Taman Sintar,5.18508,100.48657
12000921,MEB0921,Taman Jawi Ria,5.19303,100.49091999999999
12000925,MEB0925,Taman Jawi Jaya,5.20034,100.49492
12001256,MFK1256,Menara Kerjaya Simpang Empat,5.2649300000000006,100.47425
12001485,MGV1485,Taman Gamelan,5.23077,100.49233000000001
12000184,MAA0184,SK Jalan Baru,5.36751,100.4194
12000330,MAU0330,Taman Markisah,5.31745,100.46007
12000333,MAU0333,Taman Perindustrian Bukit Minyak 2,5.32134,100.45284000000001
12000346,MAW0346,Taman Tanah Aman,5.35248,100.43186
12001277,MFK1277,Kawasan Perusahaan Permatang Tinggi,5.30701,100.4694
12002340,ICT0077,SK Kebun Sireh,5.358292,100.436352
12000440,MBF0440,Kampung Dato Keramat,5.15095,100.47223000000001
12002988,IIL1950,(M1) Hub Lebuh Carnavon,5.4126216,100.3319975
12002219,IKY2107,Lembah Permai,5.45745757,100.28921211
12001981,IJJ1981,Batu Uban Highway,5.351251,100.30986
12002004,IJQ2004,Kobe Precision Technology,5.302061,100.291214
12002006,IJQ2006,K.K Chong Engineering,5.300322,100.286674
12002064,IKJ2064,Gold Coast Kondominium,5.339738,100.30965
12001018,IER1018,(M1) Hub Paya Terubong - Petronas,5.371595,100.274925
12002115,IIG1885,Terminal Bas Balik Pulau,5.351447900000001,100.2398239
12002283,ICT0004,Jalan Tun Sardon KM380,5.34466,100.24899
12000478,IBJ0478,Jalan Evergreen,5.4533,100.30272
12000814,IDF0814,Sekolah Kebangsaan Pendidikan Khas,5.45905,100.28022
12000895,IDX0895,Chinese Cemetery,5.4371,100.30277
12001563,IGY1563,Petron Jalan Sungai Kelian,5.464930000000001,100.2915
12000218,IAD0218,Night Market,5.473932,100.24842199999999
12000193,IAB0193,LSS Electric,5.2919,100.27847
12000194,IAB0194,Jalan Baru Batu Maung,5.29231,100.27854
12000244,IAE0244,Hub Batu Maung,5.28965,100.28014
12000419,IBE0419,(M3) Taman Rajawali 2,5.30428,100.26281
12000429,IBE0429,Kem Sungai Ara,5.31706,100.2681
12000571,ICA0571,Shell Jelutong,5.39617,100.3181
12000573,ICA0573,Maybank Jelutong,5.397714,100.31981999999999
12001134,IFE1134,Sekolah Memandu Damar Laut,5.2786599999999995,100.26476
12001151,IFE1151,Southbay Residence,5.283968,100.28633
12001158,IFE1158,SJK Tamil Bayan Lepas,5.29338,100.25681
12000358,IAX0358,SK Pykett Methodist,5.42197,100.32365
12000723,ICR0723,Sleeping Buddha,5.4320900000000005,100.31404
12001644,IHI1644,Balai Bomba Bagan Jermal,5.44088,100.30719
12001663,IHJ1663,Mercure Penang Beach Hotel,5.46354,100.30138000000001
12001673,IHJ1673,Infinity,5.4657599999999995,100.28574
12001756,IHP1756,Klinik Kesihatan Teluk Bahang,5.45571,100.21466
12001761,IHP1761,Aseania Court,5.45757,100.2078
12001762,IHP1762,Pasar Teluk Bahang,5.45759,100.21274
12002210,IAD0240,Moon Light Bay,5.4785998,100.2613588
12002251,IKY2512,Feringghi Villa,5.46523363,100.24108509999999
12002975,IHP1900,Hotel Angsana,5.461570099999999,100.2199492
12000808,IDD0808,Hotel Royal,5.422333999999999,100.3258
12000483,IBL0483,Jalan Gajah I,5.4623,100.30374
12000842,IDL0842,Jalan Magazine,5.411939,100.333
12001069,IEX1069,Asrama Munshi,5.392361,100.31354
12001459,IGR1459,Recsam,5.37671,100.30803
12001503,IGX1503,USM,5.3528400000000005,100.30185999999999
12001505,IGX1505,USM,5.35307,100.30315
12001939,IIW1939,Wisma Ong Hye Guon Thong,5.409269999999999,100.33018
12000896,IDX0896,Chinese Cemetery,5.43729,100.30266999999999
12001894,IIK1894,Hospital P.Pinang II,5.41561,100.31017
12000519,IBN0519,SKJK Poi Eng,5.28233,100.19604
12000523,IBN0523,Kg. Nelayan Teluk Kumbar,5.28805,100.22803
12000618,ICG0618,Flat Kg. Suluk,5.28822,100.22223000000001
12001640,IHH1640,Balai Polis Jelutong,5.3914,100.31241999999999
12001038,MES1038,Masjid Permatang Tok Jaya,5.4574169999999995,100.40129
12001045,MES1045,Persimpang Jalan Haji Murshid,5.47717,100.40144000000001
12002376,ICT0120,Astaka Mak Mandin,5.416078,100.385958
12002384,ICT0128,Masjid Pekan Darat,5.475678,100.401353
12000031,M0I0031,SM Islam Al-Masriyah,5.37331,100.46436
12000034,M0I0034,Kolej Komuniti Bkt Mertajam,5.38,100.46451
12001506,MGX1506,Taman Desa Murni,5.43508,100.43078
12002353,ICT0096,Masjid Al Muhtadin,5.4073150000000005,100.453327
12002354,ICT0097,Madrasah Al Nur,5.409257,100.448291
12000475,MBI0475,Taman Bertam Ria,5.51,100.43351
12001173,MFG1173,Kampung Kota I,5.4259699999999995,100.4346
12001328,MFT1328,SMKA Al Irshad,5.48998,100.45747
12001332,MFT1332,Taman Koskam,5.49377,100.45107
12000579,ICA0579,Peugeot Center,5.40105,100.32306
12000492,MBM0492,Permatang Berangan C,5.484716000000001,100.48724
12000643,MCK0643,SK Kg Selamat,5.49828,100.51966
12001521,MGX1521,Kampung Teluk Sungai Dua,5.4463,100.42209
12001529,MGX1529,Petronas Sg. Lokan,5.4491,100.41203
12000496,MBM0496,Kg Air Melintas Besar,5.48712,100.4778
12000645,MCK0645,Kampung Master,5.47844,100.50137
12000647,MCK0647,Kampung Besar,5.48401,100.50388000000001
12002553,ICT8000,Bandar Baru Perda,5.293231,100.23228
12001961,IJH1961,Knowles Electronics,5.312894,100.298615
12002225,IKY2114,Dewan JKKP Titi Teras,5.35991737,100.22315986
12000099,M0U0099,Bagan Ajam,5.445209999999999,100.38213
12000374,MAY0374,Permatang Binjal,5.50344,100.39402
12000377,MAY0377,Permatang Sintok,5.51075,100.40301
12000379,MAY0379,Taman Permatang Sintok,5.51296,100.40535
12000375,MAY0375,Permatang Pak Elong,5.5078,100.40002
12000381,MAY0381,Pasar Permatang Manggis,5.51526,100.41605
12000705,MCQ0705,Kampung Datuk,5.5254900000000005,100.42801999999999
12000201,MAC0201,Pekan Sungai Acheh,5.14625,100.42099
12001469,MGT1469,Masjid Al Fatah,5.14703,100.45026999999999
12001476,MGT1476,(M3) SMK Sungai Acheh,5.1498099999999996,100.45918
12001627,MHE1627,(M1) Masjid Sungai Acheh,5.14843,100.42158
12002281,ICT0002,AADK Pekan Kongsi,5.35041,100.23451
12000162,IAA0162,Kg Sungai Burung,5.3480300000000005,100.20872
12000164,IAA0164,Jalan Baru,5.35005,100.20906
12000175,IAA0175,Balai Polis,5.36471,100.21568
12001580,IHA1580,Pejabat Kesihatan Barat Daya,5.36391,100.21857
12001582,IHA1582,Pejabat Kesihatan Barat Daya,5.36428,100.21804
12001608,IHD1608,Kraf Batik Sungai Rusa,5.37743,100.21433
12001610,IHD1610,Jalan Sungai Rusa 1,5.380380000000001,100.21415
12001616,IHD1616,Kampung Sungai Rusa,5.386691000000001,100.212326
12002550,ICT0707,Pekan Sg. Puyu,5.44872,100.39716999999999
12002630,MCK0915,TAMAN LAGENDA,5.5134471,100.53434870000001
12001195,MFH1195,Taman Cantik,5.414630000000001,100.38273000000001
12001208,MFH1208,Permatang Janggus,5.40447,100.41627
12001929,IIS1929,Protestant Cemetry,5.4228,100.33394
12001934,IIU1934,Padang Kota Lama,5.41994,100.34257
12001936,IIU1936,Dewan Sri Pinang,5.420669999999999,100.34076
12001031,IER1031,Desa Permata,5.39341,100.27625
12001033,IER1033,SJK Kong Min II,5.3952860000000005,100.2767
12002615,ICT1112,Ideal One Resident,5.301474,100.266912
12001785,IHQ1785,Hentian Kampung Bukit,5.29662,100.23239000000001
12001786,IHQ1786,Kampung Matahari Naik,5.29946,100.23201999999999
12000470,IBG0470,Jalan Delima 5,5.380269999999999,100.30263000000001
12000136,I0Z0136,SMK Pondok Upeh,5.336040000000001,100.2197
12001944,IIZ1944,Bank OCBC,5.4168400000000005,100.34156999999999
12002213,IFW1399,Komtar II,5.4150168,100.33089240000001
12003136,IJK1993,SMJK Phor Tay,5.3437038,100.2959125
12001349,MFU1349,Jalan Raja Uda I,5.4293,100.38386
12001396,MGM1396,Jalan Siram II,5.41293,100.37854
12001907,MIM1907,Pusat Perniagaan Ong Yi How,5.43533,100.3891
12001340,MFU1340,Pusat Perniagaan Raja Uda 2,5.41628,100.37971
12000110,M0W0110,Apartmen Centro View,5.4248,100.39699
12000108,M0W0108,Taman Bagan Lalang,5.42154,100.3972
12002123,MLB2113,Kilang Punch,5.36104,100.41064
12002511,ICT0409,Asrama Mattel,5.343304,100.42628
12002521,ICT0411,Taman Perusahaan Ringan Juru,5.316523999999999,100.43231
12000287,MAO0287,Pejabat MPSP,5.35531,100.45097
12002517,ICT0404,Pusat Perniagaan Juru,5.318611,100.44724000000001
12002518,ICT0405,Taman Perindustrian Beringin,5.31556,100.434065
12001980,IJI1980,Shineville Park,5.39926,100.29571999999999
12002023,IJX2023,SMK Georgetown,5.3990599999999995,100.29873
12002292,ICT0013,Sardon Hill,5.34883,100.26213
12000301,IAR0301,SMK Bukit Jambul,5.347928,100.291595
12002489,ICT0320,Sungai Setar,5.1466746,100.445002
12002492,ICT0324,Kuala Sg.Udang II,5.162074,100.420693
12002494,ICT0326,Kampung Chenaam II,5.143078,100.40687199999999
12001074,IEX1074,Klinik Kesihatan,5.40262,100.31514
12001088,IEX1088,Taman Zainal Abidin,5.40909,100.3161
12000079,I0R0079,Taman Pantai Jerejak,5.34052,100.3029
12000510,IBN0510,Hub Gertak Sanggul,5.28146,100.19015
12000511,IBN0511,Gertak Sanggul Seafood,5.28193,100.19131999999999
12000613,ICG0613,SMK Teluk Kumbar 2,5.290398000000001,100.22214
12001774,IHQ1774,Flat Taman Emas Sungai Batu,5.28641,100.23697
12001775,IHQ1775,Restoran Sri Anjung Ikan Bakar,5.286649,100.23472
12002105,IKY2105,7-Eleven Teluk Kumbar,5.2934,100.23043
12001418,IGR1418,The Star Publication,5.298109999999999,100.26985
12001843,IID1843,Kompleks Bukit Jambul II,5.33242,100.29099000000001
12001971,IJI1971,Perumahan PDRM,5.38794,100.27821
12000219,IAD0219,Pantai Shamrock,5.47487,100.27669
12000224,IAD0224,Hotel Golden Sands,5.4760599999999995,100.2515
12000367,IAX0367,Belissa Row,5.43251,100.31017
12001653,IHI1653,Taman Batu Bukit,5.45231,100.30598
12001664,IHJ1664,Mercure Penang Beach Hotel,5.4638599999999995,100.30121
12001667,IHJ1667,Penang Swimming Club,5.4648699999999995,100.29629
12001764,IHP1764,Hub Teluk Bahang,5.458819999999999,100.21611
12001835,IIC1835,Transfer Road,5.420875,100.330605
12002114,IKI2053,(M1) JETTY B,5.4137915,100.34177820000001
12001107,MFC1107,Dewan Bakar Kapor,5.537692,100.37945
12001109,MFC1109,Masjid Jamek Bakar Kapor,5.5399709999999995,100.37878
12001112,MFC1112,Pasir Gebu,5.54709,100.37777
12001118,MFC1118,Kampung Tok Oteh,5.5637300000000005,100.37671999999999
12000601,MCD0601,SJKC Chung Hwa Pusat,5.41552,100.37302
12000605,MCD0605,Masjid Kubang Buaya,5.419630000000001,100.37489000000001
12001054,MEU1054,Permatang Pak Maras,5.51724,100.38268000000001
12001055,MEU1055,Kg Penaga Dua,5.5210300000000005,100.3821
12001108,MFC1108,Dewan Bakar Kapor,5.53771,100.37949
12001117,MFC1117,Tali Air Permatang Bendahari,5.55866,100.37713000000001
12001707,MHO1707,Bagan Ajam,5.44428,100.38211
12000967,IEJ0967,Kuartes PBA,5.409590000000001,100.29346
12001021,IER1021,Oriental Garden,5.3757,100.27586
12001061,IEV1061,Pasar Chowrasta,5.418131,100.331245
12002991,IHY1823,Desa Mawar,5.3989764000000005,100.2895542
12000058,I0Q0058,Pejabat Pos Ayer Itam,5.4038,100.27982
12001522,MGX1522,Taman Seri Murni,5.44643,100.43056999999999
12001541,MGX1541,Taman Merbau Indah,5.453180000000001,100.43755999999999
12001551,MGX1551,SK Lahar Yooi,5.46787,100.45581999999999
12002117,MGX1544,(M2) Taman Merbau Jaya,5.4564473,100.4427227
12000487,MBM0487,SK Tasek Gelugor,5.48298,100.49216
12000508,MBM0508,Pejabat Pos Tasek Gelugor,5.48184,100.49436999999999
12001862,MIE1862,(M1) SMK Sains Kepala Batas,5.51931,100.46866
12001869,MIE1869,Kampung Pokok Jenerih,5.52158,100.5006
12002074,MKM2074,Bertam Walk,5.51553,100.44816999999999
12002567,ICT8301,Kampung Pokok Jenerih I,5.521622,100.502778
12002572,ICT8307,Bertam Putra 3,5.519909999999999,100.493445
12002966,MIE1861,SMK Sains Kepala Batas,5.5189257000000005,100.46866949999999
12002967,MIE1859,Kolej Jururawat,5.518196,100.4621857
12002997,MIE1882,Taman Tasek Gelugor Utama II,5.491105,100.49778
12000018,I0G0018,Flat Taman Tun Sardon,5.371519999999999,100.30283
12000022,I0G0022,Dewan JKKK,5.37275,100.30266999999999
12000313,IAR0313,SK Bukit Gelugor,5.37685,100.30202
12000465,IBG0465,Jalan Delima 2,5.3800099999999995,100.30060999999999
12000468,IBG0468,Jalan Delima 5,5.38354,100.30242
12000934,IEE0934,SMK Abdullah Munshi,5.40854,100.31325
12002221,IKY2109,Jalan Besi II,5.39201,100.29974
12001210,MFH1210,Taman Arowana,5.410480000000001,100.41197
12001701,MHN1701,Maktab Wan Jah,5.41322,100.37374
12001702,MHN1702,Pangsapuri Telaga Emas,5.4134400000000005,100.37468
12001191,MFH1191,PPR Ampang Jajar,5.41404,100.40541999999999
12001221,MFI1221,Kampung Permatang Rawa,5.36892,100.45022
12002368,ICT0111,Gold Coin Mak Mandin,5.413702,100.39394399999999
12000190,MAA0190,(M3) GEM Megamall,5.38052,100.39569
12000396,MBA0396,Stor TNB,5.40036,100.37676
12001830,MIB1830,Prudential,5.39674,100.39963
12001877,MIF1877,Masjid Seberang Jaya,5.38675,100.40491
12000909,MEA0909,SMK Convent Butterworth,5.39697,100.36834
12000911,MEA0911,Harbour Place,5.39815,100.37133
12002532,ICT0305,JPJ Seberang Jaya,5.399355,100.408847
12002535,ICT0307,SK Machang Bubok I,5.330297,100.503625
12000784,MDA0784,Jalan Machang Bubok 2,5.3419099999999995,100.50079000000001
12000801,MDA0801,SK Juara,5.34657,100.48743
12000804,MDA0804,SJK(C) Kim Sen,5.356240000000001,100.46761
12002349,ICT0091,Econsave ChainFerry,5.400066000000001,100.376499
12002536,ICT0308,Pusat Perniagaan Machang Bubok II,5.3330459999999995,100.50403299999999
12002538,ICT0310,Kampung Teluk Bukit,5.345768,100.489882
12000596,MCC0596,Central Square,5.63629,100.48702
12000541,MBT0541,Pusat Bandar,5.64414,100.48924
12000274,MAL0274,Kinik Kesihatan Sungai Bakap,5.2171400000000006,100.49754
12000066,I0Q0066,SMK Chung Ling (P)(Kampung baru),5.40512,100.29399000000001
12001013,IER1013,Simpang Tingkat Bukit Jambul,5.345861,100.27282
12001366,IGA1366,SJK Ramakrishna,5.41292,100.30228000000001
12001683,MHK1683,Gerai Tasek,5.28456,100.51335
12001689,MHK1689,Masjid Padang Lalang,5.28477,100.50929000000001
12001694,MHL1694,(M2) Pearl City Mall,5.2777,100.49188000000001
12002577,ICT0245,Masjid Jamek Tasik Junjung,5.296951,100.527839
12001267,MFK1267,Pusat Perniagan Simpang Empat,5.2889800000000005,100.47819
12001687,MHK1687,Taman Tasek,5.28515,100.49750999999999
12001695,MHL1695,(M3) Pearl City Mall,5.27789,100.49068
12002596,ICT0220,Taman Tasek Indah,5.284905,100.50668
12002600,ICT0224,Pekan Junjung,5.298019999999999,100.534257
12000785,MDA0785,Taman Machang Bubok II,5.34196,100.50327
12000792,MDA0792,Kampung Teluk Bukit,5.345993,100.48952
12001091,MEZ1091,Perda Utama,5.36954,100.44121
12001182,MFH1182,Kampung Pertama Baru,5.39013,100.41805
12000353,MAW0353,Taman Tanah Aman,5.35289,100.43148000000001
12000354,MAW0354,Masjid Balik Bukit,5.3541099999999995,100.42886
12001276,MFK1276,Taman Industri Ringan,5.30628,100.47027
12000280,MAM0280,Kawasan Perindustrian Valdor,5.24421,100.48186
12000344,MAW0344,Kampung Bersatu,5.34077,100.43800999999999
12000922,MEB0922,Masjid Daerah Jawi,5.1945,100.49155999999999
12002336,ICT0073,Masjid Lama Sungai Bakap,5.221641,100.497324
12000961,MEI0961,KTM BM,5.36529,100.44748
12000269,MAK0269,Taman Seri Acheh,5.144709,100.46968000000001
12000914,MEB0914,Nibong Tebal,5.16746,100.47877
12002164,8041001,Taman Seri Semarak,5.1225,100.48666667
12000268,MAK0268,Taman Suria,5.142930000000001,100.46883000000001
12000915,MEB0915,Hub Nibong Tebal,5.168019999999999,100.47896999999999
12001369,MGB1369,Pasaraya Mydin,5.12812,100.48236999999999
12001102,MFB1102,Petron Permatang Batu,5.36447,100.4297
12002108,M002108,Jambatan Pulau Pinang,5.355802,100.39232
12002030,IJZ2030,TAR Kolej II,5.4536,100.28648000000001
12002350,ICT0092,Masjid Permatang Batu,5.364658,100.428157
12000025,I0H0025,Venture Electronics,5.301667,100.29406999999999
12000026,I0H0026,Jabil Circuit,5.304328,100.29144000000001
12000609,ICE0609,Fastron,5.3249889999999995,100.29604
12002003,IJQ2003,MOX,5.292808,100.285736
12002050,IKH2050,Pentamaster,5.295761,100.28863
12002303,ICT0031,KWSP Queensbay,5.33692,100.30844
12002974,IDN2000,Terminal Bas Bayan Baru,5.3269589999999996,100.2803228
12002066,IKJ2066,Putra Place,5.339915,100.30946
12002284,ICT0005,Sardon Hill,5.348669999999999,100.26165
12002285,ICT0006,Persimpangan Relau,5.35499,100.27125
12002295,ICT0016,Kebun Bunga Bukit Baru,5.34105,100.24429
12001882,IIG1882,Kebun Bunga Bukit Baru,5.341164,100.24450999999999
12002209,IGH1387,Straits Quay Marina Mall,5.457885900000001,100.3126561
12000817,IDF0817,Kondominium Azuria,5.46375,100.28027
12001927,IIS1927,Padang SMK Convent,5.421209999999999,100.33756
12000202,IAD0202,Tropical Spice Garden,5.46338,100.22887
12000220,IAD0220,Long Beach Food Court,5.474880000000001,100.25003000000001
12000223,IAD0223,Golden Sands,5.4759199999999995,100.25143
12000200,IAB0200,Kampung Naran,5.29889,100.2811
12000243,IAE0243,Balai Polis Batu Maung,5.288130000000001,100.28227
12000300,IAR0300,SMK Bukit Jambul,5.3478900000000005,100.29174
12000416,IBE0416,Kompleks Tabung Haji,5.30021,100.26228
12000581,ICA0581,Bukit Dumbar,5.385280000000001,100.31048
12001153,IFE1153,Jejantas SMK Bayan Lepas,5.28683,100.2565
12001154,IFE1154,Kampung Seronok,5.29012,100.2568
12001911,IIO1911,Lebuh Carnavon,5.41477,100.33431999999999
12002255,IKY2516,Pekan Bayan Lepas,5.29411,100.25771999999999
12001646,IHI1646,Masjid Bagan Jermal,5.4436,100.30578
12001650,IHI1650,Wisma Binjul,5.44843,100.30521999999999
12001652,IHI1652,Island Plaza,5.4501599999999994,100.30523000000001
12001752,IHP1752,SMK Teluk Bahang,5.4505419999999996,100.214867
12001757,IHP1757,Flat Hassan Abbas,5.45737,100.20985999999999
12002249,IKY2510,Tanjong Tokong,5.45684938,100.30726170000001
12000870,IDS0870,Restoran McDonald,5.401269999999999,100.30418
12001070,IEX1070,Sunshine Jelutong,5.3939,100.31424
12002315,ICT0048,Gedung Height III,5.31643,100.281049
12001501,IGX1501,Restoran Nasi Kandar Pelita,5.3520199999999996,100.29904
12001584,IHA1584,Jejantas Jalan Sungai Pinang,5.3998800000000005,100.32544
12002139,IGR2127,Terminal Bas Ekspres Sg Nibong,5.342838700000001,100.3003478
12002990,IDX1506,Jalan Sungai Dua,5.3540041,100.30608459999999
12000900,IDX0900,Kompleks Institut Pendidikan,5.45006,100.30207
12001410,IGQ1410,SMKA (P) Al Mashoor,5.42333,100.33028
12002026,IJZ2026,TAR Kolej II,5.45352,100.2863
12002062,IKJ2062,Bay Garden,5.33694,100.30833
12000620,ICG0620,Jalan Kg. Suluk,5.29246,100.22298
12001978,IJI1978,Balai Polis,5.395105,100.28905
12001043,MES1043,SMK Permatang Tok Jaya,5.47319,100.40124
12002036,MKA2036,Flat Mak Mandin,5.41975,100.38696999999999
12001166,MFG1166,SK Permatang Pasir,5.41464,100.43781
12001335,MFT1335,Taman Orkid,5.49599,100.44553
12001526,MGX1526,SK Sungai Dua,5.448580000000001,100.432
12001552,MGX1552,SK Lahar Yooi,5.468138,100.45597
12001559,MGX1559,Pokok Sena,5.48456,100.45747
12001562,MGX1562,Klinik Kesihatan,5.44249,100.42988000000001
12002202,MCZ0782,SK. Bukit Indera Muda,5.4074526,100.4571627
12002357,ICT0100,Taman Pasir Indah,5.429722,100.43177
12000531,MBQ0531,Taman Seri Indah,5.50159,100.42957
12000533,MBQ0533,Taman Seri Serdang,5.504441,100.42966
12000770,MCZ0770,Masjid Tanah Liat,5.37823,100.46494
12000773,MCZ0773,SK Tanah Liat,5.38503,100.46339
12000089,M0U0089,Taman Bagan Jermal,5.4268,100.37694
12000125,M0X0125,Public Mutual Bagan Luar,5.41006,100.37083
12000505,MBM0505,Dewan Sri Pokok Macang,5.48895,100.46866
12001536,MGX1536,Masjid Alor Merah,5.45055,100.40517
12002621,MCK0906,PEKAN PADANG SERAI,5.5137700999999995,100.5521371
12002624,MCK0909,Stesen Bas Padang Serai,5.5067888,100.5515862
12000497,MBM0497,Masjid Pokok Macang,5.48778,100.4753
12000502,MBM0502,Taman Sena Jaya 1,5.4888699999999995,100.45854
12000646,MCK0646,Taman Bakawali,5.48005,100.50438
12000650,MCK0650,Kampung Selamat I,5.49587,100.51321
12002254,IKY2515,Apartment Bayan Permai,5.29525,100.26250999999999
12000138,I0Z0138,Masjid Kongsi,5.348116,100.2321
12001931,IIT1931,Intel,5.3272639999999996,100.29819
12001933,IIT1933,Mapa Glove,5.327569,100.29807
12001965,IJH1965,Plexus Riverside,5.3169,100.2962
12002095,IKT2095,TPC (M) Sdn. Bhd.,5.321028,100.29422
12002273,ICV1028,Kuala Sg.Pinang 1,5.3905400000000006,100.1957
12000257,MAJ0257,Masjid At-Taqwa,5.5195300000000005,100.43649
12000260,MAJ0260,Taman Bertam Indah 2,5.5283,100.43481
12000380,MAY0380,Permatang Tok Loba,5.513406,100.40665
12000999,MEQ0999,Kemas Kepala Batas,5.534548,100.4329
12000258,MAJ0264,SK/SMK Bertam Indah,5.52456,100.43502
12000263,MAJ0263,Masjid At-Taqwa Bertam,5.5197199999999995,100.43628000000001
12000384,MAY0384,Kompleks Kepala Batas,5.51738,100.4258
12000386,MAY0386,Pasaraya Longwan,5.52086,100.42652
12001474,MGT1474,Medan Niaga,5.1474400000000005,100.42206
12000152,IAA0152,Sungai Burung,5.33592,100.2069
12000165,IAA0165,Kg Sungai Burung 3,5.351,100.20919
12000170,IAA0170,Masjid Jalan Baru,5.357080000000001,100.2104
12000657,ICL0657,Kampung Parit Lama 2,5.30966,100.20539000000001
12000665,ICL0665,Pemancar Pulau Betong,5.305,100.20146
12000734,ICV0734,Pondok Polis,5.35228,100.20796999999999
12002257,ICV1001,Kampung Sg.Korok,5.3529602,100.2036215
12000974,IEN0974,Pasar Sg. Pinang,5.39901,100.21339
12000982,IEN0982,Surau Haji Hashim,5.40179,100.2048
12001604,IHD1604,Taman Mutiara,5.37387,100.21514
12001607,IHD1607,Kraf Batik Sungai Rusa,5.3771,100.21449
12002625,MCK0910,Klinik Kesihatan Padang Serai,5.510374099999999,100.5535426
12002626,MCK0911,PEKAN PADANG SERAI,5.5134017,100.5527057
12002629,MCK0914,TAMAN MAHSURI,5.514880799999999,100.541596
12000062,I0Q0062,SRJK Kong Min Pusat,5.40454,100.28109
12001028,IER1028,Ruby Court,5.39133,100.27552
12002289,ICT0010,SRJK Kong Min,5.39503,100.27676
12000061,I0Q0061,Masjid Jamek Al-Qadrie,5.40437,100.28602
12001386,IGH1386,Tesco Tanjung Pinang II,5.45803,100.30851
12000538,IBR0538,SMJK Heng Ee,5.4006099999999995,100.30887
12000938,IEE0938,Rumah P. Ramlee,5.40966,100.31485
12000994,IEO0994,Jalan Patani.,5.409892,100.32281
12002240,IKY2500,Jalan P.Ramlee I,5.406724,100.3116
12001983,IJJ1983,The Light,5.3688,100.3139
12002111,IJJ2111,Flat Macullum,5.4070800000000006,100.33166999999999
12002973,IKI2080,Jetty,5.414445300000001,100.3420128
12003029,IAR0363,Taman Pekaka,5.351421,100.29286
12001346,MFU1346,SJKC Kwang Hwa,5.427147,100.383125
12001904,MIM1904,Taman Mesra Permai,5.43091,100.39318
12000905,MDY0905,Pusat Perniagaan Desa Murni,5.43886,100.4311
12000929,MED0929,Taman Dedap,5.4309199999999995,100.39354
12002037,MKA2037,Flat Mak Mandin,5.41984,100.38736999999999
12002039,MKA2039,Taman Mak Mandin,5.42022,100.39313
12000112,M0W0112,Taman Mesra,5.4284300000000005,100.39721999999999
12001290,MFO1290,Hub Taman Juru Setia,5.33303,100.42664
12002122,MLA2112,Kilang LB Aluminium,5.354435,100.401979
12002131,MET2121,Medan Selera Seri Pelangi,5.3420000000000005,100.42726
12002508,ICT0316,Petron Kawasan Perusahaan Perai,5.355105,100.414671
12001280,MFL1280,Taman Sri Delima,5.3217,100.43406999999999
12002522,ICT0412,Surau An Nur Juru,5.315739,100.4356
12002524,ICT0414,Taman Lembah Permai,5.348735,100.45704599999999
12002527,ICT0417,Sri Rambai,5.363582,100.44471899999999
12001281,MFL1281,Petronas Tok Kangar,5.32455,100.43483
12002509,ICT0139,Sungai Rambai,5.364255,100.444725
12001977,IJI1977,Pasar Farlim,5.39391,100.28860999999999
12002022,IJX2022,SK Batu Lanchang,5.39884,100.30117
12002294,ICT0015,Jalan Tun Sardon KM380,5.34438,100.24856
12000304,IAR0304,USM,5.356580999999999,100.29281
12000305,IAR0305,Lapang Sasar Bukit Gambir,5.35952,100.29309
12001128,IFE1128,Permatang Damar Laut 2,5.2765,100.26765
12002493,ICT0325,Kuala Sg.Udang III,5.153975,100.41507
12001073,IEX1073,Klinik Kesihatan,5.40235,100.31497
12001078,IEX1078,Stadium Bandaraya,5.41124,100.31603
12001087,IEX1087,Harmony View,5.4000699999999995,100.31494
12001642,IHH1642,Mewah Court,5.39259,100.30614
12000408,IBE0408,Seri Bayu,5.295746,100.256454
12000515,IBN0515,Taman Cahaya,5.2874099999999995,100.22129
12000614,ICG0614,Jalan Kg. Suluk,5.29242,100.22269
12000851,IDN0851,(M2) Spice,5.32736,100.28050999999999
12000882,IDT0882,Masjid Bayan Baru,5.323671,100.28688000000001
12001497,IGX1497,SRJK Keong Hoe,5.34654,100.29564
12001502,IGX1502,Apartmen Desa Universiti,5.35216,100.29911
12000838,IDJ0838,Kolej Disted-Stamford,5.422867,100.3085
12001012,IER1012,Pusat Agro Pelancongan,5.34165,100.27393000000001
12001017,IER1017,Pangsapuri Green Garden,5.366619,100.27306999999999
12001354,IFV1354,Hospital P.Pinang I,5.4170300000000005,100.30933
12001427,IGR1427,Snake Temple,5.314244,100.28605
12000101,I0V0101,Sekolah St. Nicholas,5.43559,100.30415
12000102,I0V0102,SMJK Phor Tay,5.437126999999999,100.30551
12000208,IAD0208,Masjid Terapung,5.46871,100.27733
12000230,IAD0230,Pantai Miami,5.47772,100.2674
12000365,IAX0365,Hardware Pulau Tikus,5.43024,100.31296
12000368,IAX0368,SMK/SK Convent Pulau Tikus,5.43267,100.30824
12001649,IHI1649,Starbucks,5.44693,100.30534
12001651,IHI1651,Island Plaza,5.450130000000001,100.30545
12001660,IHI1660,Flat Uda,5.46212,100.30649
12002056,IKI2056,Jejantas Terminal Feri,5.414516000000001,100.34186600000001
12002058,IKI2058,Pejabat Pos Besar P.Pinang,5.41721,100.34428
12000600,MCD0600,Kampung Gajah,5.41406,100.37227
12001051,MEU1051,Permatang Berah,5.5106720000000005,100.38333
12001059,MEU1059,Pekan Penaga,5.52682,100.38098000000001
12001106,MFC1106,SMK Sri Muda,5.53434,100.38035
12002545,ICT0702,Teluk Air Tawar Indah,5.490835,100.384217
12000088,M0U0088,Taman Riang,5.42368,100.37624
12000094,M0U0094,Taman Bagan Ajam,5.43622,100.38041
12000603,MCD0603,Wisma Peladang,5.41755,100.37396
12000758,MCW0758,Desa Kuala Muda,5.56899,100.35284
12001105,MFC1105,SMK Sri Muda,5.53425,100.38048
12001119,MFC1119,Kampung Tok Oteh,5.56383,100.37674
12000117,M0W0117,Bagan Lalang,5.43722,100.39754
12000119,M0W0119,Taman Industri Cengal,5.4403,100.39735999999999
12000539,MBS0539,Pangsapuri Capri,5.40638,100.3731
12000904,MDY0904,Hub Desa Murni,5.43841,100.43275
12002001,IJO2001,(M2) Lintang Angsana,5.388977,100.28198
12000076,I0Q0076,Dhoby Ghaut,5.41246,100.30957
12000962,IEJ0962,Apartmen Rifle Court,5.40678,100.29602
12000964,IEJ0964,Villa Sri Melati Apartment,5.4073,100.29462
12001022,IER1022,Paya Terubong Cemetery,5.38044,100.27504
12001375,IGE1375,Pejabat Pos Padang Tembak,5.4069400000000005,100.2884
12001974,IJI1974,Lebuhraya Thean Teik,5.38921,100.28045999999999
12000057,I0Q0057,Pekan Air Itam,5.40182,100.27837
12000073,I0Q0073,(M2) SMKA Al-Mashoor(Hentian Transit),5.40832,100.3037
12001512,MGX1512,Taman Pengkalan Machang,5.44393,100.43013
12001555,MGX1555,Lubuk Meriam,5.4747900000000005,100.45748
12001558,MGX1558,Pokok Sena,5.48384,100.45754000000001
12001560,MGX1560,(M2) Taman Sena Jaya,5.48776,100.45752
12000486,MBM0486,Kompleks Tasek Gelugor,5.48172,100.49468
12001860,MIE1860,Masjid Abdullah Fahim,5.51905,100.46468
12001923,MIQ1923,Tesco Kepala Batas,5.51601,100.4439
12002088,MKR2088,Bertam Putra 2,5.517096,100.490746
12002568,ICT8302,(M3) Taman Bertam Putra,5.517558999999999,100.485954
12002569,ICT8304,MIdtown PERDA,5.5026399,100.50160509999999
12002576,ICT8311,Sunshine Bertam II,5.5166832999999995,100.45015620000001
12002952,MFH1305,Pasaraya Mydin Bertam,5.5178069,100.47723909999999
12000285,IAN0285,Apartmen Green Lane Height,5.39361,100.29983
12000933,IEE0933,Flat Seri Hussain,5.40639,100.30955
12001587,IHA1587,JKP Sungai Pinang,5.40643,100.31944
12001798,IHS1798,Jalan Tembaga,5.38924,100.29984
12002246,IKY2506,Jalan Sir Ibrahim I,5.395454,100.3087
12000024,I0G0024,Astaka Taman Tun Sardon,5.36916,100.305
12001205,MFH1205,Permatang Janggus,5.39928,100.41718
12000395,MBA0395,Taman Chai Leng I,5.39042,100.38924
12002989,MIB1850,Sunway Carnival Mall,5.398755,100.398741
12001809,MHV1809,Pasar Awam,5.3929800000000006,100.4016
12000130,M0Y0130,Longwan,5.6241900000000005,100.47829
12000597,MCC0597,Central Square,5.636909999999999,100.48814
12002980,PLH0002,CP2,5.4314919,100.3770532
12000187,MAA0187,(M3) Mydin Mall,5.36975,100.41549
12000277,MAL0277,Taman Jelatik,5.22485,100.49545
12000279,MAM0279,Taman Rebana,5.2419199999999995,100.4844
12001426,IGR1426,Snake Temple,5.31388,100.28609
12002211,IGR1417,(M1) Lapangan Terbang Antarabangsa Pulau Pinang,5.292606,100.2648269
12002519,ICT0406,Taman Perusahaan Ringan Juru,5.317480000000001,100.43251
12002520,ICT0407,Perodua Juru,5.334788,100.43379499999999
12001265,MFK1265,Balai Polis Simpang Empat,5.28365,100.47665
12001357,MFX1357,Taman Impian Ria,5.309480000000001,100.47986
12001361,MFX1361,AEON Pintu Utama,5.3192,100.47679000000001
12001363,MFX1363,Taman Sri Kijang,5.32134,100.47659
12001680,MHK1680,Muda Paper I,5.28443,100.52026
12001690,MHK1690,Taman Tasek Indah,5.2848,100.5063
12001693,MHK1693,Taman Tasek Harmoni,5.28498,100.49889
12001698,MHM1698,SK Seri Tasek,5.28559,100.52179
12002582,ICT0229,Jessel Ball Sport Center,5.321427,100.48369699999999
12002594,ICT0428,Tesco Alma,5.315483,100.47819799999999
12002597,ICT0201,Muda Paper Mill,5.2845379999999995,100.519954
12000793,MDA0793,SK Juara,5.34658,100.48761999999999
12000794,MDA0794,Pusat Khidmat Rakyat,5.3474330000000005,100.48492399999999
12001093,MFA1093,Astaka Perda,5.36815,100.4277
12001183,MFH1183,Klinik Desa Kampung Pertama,5.39215,100.41781999999999
12000352,MAW0352,Petronas Bukit Tengah,5.349819999999999,100.43389
12002324,ICT0061,Petron Bukit Minyak,5.330213,100.447696
12000332,MAU0332,Asia Machinery,5.31957,100.45676
12000334,MAU0334,Taman Perindustrian Bukit Minyak,5.32183,100.45151
12000335,MAU0335,Pusat Perniagaan Juru Jaya,5.32336,100.44896999999999
12000342,MAW0342,Makmal Veterinar,5.33479,100.4447
12000345,MAW0345,Balai Polis Bukit Tengah,5.34774,100.4347
12000916,MEB0916,Pasaraya C-MART,5.1769099999999995,100.48184
12000923,MEB0923,IPD Seberang Perai Selatan,5.19716,100.493
12001261,MFK1261,Taman Cegar,5.27208,100.47677
12001278,MFK1278,Taman Sukun,5.3103,100.46632
12001481,MGV1481,Pusat Perniagaan Jawi Jaya,5.20528,100.49716
12000704,MCP0704,Masjid Permatang Kampung Sireh,5.36103,100.43723
12002334,ICT0071,Masjid Daerah Jawi,5.194506,100.491577
12000956,MEI0956,Masjid Padang Lalang,5.36508,100.44823000000001
12002323,ICT0060,Taman Limau Manis,5.35246,100.434163
12002327,ICT0064,Taman Permatang Tinggi Indah,5.295154,100.47923
12000441,MBF0441,Kampung Haji Osman,5.15941,100.47601
12000939,MEF0939,Taman Harapan Baru,5.13093,100.47726
12002162,MDM0846,Hentian Raya Parit Buntar,5.1181722,100.4872271
12001101,MFB1101,Permatang Batu,5.36426,100.43189
12000566,ICA0566,Pekan Jelutong,5.3879,100.3127
12000029,I0H0029,SAM Engineering,5.304917,100.29403
12000607,ICE0607,Broadcom,5.3234580000000005,100.30109
12000608,ICE0608,Esquel Group,5.323992,100.29932
12002052,IKH2052,Advantest Engineering,5.298522,100.29016999999999
12000875,IDT0875,Towa (M) Sdn. Bhd.,5.306497,100.27693000000001
12000876,IDT0876,Astaka Bukit Gedung,5.31614,100.28407
12000901,IDX0901,Kompleks Institut Pendidikan,5.45032,100.30221999999999
12001937,IIV1937,Komtar,5.41378,100.33094
12000207,IAD0207,Hotel Hard Rock,5.467280000000001,100.2423
12000210,IAD0210,By The Sea,5.4695599999999995,100.24495999999999
12000212,IAD0212,Mar Vista,5.470619999999999,100.2772
12001959,IJG1959,Lebuh Raya Gelugor II,5.38759,100.30667
12002078,IKO2078,Klinik Menara,5.302219999999999,100.26071
12002113,IKI2054,(M1) JETTY A,5.414174,100.3422281
12002309,ICT0042,Tadika Smart Reader,5.280193,100.279486
12000297,IAR0297,Pangsapuri Golf View,5.33856,100.29256
12000309,IAR0309,SMK Bukit Gambir,5.37038,100.29666999999999
12000426,IBE0426,Kem Sungai Ara 2,5.3137300000000005,100.26593000000001
12000436,IBE0436,Masjid Al-huda Sungai Ara,5.32301,100.27192
12000577,ICA0577,Peugeot Center,5.4010169999999995,100.32309000000001
12000850,IDN0850,I Avenue,5.32716,100.28524
12001133,IFE1133,Permatang Damar Laut 2,5.27841,100.27075
12001136,IFE1136,Hadapan Rumah Kedai,5.2799,100.27699
12001803,IHU1803,SMK Raja Tun uda,5.32036,100.28318
12000719,ICR0719,Gurney Hotel,5.429469999999999,100.31879
12000727,ICR0727,Gurney Plaza,5.43594,100.30881
12001648,IHI1648,Caltex,5.44589,100.30502
12001654,IHI1654,Taman Batu Bukit,5.45289,100.30597
12001672,IHJ1672,Hotel Copthorne,5.46555,100.29173
12001675,IHJ1675,Hotel Flamingo,5.46612,100.2877
12001750,IHP1750,Escape,5.4494,100.21493000000001
12001759,IHP1759,Jalan Hassan Abbas,5.45747,100.21137
12001760,IHP1760,Pasar Teluk Bahang,5.45754,100.21301
12002252,IKY2513,Aseania Court,5.45741751,100.20825579999999
12000862,IDS0862,Persatuan Kanak - Kanak Sepastik,5.38894,100.30366
12000009,I0E0009,Apartment Sri Saujana,5.407058,100.3333
12002081,IKP2081,Taman Gedung Heights II,5.31727,100.28004
12002317,ICT0050,Pangsapuri Mayang,5.31838,100.28491
12001493,IGX1493,Kampung Dua Bukit,5.34278,100.29930999999999
12000811,IDF0811,Tenby School,5.45849,100.28229
12002018,IJV2018,Flat Permai Jaya,5.45504,100.28214
12000868,IDS0868,SMK Convent Green Lane,5.396780000000001,100.30341
12000871,IDS0871,McDonald Green Lane,5.40146,100.30395
12000873,IDS0873,SMK Penang Free,5.403490000000001,100.3037
12000520,IBN0520,Kawasan Perkelahan Tanjung Asam,5.2823400000000005,100.21153000000001
12000622,ICG0622,SK Seri Bayu,5.29429,100.23016
12001040,MES1040,Surau Permatang Tok Jaya,5.46675,100.40012
12001593,MHB1593,(M2) Taman Seri Pinang,5.44968,100.39957
12002033,MKA2033,Balai Polis Mak Mandin,5.419580000000001,100.3896
12002387,ICT0131,Kedai Runcit Permatang Binjai,5.500845,100.395095
12000040,M0I0040,SK Penanti,5.40254,100.46455
12001523,MGX1523,Pekan Sungai Dua,5.446587999999999,100.43059000000001
12001546,MGX1546,Lorong Haji Din,5.457902,100.44458
12001561,MGX1561,Desa Murni,5.44057,100.42944
12001167,MFG1167,Klinik Desa,5.41528,100.43773
12000093,M0U0093,Taman Bagan Ajam,5.43435,100.37948
12000507,MBM0507,Taman Desa Sena,5.48904,100.46307
12001590,MHB1590,Masjid Jamek Sungai Puyu,5.447628,100.394684
12001997,MJN1997,Taman Meranti,5.44303,100.38258
12002613,MCK0902,Pusat Serenti Kampung Selamat,5.5017693,100.52302440000001
12002619,MCK0904,Taman Lagenda,5.514208,100.5350702
12000498,MBM0498,KEMAS Pokok Macang,5.48816,100.47266
12001784,IHQ1784,Hentian Kampung Bukit,5.29606,100.23228
12001787,IHQ1787,PUSPAKOM,5.30122,100.23174
12000150,I0Z0150,Pejabat Pos Balik Pulau,5.34925,100.23331
12002272,ICV1016,Kampung Sungai Pinang,5.395931200000001,100.21195959999999
12002275,ICV2030,Surau Haji Hashim,5.4017599999999995,100.20456
12002276,ICV1030,Jalan Sungai Rusa 1,5.3803934,100.2139988
12000382,MAY0382,Permatang Manggis,5.5156089999999995,100.418015
12000383,MAY0383,Taman Sepakat,5.51619,100.42226
12000706,MCQ0706,Kampung Datok,5.526,100.42808000000001
12000265,MAJ0265,Taman Bertam,5.532030000000001,100.43365
12000378,MAY0378,Klinik Desa Permatang Sintok,5.51152,100.40382
12000707,MCQ0707,Lahar Ikan Mati,5.53006,100.42935
12002548,ICT0705,Taman Permatang Sintok,5.512908,100.405519
12000181,MAA0181,Surau Nurul Hakim,5.13226,100.41058000000001
12000182,MAA0182,Sungai Air Itam,5.13895,100.41238
12000399,MBB0399,Peladang Chenaam,5.14546,100.40801
12001466,MGT1466,Surau Al Furqan,5.14693,100.43639
12001470,MGT1470,SMK Sungai Setar,5.14712,100.43194
12001472,MGT1472,Caltex Sungai Acheh,5.14719,100.42514
12001628,MHE1628,Klinik Kesihatan Sg.Acheh,5.15031,100.42229
12002097,MKV2097,Perpustakaan Desa Batas Ban,5.14957,100.41385
12000174,IAA0174,Sungai Korok 2,5.36175,100.21144
12000630,ICI0630,Hadapan Lrg Kpg Perlis 2,5.32647,100.20576
12000633,ICI0633,Lrg Kpg Perlis 12,5.31154,100.20353
12000654,ICL0654,Hub Pulau Betong,5.304819999999999,100.19483000000001
12000655,ICL0655,Masjid Pulau Betong,5.30612,100.20284000000001
12000656,ICL0656,Simpang Masjid Pulau Betong,5.306780000000001,100.20347
12000662,ICL0662,Taman Desa Genting,5.33115,100.21468
12000735,ICV0735,Titi Sungai Korok,5.35259,100.20561
12001568,IHA1568,Taman Impian,5.35195,100.23135
12001575,IHA1575,SK Titi Teras,5.35885,100.22451
12000975,IEN0975,SRJK Sin Min,5.39905,100.21344
12000978,IEN0978,Jalan Haji Hamid Senawi,5.40036,100.20934
12000983,IEN0983,Kampung Bukit Kecil,5.403519999999999,100.20106
12001478,IGU1478,Simpang Bandar Baru Air Putih,5.370830000000001,100.21644
12001600,IHD1600,Kampung Permatang Pasir,5.36966,100.21644
12001603,IHD1603,Taman Mutiara,5.37352,100.21531999999999
12001620,IHD1620,Madrasah Tahfiz - Irfanratul,5.3921,100.21018000000001
12002628,MCK0913,PUSAT PERNIAGAAN PADANG SERAI,5.515278599999999,100.5453565
12002633,MCK0918,Balai Bomba Kampung Selamat,5.500551799999999,100.5219998
12002287,ICT0008,Hotel Cititel,5.42168,100.33383
12001036,IER1036,Klinik Desa Paya Terubong.,5.39799,100.27734
12001029,IER1029,Permata Court Complex,5.39245,100.27588
12001030,IER1030,Permata Court Complex,5.392462,100.27584
12000247,IAG0247,Apartment Bayan Permai,5.2956199999999995,100.26241999999999
12001585,IHA1585,Sungai Pinang,5.40265,100.32297
12001780,IHQ1780,SK Teluk Kumbar,5.29041,100.2326
12000827,IDJ0827,Masjid Simpang Enam,5.41438,100.32784000000001
12001086,IEX1086,Wat Bhuparam,5.4259,100.31669000000001
12000936,IEE0936,Flat Seri Hussain,5.40632,100.3096
12000990,IEO0990,Apartmen Taman Sri Pinang,5.405831,100.3215
12003135,IGE1399,Restoran Nasi Kandar Salam,5.405000599999999,100.28858050000001
12001991,IJK1991,Lip Sin 2,5.34265,100.29459
12003022,IAR0356,Pusat Sejahtera,5.35879,100.30251
12001392,MGM1392,Jalan Siram I,5.4084,100.37763000000001
12002380,ICT0124,Taman Cengkih,5.436338,100.39745699999999
12002136,MET2124,Kilang Xylem,5.343564,100.426087
12002505,ICT0314,Pusat Komersial Nagasari,5.361658,100.410934
12002503,ICT0408,Pangsapuri Taman Pelangi,5.3450239999999996,100.425211
12000326,MAU0326,(M2) Masjid Tok Lebai Hashim,5.33202,100.45079
12000585,MCB0585,Pusat Perniagaan Juru,5.31559,100.43313
12000589,MCB0589,Pusat Perniagaan Taman Juru,5.31968,100.44816
12000959,MEI0959,Pusat Borong Fama,5.3653699999999995,100.44286
12002045,MKE2045,Desa Wawasan,5.35668,100.44814000000001
12002525,ICT415,Mahkamah Bukit Mertajam,5.353875,100.45163000000001
12000587,MCB0587,Klinik Desa Juru,5.31629,100.44367
12001799,MHT1799,Desa Wawasan,5.35668,100.44823000000001
12002513,ICT0140,Taman Cempedak,5.359499,100.444621
12002515,ICT0402,Taman Kota Permai II,5.339307,100.45613900000001
12000435,IBE0435,SK Agama Sungai Ara,5.321918,100.27153
12000414,IBE0414,Kampung Perlis,5.298158,100.26153599999999
12000848,IDN0848,Mayang Mall,5.32693,100.2843
12000879,IDT0879,Pasaraya Giant,5.32071,100.28571
12001779,IHQ1779,Saujana Heights,5.28949,100.24884
12001807,IHU1807,Klinik Kesihatan,5.321205,100.27917
12001845,IID1845,Masjid Sungai Nibong Kecil,5.3326,100.28684
12002013,IJS2013,Taman Kumbar Permai,5.29084,100.22771
12000437,IBE0437,Kondominium Tunas Residensi,5.330318,100.27852
12000835,IDJ0835,Buddhist Society,5.4223,100.31149
12001002,IER1002,Kompleks Golden Triangle,5.331664,100.27662
12001014,IER1014,Simpang Tingkat Bukit Jambul,5.3460589999999995,100.272514
12001423,IGR1423,Dynacraft Industries Sdn. Bhd.,5.30481,100.27917
12001812,IHX1812,Masjid Bandar Baru Air Itam,5.39384,100.2852
12000105,I0V0105,Jalan Bagan Jermal(Gurney),5.439603,100.30738000000001
12000203,IAD0203,Tropical Spice Garden,5.46341,100.22881
12000215,IAD0215,Hotel Holiday Inn,5.47222,100.2467
12000233,IAD0233,Double Tree Resort,5.47821,100.26893000000001
12000239,IAD0239,Kem Tentera,5.48085,100.25641
12000363,IAX0363,Premier Centre,5.42833,100.31481
12000371,IAX0371,(M1) Hospital Adventist,5.43375,100.30376
12001645,IHI1645,Balai Bomba Bagan Jermal,5.44107,100.30725
12001647,IHI1647,Marina Bay,5.4436599999999995,100.30592
12001656,IHI1656,Masjid Karwa,5.455769999999999,100.30721
12001657,IHI1657,Tesco Tanjung Pinang,5.45885,100.3079
12001767,IHP1767,Jalan Teluk Bahang,5.46117,100.21923000000001
12001943,IIZ1943,Balai Polis,5.418646,100.34356
12000606,MCD0606,Taman Riang,5.42287,100.37588000000001
12000742,MCW0742,Desa Kuala Muda,5.56895,100.35284
12000747,MCW0747,SK Pulau Mertajam,5.5727400000000005,100.3642
12001053,MEU1053,Permatang Pak Maras,5.516947,100.38269
12001713,MHO1713,Bagan Lebai Tahir,5.45338,100.38323000000001
12001724,MHO1724,Taman Teluk Molek,5.47741,100.3833
12001727,MHO1727,SMK Telok Air Tawar,5.47954,100.38336
12001729,MHO1729,SK Telok Air Tawar,5.48475,100.38359
12002552,ICT0709,Balai Bomba Kuala Muda,5.5697410000000005,100.35021400000001
12000741,MCW0741,Bakau Tua,5.56893,100.36159
12000750,MCW0750,Masjid Pulau Mertajam,5.57324,100.36513000000001
12000752,MCW0752,Pulau Mertajam,5.57404,100.36669
12000754,MCW0754,Kampung Telok Manan,5.57561,100.36813000000001
12001733,MHO1733,Taman Air Tawar Indah,5.49306,100.38409
12002444,MHO1719,(M2) Pangkalan TUDM,5.4638947,100.38267640000001
12000115,M0W0115,Taman Mesra Indah,5.43518,100.39709
12000903,MDY0903,Simpang Lorong Murni 6,5.43724,100.43298
12001372,IGD1372,Flat 4E Farlim,5.3861300000000005,100.28323
12001377,IGE1377,Pejabat Pos Padang Tembak,5.40776,100.28855
12002099,IKX2099,Tingkat Paya Terubong 2 - 1,5.37092,100.2774
12002288,ICT0009,BHP Kampung Baru,5.40456,100.29046
12000049,I0L0049,Klinik Kesihatan Bandar Baru Air Itam,5.38963,100.2851
12001819,IHY1819,SMK Air Itam,5.39532,100.28631999999999
12001918,IIP1918,Masjid Kapitan Keling,5.417451,100.33745
12001972,IJI1972,Perumahan PDRM,5.3880099999999995,100.27852
12001999,IJO1999,Lintang Angsana,5.3887,100.28208000000001
12001507,MGX1507,Taman Desa Murni,5.43538,100.43078
12001511,MGX1511,Klinik Kesihatan,5.44226,100.42985999999999
12001530,MGX1530,SK Sungai Dua,5.4491,100.43259
12001549,MGX1549,Nyior Sebatang,5.46622,100.45441
12002362,ICT0105,Kampung Kepala Bukit,5.409221,100.44910420000001
12000250,MAI0250,Pejabat Tanah,5.51392,100.43542
12000253,MAI0253,IPD Seberang Prai Utara,5.51394,100.43966999999999
12000255,MAI0255,Pejabat Tanah Kepala Batas,5.51499,100.43655
12000488,MBM0488,SK Tasek Gelugor,5.48305,100.49185
12001871,MIE1871,Taman Sepadu,5.487509999999999,100.49512
12001873,MIE1873,Masjid Kubang Menderung,5.518669999999999,100.5064
12001875,MIE1875,Kampung Pokok Jenerih,5.52133,100.50013
12002090,MKR2090,Bertam Putra 4,5.51994,100.49356
12002566,ICT8300,Klinik Kesihatan Tasek Gelugor,5.4846900000000005,100.491119
12003000,MIE1885,Klinik Kesihatan Tasek Gelugor,5.4845511,100.49110879999999
12000065,I0Q0065,Tadika St. Paul,5.405069999999999,100.28191
12000637,ICJ0637,Kampung Pisang II,5.39923,100.27958000000001
12000016,I0G0016,Astaka Taman Tun Sardon,5.3690940000000005,100.30492
12000466,IBG0466,Jalan Delima,5.38019,100.30266999999999
12000467,IBG0467,Jalan Delima 3,5.3814,100.29879
12000536,IBR0536,SMJK Heng Ee,5.40039,100.30877
12001887,IIH1887,(M1) Tesco Tunku Kudin,5.377228,100.31506
12001960,IJG1960,(M2) Pasar Batu Lanchang I,5.38943,100.30688
12002244,IKY2504,Jalan Delima 4,5.3830800000000005,100.2996
12001213,MFH1213,PPR Ampang Jajar,5.41352,100.40059000000001
12001186,MFH1186,Permatang Janggus 2,5.4037,100.41655
12001187,MFH1187,Taman Arowana Emas,5.40839,100.41389000000001
12001198,MFH1198,Petron Permatang Pauh,5.37611,100.42096
12002369,ICT0112,Pasaraya Billion,5.413703,100.37725
12002371,ICT0115,Pangsapuri Telaga Emas,5.413335,100.374728
12000191,MAA0191,Kompleks Chai Leng Park,5.38194,100.39278
12002091,MKS2091,Dewan JKKK,5.40415,100.40063
12002647,IEX1299,(M2) Pasar Seberang Jaya,5.3950938,100.39699540000001
12000390,MBA0390,Taman Inderawasih,5.39072,100.38898
12001993,MJL1993,Masjid Sembilang,5.40205,100.39851999999999
12000248,MAH0248,SK Kampung Baru I,5.34943,100.47122
12002543,ICT0313,Sunway Carnival,5.398624,100.397254
12002502,ICT0300,Dataran Jam Besar Sg.Petani,5.643604,100.488968
12000331,MAU0331,Kampung Permatang Tok Subuh,5.3190599999999995,100.45774
12000880,IDT0880,Pasaraya Giant,5.32101,100.28599
12001000,IER1000,Kompleks Golden Triangle,5.331601999999999,100.276886
12001419,IGR1419,Chung Shan Chinese School,5.29816,100.27025
12002291,ICT0012,Persimpangan Relau,5.35636,100.27221999999999
12000405,MBD0405,SMK Jalan Damai,5.3416,100.47388000000001
12000599,MCC0599,Pasar Awam Kampung Baru,5.3471,100.47245
12001268,MFK1268,Pusat Perniagaan Simpang Empat,5.29097,100.47867
12001270,MFK1270,Taman Permatang Tinggi Indah,5.29524,100.47903000000001
12001360,MFX1360,TESCO Alma,5.31597,100.4778
12001688,MHK1688,Kampung Padang,5.28471,100.51138
12001691,MHK1691,Taman Tasek,5.28489,100.49468
12001273,MFK1273,SRJK Permatang Tinggi,5.30021,100.47737
12002592,ICT0426,Jessel Ball Sport Center,5.321332,100.483751
12002595,ICT0429,Taman Mutiara Simpang Empat,5.28009,100.492424
12001095,MFA1095,Perda Timur,5.37144,100.43858
12001179,MFH1179,Taman Pauh Indah,5.37576,100.42125
12001262,MFK1262,Taman Tiong Mas,5.275869999999999,100.47706
12001487,MGV1487,Taman Sri Aman,5.23365,100.49107
12002333,ICT0070,Teck Land Motors,5.1806410000000005,100.484135
12000272,MAL0272,Taman Jelatik,5.22461,100.49551
12000348,MAW0348,Taman Kerjasama,5.357469999999999,100.42704
12000702,MCP0702,SK Kebun Sireh,5.35775,100.43630999999999
12000954,MEI0954,Masjid Sungai Rambai,5.3643,100.45313
12000957,MEI0957,Pusat Perniagaan Padang Lalang,5.3652,100.4464
12000537,IBR0537,Taman Hutchings,5.39763,100.30691
12002005,IJQ2005,Kingdee Southeast Asia,5.299992,100.28868
12002008,IJQ2008,ER Mekatron,5.298094,100.28541
12002068,IKJ2068,Jeti Pulau Jerejak,5.34299,100.31141
12002070,IKK2070,AT Engineering,5.294347,100.28719
12000288,IAP0288,Jalan Bintang,5.4570300000000005,100.30225
12000815,IDF0815,SK Tanjung Bunga,5.46169,100.2798
12000898,IDX0898,Hong Seng Estate,5.44099,100.30308000000001
12001414,IGQ1414,Citibank,5.42364,100.32848
12001910,IIO1910,Lebuh Carnavon,5.41424,100.33328
12001958,IJG1958,Lebuh Raya Gelugor I,5.38604,100.30951999999999
12002077,IKO2077,Setia Triangle,5.30187,100.2603
12002079,IKO2079,Lengkok Kelicap,5.303669999999999,100.25816999999999
12002310,ICT0043,Kampung Bukit Kecil,5.279669999999999,100.276522
12000199,IAB0199,Kedai Kopi Kin Yuen,5.29633,100.28031
12000302,IAR0302,Taman Pekaka,5.3508569999999995,100.291725
12000425,IBE0425,Taman Sri Bayan,5.30795,100.26495
12000530,IBP0530,Jalan Gudrwara,5.4115,100.32819
12000580,ICA0580,Apartmen Desa Selatan,5.40331,100.32574
12001129,IFE1129,Permatang Damar Laut,5.27776,100.26616
12000357,IAX0357,Penang Plaza,5.42085,100.32521
12000720,ICR0720,Evergreen Hotel,5.4303,100.31715
12001758,IHP1758,Flat Hassan Abbas,5.45744,100.20961
12002224,IKY2112,Klinik Kesihatan Teluk Bahang,5.45601815,100.21481635
12000289,IAP0289,Jalan Bintang,5.45719,100.30215
12000477,IBJ0477,Jalan Evergreen,5.45319,100.30275999999999
12000388,IAZ0388,Apartment Villa Indah,5.42851,100.31058
12000572,ICA0572,Taman Cemerlang,5.39701,100.31896
12000611,ICF0611,Kampung Kolam,5.41614,100.33646999999999
12001071,IEX1071,Old Town Caf√©,5.39527,100.31466999999999
12001583,IHA1583,Jejantas Jalan Sungai Pinang,5.39985,100.32578000000001
12002083,IKP2083,Taman Gedung Heights I,5.317419999999999,100.28243
12001451,IGR1451,SK Sungai Gelugor,5.363169999999999,100.31125
12000813,IDF0813,Sekolah Kebangsaan Pendidikan Khas,5.4589300000000005,100.28025
12000818,IDF0818,Ambank,5.4646,100.28041
12002019,IJV2019,Flat Boon Siew,5.45621,100.2824
12002027,IJZ2027,TAR Kolej I,5.45371,100.28501999999999
12000421,IBE0421,Taman Rajawali,5.306222,100.26411
12001443,IGR1443,Tapak Pesta Sg Nibong,5.34478,100.30175
12001446,IGR1446,JPJ Batu Uban,5.35133,100.30429000000001
12002038,MKA2038,Taman Mak Mandin,5.4202,100.3933
12002388,ICT032,Tali Air Permatang Tok Gelam,5.486648000000001,100.400428
12002393,ICT0137,BGM Building,5.442262,100.397436
12000033,M0I0033,Masjid Tanah Liat,5.3791,100.46474
12000037,M0I0037,Permatang Tok Elong,5.38797,100.46302
12000532,MBQ0532,Taman Seri Serdang,5.503354,100.42944
12001330,MFT1330,Kampung Baru,5.49271,100.45528
12002358,ICT0101,Ambank Desa Murni,5.437191,100.43012399999999
12002360,ICT0103,Pejabat Peladang Kepala Batas,5.496532,100.4322
12000769,MCZ0769,Petronas,5.37556,100.46498000000001
12000774,MCZ0774,Permatang Tok Elong,5.38819,100.46316999999999
12000777,MCZ0777,Masjid Kubang Semang,5.39999,100.46486999999999
12001334,MFT1334,Taman Orkid Permai,5.49533,100.44675
12001339,MFT1339,Kolej Matrikulasi Kepala Batas,5.49717,100.43699000000001
12001772,IHQ1772,Flat Taman Emas Sungai Batu,5.2864,100.23682
12002106,IKY2106,7-Eleven Teluk Kumbar,5.293637,100.230385
12000090,M0U0090,Mahkamah Majistret,5.428,100.37727
12000494,MBM0494,Taman Gelugor indah,5.4852099999999995,100.48479
12000641,MCK0641,Taman Sri Desa,5.48572,100.50391
12001516,MGX1516,Taman Sungai Dua Utama,5.44524,100.42712
12000644,MCK0644,SMK Kg Selamat,5.49921,100.5209
12001517,MGX1517,Sungai Dua Utama,5.44524,100.42716
12001534,MGX1534,Masjid Alor Merah,5.45047,100.40553
12002011,IJR2011,Western Digital,5.322353,100.29368000000001
12000261,MAJ0261,Taman Bertam Indah,5.53241,100.43381
12001468,MGT1468,SMK Sungai Setar 2,5.14706,100.43311
12001471,MGT1471,Masjid Al Fatah,5.14719,100.45039
12001473,MGT1473,Caltex Sungai Acheh,5.14737,100.42503
12002635,ICT8881,Bukit Genting,5.3156147,100.2258985
12000156,IAA0156,Masjid Sg. Burung,5.34161,100.20776
12000159,IAA0159,JPS,5.34406,100.20810999999999
12000166,IAA0166,SK Sg. Korok,5.35348,100.20959
12000168,IAA0168,Sungai Korok,5.355230000000001,100.20995
12000169,IAA0169,Hadapan Koperasi Keluarga Haji Ismail,5.35577,100.21005
12000172,IAA0172,Sungai Korok,5.35966,100.211
12000658,ICL0658,Kampung Parit Lama,5.31268,100.20744
12000737,ICV0737,Kuala Jalan Baru,5.35325,100.20187
12001570,IHA1570,Taman Poket Jalan Chai,5.35406,100.22939000000001
12000765,ICX0765,Balai Polis Sg. Pinang,5.39316,100.20988
12000976,IEN0976,Kem PLKN Sg. Pinang,5.39993,100.2111
12000984,IEN0984,Pulaza Balik Pulau,5.40989,100.19785
12001601,IHD1601,Permatang Pasir,5.3712,100.2159
12001602,IHD1602,Permatang Pasir,5.37137,100.21582
12001606,IHD1606,Taman Sungai Rusa,5.37505,100.21500400000001
12001622,IHD1622,Klinik Desa Sg. Pinang,5.3941300000000005,100.21104
12001625,IHD1625,SK Sungai Pinang,5.39725,100.21291
12001626,IHD1626,SK Sungai Pinang,5.397880000000001,100.21313
12002627,MCK0912,Balai Polis Padang Serai,5.514320099999999,100.549994
12002632,MCK0917,PUSAT SERENTI KG. SELAMAT,5.5019935,100.5233999
12001196,MFH1196,Taman Bagan,5.41467,100.38436999999999
12001027,IER1027,Pangsapuri Wisma Indah,5.38804,100.27461
12000624,ICH0624,Flat Kampung Melayu,5.399719999999999,100.28604
12000529,IBP0529,Persimpangan Jalan S.P Chelliah,5.407838,100.327675
12001783,IHQ1783,Bandar Baru Teluk Kumbar,5.294015,100.23231
12001080,IEX1080,Koperasi Melayu Pulau Pinang,5.41742,100.31678000000001
12000472,IBG0472,Jalan Delima 2,5.383380000000001,100.30157
12001589,IHA1589,Penang Japanese School,5.40831,100.3176
12001811,IHW1811,Taman Free School,5.40421,100.30882
12002067,IKJ2067,Jeti Pulau Jerejak,5.34299,100.31129
12002298,ICT0020,IPD Balik Pulau,5.34169,100.22559
12003027,IAR0361,Hadapan INFORMM,5.355030999999999,100.29885
12001905,MIM1905,Pangsapuri Mesra Jaya,5.431207,100.39625
12001906,MIM1906,SMK Chung Ling,5.43305,100.3909
12000114,M0W0114,Taman Dedap,5.43328,100.39697
12001350,MFU1350,Jalan Raja Uda II,5.43066,100.38447
12000853,MDO0853,Kilang Professinal,5.41937,100.38602
12001044,MES1044,Persimpang Jalan Haji Murshid,5.47716,100.40138
12002379,ICT0123,Taman Mesra,5.428419,100.397145
12002381,ICT0125,BGM Building,5.4423580000000005,100.39738299999999
12002138,MLA2126,Hadapan SMPC,5.350936,100.408519
12002506,ICT0317,Pangsapuri Nagasari Blok B,5.366281,100.41329499999999
12002121,MKZ2111,Kilang Trane,5.354658000000001,100.405614
12002512,ICT0410,Nashmir Car Park,5.339957,100.428081
12001975,IJI1975,Tanjung Court,5.39251,100.28713
12001945,IJA1945,Hub Relau,5.3415029999999994,100.27212
12001884,IIG1884,Anjung Indah I,5.3502,100.25258000000001
12000307,IAR0307,Petronas,5.362430000000001,100.29528
12001142,IFE1142,Taman Gembira,5.28106,100.27381
12001146,IFE1146,SMK Batu Maung,5.2828599999999994,100.2851
12002498,ICT0330,Pekan Sg.Bakau,5.123635,100.419005
12002501,ICT0321,Dewan Masyarakat Sg.Acheh,5.1468042,100.436347
12001643,IHH1643,Hospital Lam Wah Ee,5.3926300000000005,100.30407
12002279,IKY2202,Klinik Comfort,5.397587000000001,100.31484499999999
12000424,IBE0424,SK Mutiara Perdana,5.307906,100.26483
12000433,IBE0433,SK Agama Sungai Ara,5.32181,100.27155
12000615,ICG0615,Sekolah Agama Al-Itqan,5.29389,100.22424000000001
12001444,IGR1444,(M3) Tapak Pesta Sg Nibong,5.34581,100.30273000000001
12001494,IGX1494,SJKC Phor Tay,5.34373,100.29739000000001
12001496,IGX1496,(M1) Hadapan Depo Sungai Nibong,5.345187,100.29987
12001773,IHQ1773,SMK Teluk Kumbar,5.2864,100.241
12001802,IHU1802,Giant Bayan Baru,5.32027,100.28435999999999
12001804,IHU1804,Hospital Pantai Mutiara,5.32054,100.28271
12002103,IKY2103,Taman Bandar Perda,5.2918,100.22901999999999
12000069,I0Q0069,Pasar Kampung Baru,5.40612,100.29637
12001006,IER1006,Flat 88,5.33689,100.27490999999999
12001023,IER1023,Paya Terubong Cemetery,5.380875,100.27495
12001367,IGA1367,Pejabat Agama Islam,5.413209999999999,100.30213
12001816,IHX1816,Apartmen Desa Mawar,5.40085,100.29066
12001817,IHX1817,Wisma Yatim,5.4034699999999996,100.29143
12001841,IID1841,Sungai Nibong Kecil,5.331930000000001,100.28465
12001844,IID1844,Masjid Al- Ittifaq,5.33245,100.28696
12001969,IJI1969,Apartment Lone Pine,5.38657,100.27638
12000226,IAD0226,Mount Pleasure,5.47745,100.2731
12000228,IAD0228,Hotel Rasa Sayang,5.47755,100.2538
12000829,IDJ0829,Nasi Kandar Pelita,5.41614,100.32443
12001674,IHJ1674,Hotel Copthorne,5.46595,100.29095
12001678,IHJ1678,TM Resort,5.46624,100.28647
12001679,IHJ1679,Hotel Flamingo,5.46635,100.28856999999999
12000740,MCW0740,Kampung Bakau Tua,5.56869,100.36137
12000743,MCW0743,Balai Polis Kuala Muda,5.56956,100.34885
12001104,MFC1104,Kuarters Pendidikan,5.532595,100.38094
12001125,MFC1125,Klinik Desa Permatang Bendahari,5.57921,100.37458000000001
12001723,MHO1723,Taman Robina,5.47455,100.38316999999999
12001734,MHO1734,Hub Teluk Air Tawar,5.49381,100.38386
12000121,M0X0121,Taman Selat,5.4003,100.3683
12000122,M0X0122,Jabatan Pertanian,5.40525,100.36934000000001
12000124,M0X0124,Dataran Pemuda Merdeka,5.40855,100.37040999999999
12000755,MCW0755,Kampung Telok Manan 2,5.57637,100.37019000000001
12001049,MEU1049,Titi Mukim,5.50101,100.38556
12001050,MEU1050,Kampung Permatang Berah,5.50882,100.38358000000001
12001123,MFC1123,Permatang Bendahari,5.57325,100.37571
12001712,MHO1712,Bagan Lebai Tahir,5.45253,100.3833
12000445,IBF0445,Kampung Makam,5.412389,100.32112
12000448,IBF0448,Dhoby Ghaut,5.4126900000000004,100.30969
12000462,IBF0462,Pasaraya Gama,5.41384,100.32789
12001373,IGE1373,Restoran Nasi Kandar Salam,5.4050199999999995,100.28869
12002100,IKX2100,Tingkat Paya Terubong 2 - 2,5.37184,100.27757
12002101,IKX2101,Tingkat Paya Terubong 2 - 3,5.37357,100.27785
12000070,I0Q0070,Masjid Negeri P.Pinang(Hentian Transit),5.40765,100.29972
12000072,I0Q0072,Han Chiang College,5.40803,100.30364
12000443,IBF0443,Pasar Jalan Kuantan,5.41218,100.32366999999999
12000449,IBF0449,SMK/SK Convent Dato Keramat,5.4127,100.31805
12001970,IJI1970,Lone Pine Club,5.38659,100.27660999999999
12002290,ICT0011,Pekan Paya Terubong,5.3787,100.27488000000001
12001543,MGX1543,Taman Seri Merbau,5.45526,100.44108
12002118,MBI0476,Taman Bertam Ria,5.5100614000000006,100.43453120000001
12000402,MBC0402,Sunshine Bertam,5.51591,100.44924
12001284,MFL1284,Kompleks Dato Kailan,5.5154,100.43176
12001857,MIE1857,Kayangan,5.51841,100.45284000000001
12001924,MIQ1924,Tesco Kepala Batas,5.51602,100.44413
12002073,MKM2073,MPC,5.51543,100.4457
12002995,MIE1880,Taman Sepadu Jaya,5.49094,100.49801
12002999,MIE1884,Taman Tasek Gelugor Utama IV,5.4966029999999995,100.49956999999999
12000291,IAQ0291,Jalan Bukit Bendera,5.40637,100.28088000000001
12000627,ICH0627,Jalan Kampung Melayu,5.40359,100.28846999999999
12001926,IIS1926,Muzium Pulau Pinang,5.42045,100.3391
12001928,IIS1928,SMK ST. Xavier,5.42126,100.33700999999999
12001458,IGR1458,(M2) RECSAM,5.37593,100.3084
12001641,IHH1641,(M3) Flat Bata Merah,5.39265,100.30711
12002241,IKY2502,Jalan Tembaga II,5.389405,100.3014
12002247,IGL1391,Jalan Sir Ibrahim II,5.397041000000001,100.3091
12002248,IKY2507,Jalan P.Ramlee I,5.406777,100.3115
12001705,MHN1705,SJKC Chung Hwa 1,5.4138,100.37743
12002373,ICT0117,Pasar Malam Arowana,5.411667,100.409665
12000907,MDZ0907,Plaza Utama,5.3666,100.45826
12001097,MFA1097,KPJ Perda,5.36934,100.43267
12001098,MFA1098,Perda Utama,5.3714,100.43951
12001188,MFH1188,Taman Arowana,5.41024,100.41253
12001200,MFH1200,(M2) UITM Permatang Pauh,5.38223,100.41938
12001202,MFH1202,Kampung Batu Dua,5.38892,100.41814000000001
12001203,MFH1203,Klinik Desa Kampung Pertama,5.39219,100.41776999999999
12000394,MBA0394,Taman Chai Leng II,5.38813,100.38871
12000398,MBA0398,Pusat Perniagaan Chain Ferry II,5.40255,100.38273000000001
12000910,MEA0910,SMK Convent Butterworth,5.39717,100.36851999999999
12001880,MIF1880,Pangsapuri A1,5.39331,100.40557
12001995,MJM1995,Pangsapuri RPKN,5.39495,100.40434
12001388,MGJ1388,SP Arena,5.38636,100.40236
12001810,MHV1810,Shell Lintang Tenggiri,5.39543,100.40179
12000249,MAH0249,SK Kampung Baru II,5.34995,100.47061
12000590,MCC0590,Taman Tampoi Indah,5.34975,100.47315
12000841,MDK0841,Pusat Perniagaan Machang Bubok,5.33765,100.50391
12000906,MDZ0906,Kamdar,5.36519,100.45875
12000128,M0Y0128,Tesco Bakar Arang,5.62185,100.47610999999999
12000132,M0Y0132,Pejabat Pos Bakar Arang,5.62901,100.48063
12000856,MDP0856,Stesen KTM,5.64269,100.49056999999999
12000186,MAA0186,Kampung Jalan Baru,5.36897,100.41703000000001
12000189,MAA0189,Masjid Jamek Kampung Setol,5.37271,100.41006
12000281,MAM0281,SJK Tamil Valdor,5.24596,100.48026999999999
12000349,MAW0349,DB Schenker,5.336880000000001,100.44261
12001801,IHU1801,Jalan Tengah,5.3190599999999995,100.28724
12002483,ICT0500,Krystal Point Corporate Park,5.33108,100.297092
12000045,M0K0045,SJKC Sin Ya,5.32975,100.47796
12001371,MGC1371,Taman Alma Jaya,5.3284199999999995,100.48397
12002578,ICT0222,Kampung Sepulau,5.2928,100.524289
12002580,ICT0227,Masjid Jamek Alma Jaya,5.322216,100.47845799999999
12001381,MGG1381,AEON Gate 5,5.32132,100.47986999999999
12001685,MHK1685,Petronas Bandar Tasek Mutiara,5.285,100.49319
12002589,ICT0423,Taman Sri Alma,5.328474,100.484109
12002591,ICT0231,Kilang Ayamas,5.325418900000001,100.4859902
12002601,ICT0421,Taman Alma,5.338741000000001,100.47384100000001
12000338,MAV0338,Pulau Mutiara Towel,5.3309,100.50749
12000339,MAV0339,Bukit Teh,5.33427,100.50818000000001
12001181,MFH1181,Masjid Papan,5.38863,100.41821
12001279,MFK1279,Taman Sukun,5.31038,100.4664
12002107,M002107,Hub Nibong Tebal,5.16784,100.4783
12002328,ICT0065,Shell Simpang Empat,5.289013,100.47824399999999
12000178,MAA0178,Kampung Setol,5.3709,100.41305
12000919,MEB0919,(M2) Residensi Merbok,5.18444,100.48602
12000926,MEB0926,Taman Jawi Jaya,5.20078,100.495
12001274,MFK1274,Taman Perusahaan Usaha Jaya,5.30354,100.47298
12001486,MGV1486,(M2) Taman Seri Aman,5.2334,100.49107
12002341,ICT0078,Kampung Gambir,5.36421,100.439053
12002342,ICT0079,Kampung Padang Lalang,5.365346,100.44659300000001
12000271,MAK0271,Jalan Besar 2,5.15078,100.47204
12000940,MEF0940,Taman Harapan Baru,5.13098,100.47698000000001
12001100,MFB1100,Pusat Perniagaan Perda,5.36494,100.43456
12002220,IKY2108,Northam Hotel,5.42726713,100.32214503
12002109,M002109,Jambatan Pulau Pinang,5.356566,100.39229
12001989,IJJ1989,E-Park Kondominium,5.352093,100.30986999999999
12001883,IIG1883,(M2) Anjung Indah II,5.34949,100.25211
12000480,IBL0480,Jalan Gajah II,5.45985,100.30281
12000481,IBL0481,Jalan Gajah I,5.4623800000000005,100.30381
12000826,IDI0826,Pasar Mini,5.46216,100.28994
12001416,IGQ1416,Wawasan Open University,5.42627,100.32352
12001669,IHJ1669,Pejabat Pos Tg.Bungah,5.465269999999999,100.28159000000001
12000222,IAD0222,Pantai Shamrock,5.47495,100.2763
12000229,IAD0229,Pantai Miami,5.47766,100.26751
12000235,IAD0235,Apartmen Sri Sayang,5.47886,100.2552
12002311,ICT0044,Surau Kampung Binjai,5.281559,100.259136
12000021,I0G0021,Dewan JKKK,5.372714,100.30266
12000245,IAF0245,Kampung Sungai Ara,5.32325,100.27466
12000294,IAR0294,Taman Bukit Jambul,5.334961,100.28913
12000299,IAR0299,Taman Lip Sin,5.3424,100.29269000000001
12000306,IAR0306,The Palazzia,5.35975,100.29332
12000411,IBE0411,SK Bayan Lepas,5.29714,100.26089
12000431,IBE0431,SMK Sungai Ara,5.3194,100.27065999999999
12000567,ICA0567,Pekan Jelutong,5.389133999999999,100.31296
12000852,IDN0852,SPICE Canopy,5.32785,100.27905
12001135,IFE1135,Hadapan Desa Jelita,5.27911,100.27113
12001145,IFE1145,Kampung Permatang Damar Laut,5.2815199999999995,100.25922
12001149,IFE1149,Kampung Binjai,5.28381,100.25671
12000356,IAX0356,TM Point,5.41825,100.32823
12000726,ICR0726,Gurney Paragon,5.43463,100.31057
12001658,IHI1658,Tesco Tanjung Pinang,5.4594,100.30771999999999
12001676,IHJ1676,Grand Ocean Condominium,5.4661800000000005,100.27969
12002200,IHP1755,SK Teluk Bahang,5.452978,100.2146176
12000861,IDS0861,Shell Jalan Masjid Negeri,5.38664,100.30492
12000867,IDS0867,Hospital Lam Wah Ee,5.39392,100.30303
12000877,IDT0877,Pangsapuri Mayang,5.31841,100.28499000000001
12000570,ICA0570,(M2) Hong Leong Bank Jelutong,5.39582,100.31751
12001450,IGR1450,Padang Bola USM,5.35994,100.31049
12001452,IGR1452,SK Sg. Gelugor,5.36497,100.31097
12000005,I0C0005,Pejabat Pos Macallum,5.406042,100.33189
12000012,I0E0012,Apartment Sri Saujana,5.407129,100.33343
12001434,IGR1434,SRJK Kwang Hwa,5.33561,100.29729
12001440,IGR1440,Sungai Nibong Besar,5.3415300000000006,100.30033
12001990,IJJ1990,Pangsapuri Ocean View I,5.39961,100.32715999999999
12002016,IJU2016,SJK Li Tek,5.405869999999999,100.33352
12000825,IDI0825,Jalan Loh Poh Heng,5.46207,100.29002
12001413,IGQ1413,(M3) SK Perempuan Island,5.42349,100.32843000000001
12000518,IBN0518,Balai Polis Gertak Sanggul,5.28218,100.19328
12000521,IBN0521,Taman Pasir Belanda,5.2845699999999995,100.21943
12002301,ICT2025,Shineville Park,5.3996,100.29581
12001126,MFD1126,Masjid Permatang Tok Gelam,5.48979,100.39963
12002378,ICT0122,Taman Mak Mandin II,5.4199269999999995,100.395174
12002391,ICT035,Pekan Sg.Puyu,5.4488198,100.3975145
12000036,M0I0036,SK Tanah Liat,5.38514,100.46336
12000038,M0I0038,Klinik Kesihatan Kubang Semang,5.39703,100.46458
12000534,MBQ0534,SMK Dato Haji Ahmad Badawi,5.507008,100.42974
12001170,MFG1170,Permatang Pasir,5.42057,100.43648
12001542,MGX1542,Taman Seri Merbau,5.455008,100.44055
12001545,MGX1545,(M3) Taman Merbau Jaya,5.45655,100.44268000000001
12002352,ICT0095,Kampung Sungai Semambu,5.39205,100.464022
12000775,MCZ0775,Sungai Semambu,5.39016,100.46347
12000780,MCZ0780,Kampung Petani,5.40645,100.45915
12001175,MFG1175,Taman Ara Indah,5.41256,100.43789
12002014,IJS2014,Taman Kumbar Permai,5.29087,100.22771
12002104,IKY2104,Taman Bandar Perda,5.2918,100.22913
12000095,M0U0095,Taman Molek,5.437790000000001,100.38075
12000499,MBM0499,KEMAS Pokok Macang,5.48819,100.47298
12001514,MGX1514,Masjid Sungai Dua,5.445198,100.427986
12002620,MCK0905,TAMAN SERAI WANGI,5.5150543,100.5401127
12000493,MBM0493,Taman Gelugor Indah,5.48519,100.48454
12001513,MGX1513,Masjid Sungai Dua,5.44494,100.42854
12001531,MGX1531,Masjid Sg Lokan,5.44991,100.40849
12000143,I0Z0143,SMK Pondok Upeh Balik Pulau,5.33659,100.22010999999999
12000145,I0Z0145,Masjid Daerah Balik Pulau,5.33861,100.2222
12001968,IJH1968,PSDC,5.320034,100.29091
12002094,IKT2094,AMD,5.322736,100.29578000000001
12000373,MAY0373,Permatang Binjal,5.50275,100.39319
12002547,ICT0704,Pekan Lama Kepala Batas,5.516294,100.423654
12000400,MBB0400,Lorong Chenaam 1,5.14879,100.40978
12001475,MGT1475,SMK Sungai Acheh,5.14973,100.45936
12002098,MKW2098,(M2) Dewan JKKK Sg.Chenaam,5.144516,100.40887
12001984,IJJ1984,Jabatan Laut Wilayah Utara,5.37344,100.31519
12001986,IJJ1986,Mutiara Height,5.3882639999999995,100.31889
12000153,IAA0153,Klinik Desa Sg. Burung,5.33749,100.20715
12000155,IAA0155,Jalan Sungai Burung,5.33939,100.20737
12000158,IAA0158,Restoran,5.34334,100.20801999999999
12000163,IAA0163,Kg Sungai Burung 2,5.34975,100.20902
12000632,ICI0632,SK Pulau Betong,5.30774,100.20289
12000659,ICL0659,Kampung Terang 2,5.318309999999999,100.21105
12000738,ICV0738,SJK Yeok Hua,5.35324,100.20163000000001
12001567,IHA1567,Hospital Balik Pulau,5.35091,100.23312
12001576,IHA1576,SK Titi Teras,5.35886,100.22462
12001577,IHA1577,Dewan JKKK Titi Teras,5.3602,100.22276
12001578,IHA1578,(M3) Balai Bomba Air Putih,5.36203,100.22091999999999
12001579,IHA1579,(M1) Balai Bomba Air Putih,5.36216,100.22057
12000761,ICX0761,Surau Al Hidayah,5.38857,100.19389
12000763,ICX0763,Jalan Kuala Sg. Pinang,5.39312,100.20900999999999
12000764,ICX0764,Taman Jelita,5.39314,100.20311
12000766,ICX0766,Pekan Kuala Sg. Pinang,5.393269999999999,100.20108
12000989,IEN0989,Pusat Falak Sheik Tahir,5.41162,100.19654
12001479,IGU1479,(M3) Bandar Baru Air Putih 2,5.3720099999999995,100.21986
12001480,IGU1480,(M2) Bandar Baru Air Putih 1,5.3727800000000006,100.21994000000001
12001597,IHD1597,Taman Manggis Indah,5.3665199999999995,100.21696
12001611,IHD1611,Masjid Jamek Sungai Rusa,5.382619999999999,100.2138
12001612,IHD1612,Masjid Jamek Sungai Rusa,5.38282,100.21384
12001613,IHD1613,Sekolah Agama Sungai Rusa,5.38467,100.21324
12001621,IHD1621,Klinik Desa Sg. Pinang,5.39409,100.21106999999999
12002392,ICT036,Bengkel Kimpalan Sungai Puyu,5.447873,100.39609300000001
12001206,MFH1206,Permatang Janggus 2,5.39933,100.41722
12001035,IER1035,Klinik Desa Paya Terubong,5.397772,100.27714
12000636,ICJ0636,Kampung Pisang II,5.39888,100.28087
12000638,ICJ0638,Kampung Pisang,5.39927,100.27979
12001324,IFR1324,Jalan Pisang Embun,5.39858,100.2836
12001382,IGH1382,Hadapan Medan Selera Downtown,5.45005,100.3083
12000471,IBG0471,Jalan Delima 3,5.38215,100.29893
12001586,IHA1586,JKP Sungai Pinang,5.40561,100.32009000000001
12000142,I0Z0142,Masjid Jamek Kampung Paya,5.33486,100.21839
12001988,IJJ1988,Tesco Tunku Kudin,5.37429,100.31522
12002203,IEX1199,YMCA,5.4205548,100.3155555
12003017,IAR0351,Padang Kawad,5.356412000000001,100.29335
12003021,IAR0355,Desasiswa Bakti Fajar Permai Petas,5.357158,100.30099
12003023,IAR0357,Kompleks Dewan Kuliah C23,5.35803,100.30411
12001351,MFU1351,Jalan Raja Uda II,5.43119,100.38444
12001353,MFU1353,Medan Selera Raja Uda,5.43318,100.38511
12000931,MED0931,Taman Perindustrian Teras Jaya,5.43361,100.39079
12001343,MFU1343,Petronas Bagan Lalang,5.42223,100.3817
12001393,MGM1393,Jalan Siram II,5.40909,100.37787
12001394,MGM1394,Taman Bagan,5.41009,100.37783
12002034,MKA2034,SJK Tamil Mak Mandin,5.41961,100.39109
12002035,MKA2035,Pejabat Pos Mak Mandin,5.41972,100.38917
12002377,ICT0121,Astaka Mak Mandin,5.415973200000001,100.38583659999999
12002383,ICT0127,Masjid Permatang Tok Jaya,5.4571510000000005,100.401268
12002385,ICT0129,Kampung Paya,5.487664,100.40016899999999
12002025,MJY2025,Aeon Big,5.39034,100.4077
12002092,MKS2092,Taman Sembilang,5.404719999999999,100.40275
12002128,MLB2118,Klinik Bersatu,5.362995300000001,100.41163780000001
12002504,ICT0315,Kilang FMS,5.355735,100.413023
12002507,ICT0318,Kilang Flextronix,5.3513459999999995,100.415548
12002602,ICT0900,Kastam Perai,5.35679,100.4011559
12002526,ICT0416,Kompleks Sukan & Rekreasi MPSP,5.35593,100.44910300000001
12000586,MCB0586,Taman Pinang,5.31604,100.44067
12002516,ICT0403,(M3) Masjid Tok Lebai Hashim,5.331774,100.45083199999999
12002319,ICT0053,Balai Polis Jelutong,5.3912949999999995,100.31217109999999
12001947,IJB1947,Kompleks Makanan Ocean View,5.40073,100.32986
12002076,IKN2076,(M1) Persiaran Kapal Singh,5.39849,100.33054
12000310,IAR0310,SMK Bukit Gambir,5.3704,100.29649
12001152,IFE1152,Jejantas SMK Bayan Lepas,5.28665,100.2562
12001155,IFE1155,Masjid Kampung Seronok,5.29036,100.25675
12001077,IEX1077,Taman Zainal Abidin,5.40831,100.31609
12000420,IBE0420,Taman Nuri I,5.30467,100.26292
12000612,ICG0612,Flat Kg. Suluk,5.288736,100.22211999999999
12000050,I0L0050,Klinik Kesihatan Bandar Baru Air Itam,5.38964,100.28497
12001004,IER1004,SK Seri Relau,5.333880000000001,100.27580999999999
12001800,IHU1800,Jalan Tengah,5.31882,100.2873
12001998,IJO1998,Lintang Angsana II,5.3880349999999995,100.28272
12000362,IAX0362,Sokka Gakai,5.42736,100.31622
12000369,IAX0369,Midlands One Stop Centre,5.43289,100.30629
12000831,IDJ0831,Hotel Red Rock,5.41718,100.32225
12001397,IGN1397,Sri Bahari,5.42089,100.33248
12001399,IGN1399,Pejabat Maritim,5.42175,100.33142
12001921,IIP1921,H.S. Sam Book Store,5.41933,100.33411
12002318,ICT0052,Container Hotel,5.4142,100.34045
12000751,MCW0751,Pulau Mertajam,5.5736099999999995,100.36615
12001058,MEU1058,Balai Polis Penaga,5.524894000000001,100.38132
12001709,MHO1709,SMK Dato 'Onn,5.44791,100.38261
12000091,M0U0091,Jabatan Pertahanan Awam,5.42831,100.37746
12000098,M0U0098,Pasar Awam,5.44083,100.38148000000001
12000760,MCW0760,Balai Bomba Kuala Muda,5.56962,100.3511
12001115,MFC1115,SMK Tok Labu,5.55065,100.37732
12001120,MFC1120,Sungai Kedak,5.567819999999999,100.37631999999999
12001708,MHO1708,SK Bagan Ajam,5.44707,100.38253
12000453,IBF0453,Pasar Jalan Kuantan,5.412776999999999,100.32437
12002102,IKX2102,(M2) Tingkat Paya Terubong4,5.36975,100.27547
12002286,ICT0007,Pekan Paya Terubong,5.37904,100.27483000000001
12002299,ICT2023,PBA Padang Tembak,5.4082099999999995,100.29369
12000077,I0Q0077,Masjid Jamek Sheikh Yusof(Hospital),5.41355,100.31130999999999
12000456,IBF0456,Penang Times Square,5.4131540000000005,100.32621
12000458,IBF0458,Stadium Bandaraya,5.41324,100.31458
12001064,IEV1064,Penang Road,5.41925,100.33199
12001818,IHY1818,Desa Intan - 7D,5.39329,100.28532
12001820,IHY1820,Fortune Court,5.39805,100.28878
12001821,IHY1821,SRJK Sin Kang,5.40045,100.2906
12001922,IIP1922,Banana Boutique,5.419522,100.33361
12002112,IBF0446,Kampung Makam,5.4122699999999995,100.32089
12002116,IFW1356,Terminal Komtar,5.4141808,100.33031319999999
12000074,I0Q0074,SMK (L) Methodist,5.41018,100.30699
12002087,MKR2087,Bertam Putra 3,5.51699,100.49075
12002573,ICT8308,Kampung Pokok Jenerih I,5.521623,100.502889
12002951,MFH1304,Pusat Penjaja Bandar Putra Bertam,5.5180364,100.477164
12002996,MIE1881,Taman Tasek Gelugor Utama,5.489344,100.49723
12002998,MIE1883,Taman Tasek Gelugor Utama III,5.494029,100.49866999999999
12000290,IAQ0290,Klinik Kesihatan Air Hitam,5.40581,100.2826
12000293,IAQ0293,Stesen Bukit Bendera,5.4078599999999994,100.27749
12000625,ICH0625,SK Sri Aman,5.39993,100.28603000000001
12001037,IER1037,Ambank Paya Terubong,5.39975,100.27792
12001935,IIU1935,Bank Negara Malaysia,5.42049,100.34087
12000286,IAN0286,Jalan Besi I,5.3949,100.30194
12000866,IDS0866,Hospital Lam Wah Ee,5.39285,100.3026
12000935,IEE0935,Rumah P.Ramlee,5.40966,100.31549
12000023,I0G0023,Anggerik Villa,5.3685599999999996,100.30825
12000314,IAR0314,SK Bukit Gelugor,5.37725,100.30232
12001211,MFH1211,Taman Ampang Jajar,5.41259,100.39809
12002343,ICT0080,PBA Bukit Mertajam,5.366679,100.460003
12002374,ICT0118,(M3) Pusat Komersial Permatang Pauh,5.381354,100.419758
12002375,ICT0119,Masjid Perda,5.368787,100.43033199999999
12001096,MFA1096,Masjid Perda,5.36871,100.43059000000001
12001204,MFH1204,SK Tok Kandu,5.39449,100.4178
12002320,ICT0057,Sunway Wellesley,5.368673,100.455235
12002366,ICT0109,Nashmir Perda,5.3680010000000005,100.42784300000001
12002367,ICT0110,Pasar Malam Arowana,5.411293,100.409977
12000192,MAA0192,Taman Chai Leng,5.38361,100.38968
12000397,MBA0397,Pusat Perniagaan Chain Ferry,5.40153,100.37983
12001994,MJL1994,Taman Sembilang,5.403,100.39864
12002093,MKS2093,Tesco Extra,5.40595,100.40420999999999
12000389,MBA0389,Public Bank Inderawasih,5.38858,100.38879
12001876,MIF1876,Telekom Seberang Jaya,5.3865,100.40548000000001
12001957,MJF1957,Petronas Sunway,5.4002099999999995,100.39997
12002531,ICT0304,Pangsapuri Lintang Tenggiri,5.395994,100.404116
12002537,ICT0309,Klinik Bersatu,5.339956,100.503712
12002539,ICT0311,Taman Bukit Indah,5.350002,100.479467
12000129,M0Y0129,Tesco Bakar Arang,5.62188,100.47648000000001
12000131,M0Y0131,SMK Che Tom,5.62447,100.4788
12000188,MAA0188,Medan Perniagaan Pauh Jaya,5.37137,100.41258
12001359,MFX1359,Taman Industri Impian,5.3121599999999995,100.47903000000001
12001692,MHK1692,Taman Puteri Gunung,5.28494,100.5027
12001696,MHL1696,Bandar Tasek Mutiara,5.2783,100.48369
12001699,MHM1699,Pejabat Koperasi Tasek Junjung,5.29765,100.53179
12002588,ICT232,Taman Selesa,5.3292507,100.4820585
12000800,MDA0800,Taman Kuari,5.3552,100.46913
12001269,MFK1269,Taman Permatang Tinggi Indah,5.294630000000001,100.47935
12001697,MHL1697,Pusat Perniagaan Tasek Mutiara,5.27834,100.48439
12002329,ICT0066,Masjid Simpang Empat,5.282946,100.476674
12001177,MFH1177,SIRIM,5.37009,100.42318
12000924,MEB0924,SK Jawi,5.19728,100.49322
12001260,MFK1260,Taman Tempua,5.271780000000001,100.47683
12001484,MGV1484,Lean Teik Trading,5.23714,100.4893
12002325,ICT0062,Leeden Hercules,5.32153,100.452924
12002330,ICT0067,Balai Bomba Sungai Bakap,5.261616,100.472897
12000283,MAM0283,Silitech,5.25611,100.4723
12000323,MAU0323,Klinik Kesihatan Bukit Minyak,5.32721,100.44779
12000324,MAU0324,Taman Bukit Minyak,5.3289,100.44755
12001275,MFK1275,MDC Kuari,5.30505,100.4714
12001488,MGV1488,Taman Rebana,5.24258,100.48366999999999
12002335,ICT0072,Hospital Sungai Bakap,5.218885,100.49792099999999
12002337,ICT0074,Oriental Polymer,5.251126999999999,100.474559
12000960,MEI0960,Pusat Perniagaan Padang Lalang,5.36565,100.44286
12000955,MEI0955,Padang Lalang,5.364730000000001,100.44968
12002500,ICT0319,Petronas Nibong Tebal,5.1590569,100.4759619
12002029,IJZ2029,TAR Kolej I,5.4539800000000005,100.28435
12002031,IJZ2031,Lorong Lembah Permai 3,5.45452,100.28829
12000565,ICA0565,Bukit Dumbar,5.38595,100.31156999999999
12002009,IJQ2009,Microlead,5.291417,100.28671999999999
12002060,IKJ2060,Hadapan Queensbay Mall,5.332325,100.30773
12002994,MJY2027,Taman Tun Hussein Onn,5.3861454,100.4057448
12002282,ICT0003,Temple Jalan Tun Sardon,5.3389,100.23796999999999
12000080,I0S0080,Sekolah Ikthisas Tentera Udara,5.45865,100.28950999999999
12000899,IDX0899,Pusat Penjagaan Kanak - Kanak,5.44589,100.30256999999999
12000970,IEL0970,Gleneagles I,5.42659,100.31886
12001668,IHJ1668,Menara Asas,5.46519,100.28331
12000214,IAD0214,Balai Polis Batu Feringghi,5.47115,100.24608
12000216,IAD0216,Hotel Holiday Inn,5.47227,100.24691
12000238,IAD0238,Basket Ball Court,5.4803,100.2605
12001903,IIL1903,Apartmen Taman Sri Pinang,5.406219999999999,100.32298
12002308,ICT0041,Jejantas SK Batu Maung,5.280986,100.28214399999999
12000303,IAR0303,Universiti Sains Malaysia,5.356380000000001,100.29297
12000582,ICA0582,(M3) Pejabat Pos Jelutong,5.38662,100.31258000000001
12001138,IFE1138,SK Permatang Damar Laut,5.280032,100.27171
12001941,IIX1941,Pasar Lebuh Cecil,5.40688,100.32831999999999
12000721,ICR0721,Masjid Jamek Al Munawer,5.4307300000000005,100.31622
12001661,IHJ1661,Chinese Swimming Club,5.46261,100.30429000000001
12001763,IHP1763,Hub Teluk Bahang,5.45841,100.21576
12001765,IHP1765,Taman Negara,5.45899,100.20662
12003016,IAX0372,1926 Heritage Hotel,5.424169,100.320533
12000482,IBL0482,Jalan Gajah II,5.4600599999999995,100.30282
12000003,I0B0003,Flat Lebuh Noordin,5.41115,100.33395
12000575,ICA0575,Maybank Jelutong,5.3979,100.31989
12000888,IDT0888,Hub Pasaraya Giant,5.321734999999999,100.28442
12001437,IGR1437,Ayamas Sg. Nibong,5.338055000000001,100.29855
12001455,IGR1455,Maybank Gelugor,5.3697099999999995,100.31005
12002017,IJU2017,SJK Li Tek,5.40604,100.33349
12001454,IGR1454,BSN Gelugor,5.36943,100.31026
12000816,IDF0816,Pangsapuri Azuria,5.46253,100.27991
12002239,IKY2140,Lembah Permai,5.457399,100.288952
12001082,IEX1082,Pangsapuri Sri Pinang,5.420856,100.31727
12000619,ICG0619,SMK Teluk Kumbar 2,5.29035,100.2222
12000621,ICG0621,Sekolah Agama Al-Itqan,5.2939099999999994,100.22448
12001046,MES1046,Klinik Desa,5.47872,100.40146999999999
12001127,MFD1127,Ban Chuan Seng Rice & Oil Mills,5.49461,100.39783
12002390,ICT034,Sidee Frozen,5.4528550000000005,100.401901
12000035,M0I0035,Taman Guru,5.3825199999999995,100.46361999999999
12000779,MCZ0779,Kampung Petani,5.40453,100.46207
12001174,MFG1174,Pengkalan Tambang,5.42701,100.43426
12001329,MFT1329,(M3) SMKA Al Irshad,5.49015,100.4574
12001331,MFT1331,Taman Koskam,5.4935,100.45172
12001333,MFT1333,Taman Orkid Indah,5.49447,100.44875
12002355,ICT0098,Giat MARA Permatang Pauh,5.409745,100.439603
12000256,MAI0256,Hospital Kepala Batas,5.51278,100.43723
12000771,MCZ0771,Kolej Komuniti Bkt Mertajam,5.38055,100.46454
12000781,MCZ0781,SK Indera Muda,5.40753,100.45715
12000783,MCZ0783,Giat MARA Permatang Pauh,5.4097800000000005,100.43955
12001171,MFG1171,SK Agama Permatang Pasir,5.42162,100.43623000000001
12001336,MFT1336,Masjid Pongsu Seribu,5.49707,100.44341999999999
12002207,IGR1461,Sekolah Memandu Batu Uban,5.3524151,100.30504659999998
12002306,ICT0036,Teluk Kumbar Height,5.28865,100.2473
12001431,IGR1431,PSDC,5.32164,100.29028000000001
12000097,M0U0097,Tesco Bagan Ajam,5.43996,100.38123
12000484,MBM0484,Kampung Master,5.47878,100.50046999999999
12000490,MBM0490,Pusat Komersial Tasek Gelugor,5.484312999999999,100.48904
12000495,MBM0495,Kg Air Melintas Besar,5.48707,100.47806
12000639,MCK0639,Taman Kemaju,5.4802480000000005,100.50426
12001533,MGX1533,Masjid Sungai Lokan,5.45003,100.40833
12001539,MGX1539,Alor Merah,5.45075,100.40326
12000506,MBM0506,Taman Desa Sena,5.48897,100.4635
12001520,MGX1520,Sungai Dua,5.446280000000001,100.42215
12001782,IHQ1782,SK Teluk Kumbar,5.29114,100.23249
12000141,I0Z0141,Hub Pekan Genting,5.33336,100.21667
12000146,I0Z0146,IPD Barat Daya,5.34166,100.2254
12000474,IBH0474,Komtar Timur,5.414579,100.33229
12001930,IIT1930,ISO Tech,5.323867,100.29717
12001949,IJC1949,B. Braun 2,5.309194000000001,100.28263000000001
12002044,IKD2044,Plexus Hillside,5.312353,100.2828
12001491,MGW1491,Kampung Sungai Tongkang,5.132000000000001,100.41911
12001982,IJJ1982,The Light,5.36838,100.31424
12001987,IJJ1987,Flat Macallum,5.40704,100.33189
12000157,IAA0157,Masjid Sungai Burung,5.34189,100.20783
12000161,IAA0161,Sungai Burung,5.34664,100.20849
12000173,IAA0173,Caf√© Anjung Bagan,5.36121,100.21137
12000634,ICI0634,(M2) Kampung Perlis 1,5.31566,100.2042
12000663,ICL0663,Pekan Genting,5.332409999999999,100.21579
12000664,ICL0664,Kampung Pulau Betong,5.30357,100.19714
12001573,IHA1573,Pejabat Agama Daerah,5.35651,100.22721999999999
12000767,ICX0767,SJK Yu Chye,5.39328,100.20184
12000980,IEN0980,Jalan Haji Abd. Ghani Taib,5.40142,100.20657
12000981,IEN0981,Jalan Haji Abd. Ghani Taib,5.40147,100.20661
12000987,IEN0987,Kampung Bukit Kecil,5.40369,100.20045999999999
12000988,IEN0988,Pulaza Balik Pulau,5.4090300000000004,100.1987
12001599,IHD1599,Taman Manggis Indah,5.367482,100.21685
12001623,IHD1623,Kampung Sungai Pinang,5.396028,100.21213
12001207,MFH1207,Masjid Permatang Janggus,5.4019,100.41704
12000060,I0Q0060,Public Bank Air Putih,5.40431,100.28701
12001026,IER1026,Pangsapuri Wisma Indah,5.3878900000000005,100.2745
12000292,IAQ0292,Pasukan Bomba & Penyelamat,5.40674,100.28011
12002634,ICT8888,Bukit Genting,5.315753599999999,100.22620959999999
12001462,IGS1462,Flat PPR Jalan Sungai,5.407030000000001,100.3247
12000830,IDJ0830,Pusat Kegiatan Guru Kelawei,5.41622,100.32396
12001385,IGH1385,Hadapan Straits Quay Marina Mall,5.45791,100.31246
12000469,IBG0469,Jalan Delima 4,5.3800099999999995,100.30026
12000473,IBG0473,Jalan Delima,5.383719999999999,100.3047
12001985,IJJ1985,Mutiara Height,5.3881,100.31811
12000859,IDR0859,Gereja St. George,5.419436,100.339455
12003020,IAR0354,Stor Pusat Kimia Universiti,5.356237999999999,100.30054
12003028,IAR0362,Desasiswa Aman Damai,5.354976000000001,100.29700000000001
12000116,M0W0116,Bagan Lalang,5.4362699999999995,100.39756
12000118,M0W0118,Taman Cengal,5.4393400000000005,100.39755
12000540,MBS0540,Pasar Awam,5.40639,100.37236
12000930,MED0930,Pangsapuri Mesra Jaya,5.431109999999999,100.39560999999999
12000932,MED0932,Pusat Perniagaan Ong Yi How,5.435219999999999,100.38886
12001347,MFU1347,SJKC Kwang Hwa,5.4276800000000005,100.38346
12001348,MFU1348,Jalan Raja Uda I,5.42909,100.38393
12001352,MFU1352,Medan Selera Raja Uda,5.43315,100.38521
12001395,MGM1395,Jalan Siram II,5.41204,100.37836
12000107,M0W0107,Bengkel MPSP Mak Mandin,5.42037,100.3968
12001042,MES1042,SMK Permatang Tok Jaya,5.472158,100.40104000000001
12002124,MLB2114,Klinik Bersatu,5.363021400000001,100.41156509999999
12002947,ICT0501,Pangsapuri Taman Pelangi,5.3453204,100.425329
12001048,MET1048,Medan Selera Taman Pelangi,5.34185,100.42742
12000588,MCB0588,Taman Sentul,5.31639,100.44188
12000732,MCT0732,Taman Kota Permai,5.34403,100.45668
12002293,ICT0014,(M3) Anjung Indah II,5.3494,100.25218000000001
12001946,IJB1946,Pangsapuri Ocean View,5.39816,100.32812
12001948,IJB1948,Summer Place,5.40109,100.33093000000001
12000298,IAR0298,(M2) Pangsapuri Golf View,5.340762000000001,100.29247
12001130,IFE1130,Taman Desa Wangsa,5.2778,100.27060999999999
12001072,IEX1072,Harmony View,5.400284,100.31487
12001075,IEX1075,Kampung Dodol,5.404419,100.31553000000001
12001089,IEX1089,Stadium Bandaraya,5.41135,100.31609
