[{"id":"SPGPLGI_44","name":"SPG PELANGAI","lat":"2.77074154","lon":"102.26712574"},{"id":"SPGPLGI_44R","name":"SPG PELANGAI","lat":"2.77074154","lon":"102.26712574"},{"id":"KGPUOM_45","name":"KAMPUNG PUOM","lat":"3.07263980","lon":"102.10860752"},{"id":"KGPUOM_45R","name":"KAMPUNG PUOM","lat":"3.07618267","lon":"102.10633045"},{"id":"KGPUOM_T71","name":"KAMPUNG PUOM","lat":"3.06729915","lon":"102.11155974"},{"id":"KGPUOM_T71R","name":"KAMPUNG PUOM","lat":"3.06729915","lon":"102.11155973"},{"id":"RKUB_RKUB","name":"HUTAN LIPUR ULU BENDUL","lat":"2.73092401","lon":"102.07819104"},{"id":"RKUB_RKUBR","name":"HUTAN LIPUR ULU BENDUL","lat":"2.73052214","lon":"102.07850754"},{"id":"RKUB_RKUB1","name":"HUTAN LIPUR ULU BENDUL","lat":"2.73052214","lon":"102.07850754"},{"id":"RKUB_RKUB1R","name":"HUTAN LIPUR ULU BENDUL","lat":"2.73052214","lon":"102.07850754"},{"id":"SRUB_SRUBR","name":"TAMAN SRI ULU BENDUL","lat":"2.73375320","lon":"102.08902180"},{"id":"SRUB_SRUB1","name":"TAMAN SRI ULU BENDUL","lat":"2.73375320","lon":"102.08902180"},{"id":"SRUB_SRUB1R","name":"TAMAN SRI ULU BENDUL","lat":"2.73375320","lon":"102.08902180"},{"id":"SRUB_SRUB","name":"TAMAN SRI ULU BENDUL","lat":"2.73393300","lon":"102.08881000"},{"id":"SKUB_SKUB","name":"SK ULU BENDUL","lat":"2.73537141","lon":"102.09494412"},{"id":"SKUB_SKUBR","name":"SK ULU BENDUL","lat":"2.73517852","lon":"102.09501922"},{"id":"SKUB_SKUB1","name":"SK ULU BENDUL","lat":"2.73517852","lon":"102.09501922"},{"id":"SKUB_SKUB1R","name":"SK ULU BENDUL","lat":"2.73517852","lon":"102.09501922"},{"id":"MJUB_MJUB","name":"MASJID KARIAH ULU BENDUL","lat":"2.73723610","lon":"102.10685849"},{"id":"MJUB_MJUBR","name":"MASJID KARIAH ULU BENDUL","lat":"2.73705928","lon":"102.10694432"},{"id":"MJUB_MJUB1","name":"MASJID KARIAH ULU BENDUL","lat":"2.73727815","lon":"102.10681419"},{"id":"MJUB_MJUB1R","name":"MASJID KARIAH ULU BENDUL","lat":"2.73727815","lon":"102.10681419"},{"id":"KUMP_KUMP","name":"KAMPUNG ULU MAMPAS","lat":"2.73975986","lon":"102.12722182"},{"id":"KUMP_KUMPR","name":"KAMPUNG ULU MAMPAS","lat":"2.73975986","lon":"102.12722182"},{"id":"KUMP_KUMP1","name":"KAMPUNG ULU MAMPAS","lat":"2.74062122","lon":"102.12877543"},{"id":"KUMP_KUMP1R","name":"KAMPUNG ULU MAMPAS","lat":"2.74062122","lon":"102.12877543"},{"id":"KKTC_KKTC","name":"KLINIK KESIHATAN TERACHI","lat":"2.74199962","lon":"102.13498414"},{"id":"KKTC_KKTCR","name":"KLINIK KESIHATAN TERACHI","lat":"2.74199962","lon":"102.13498413"},{"id":"KKTC_KKTC1","name":"KLINIK KESIHATAN TERACHI","lat":"2.74199962","lon":"102.13498413"},{"id":"KKTC_KKTC1R","name":"KLINIK KESIHATAN TERACHI","lat":"2.74199962","lon":"102.13498413"},{"id":"PTNB_PTNB","name":"PENCAWANG TNB","lat":"2.80086866","lon":"101.75966783"},{"id":"PTNB_PTNBR","name":"PENCAWANG TNB","lat":"2.80086866","lon":"101.75966783"},{"id":"PTNB_PCWGTNB","name":"PENCAWANG TNB","lat":"2.72951147","lon":"101.78984898"},{"id":"PTNB_PCWGTNBR","name":"PENCAWANG TNB","lat":"2.72951147","lon":"101.78984898"},{"id":"PTNB_PT","name":"PENCAWANG TNB","lat":"2.72951147","lon":"101.78984898"},{"id":"PPKR1_PPKR1","name":"PAROI PAKAR1","lat":"2.71610800","lon":"102.01355000"},{"id":"PPKR1_PPKR1R","name":"PAROI PAKAR1","lat":"2.71640822","lon":"102.01277196"},{"id":"NS_NS","name":"NILAI SENTRAL","lat":"2.80220369","lon":"101.79846883"},{"id":"NS_NS2","name":"NILAI SENTRAL","lat":"2.80220369","lon":"101.79846882"},{"id":"NS_NS512","name":"NILAI SENTRAL","lat":"2.80220369","lon":"101.79846882"},{"id":"NS_56","name":"NILAI SENTRAL","lat":"2.80220369","lon":"101.79846882"},{"id":"NS_56R","name":"NILAI SENTRAL","lat":"2.80220369","lon":"101.79846882"},{"id":"NS_52","name":"NILAI SENTRAL","lat":"2.80220369","lon":"101.79846882"},{"id":"NS_52R","name":"NILAI SENTRAL","lat":"2.80220369","lon":"101.79846882"},{"id":"NS_57R","name":"NILAI SENTRAL","lat":"2.80220369","lon":"101.79846882"},{"id":"TKPYG_TKPYG","name":"TMN KEPAYANG","lat":"2.81149978","lon":"102.36544490"},{"id":"TKPYG_TKPYGR","name":"TMN KEPAYANG","lat":"2.81149978","lon":"102.36544489"},{"id":"TKPYG_KP","name":"TMN KEPAYANG","lat":"2.81266087","lon":"102.36407143"},{"id":"TKPYG_KPR","name":"TMN KEPAYANG","lat":"2.81266087","lon":"102.36407143"},{"id":"SKTM_SK","name":"SK TUNKU MUDA SERTING","lat":"2.81011369","lon":"102.36936017"},{"id":"SKTM_SKR","name":"SK TUNKU MUDA SERTING","lat":"2.81011369","lon":"102.36936017"},{"id":"SKTM_SKTM","name":"SK TUNKU MUDA SERTING","lat":"2.80954948","lon":"102.37028360"},{"id":"SKTM_SKTMR","name":"SK TUNKU MUDA SERTING","lat":"2.80954948","lon":"102.37028360"},{"id":"TZ_TZ1","name":"TERATAK ZAABA","lat":"2.83094902","lon":"102.33087659"},{"id":"TZ_TZ1R","name":"TERATAK ZAABA","lat":"2.83094902","lon":"102.33087658"},{"id":"TZ_TZ2","name":"TERATAK ZAABA","lat":"2.83094902","lon":"102.33087658"},{"id":"TZ_TZ2R","name":"TERATAK ZAABA","lat":"2.83094902","lon":"102.33087658"},{"id":"PNDKPOLIS_PNDKPOLIS","name":"PONDOK POLIS KLIA","lat":"2.76261975","lon":"101.76314418"},{"id":"PNDKPOLIS_PNDKPOLISR","name":"PONDOK POLIS KLIA","lat":"2.76261975","lon":"101.76314418"},{"id":"TAGM_TAGM","name":"TAMAN ANGSAMAS","lat":"2.65167280","lon":"101.92499490"},{"id":"TAGM_TAGMR","name":"TAMAN ANGSAMAS","lat":"2.65167280","lon":"101.92499490"},{"id":"TAGM_AM","name":"TAMAN ANGSAMAS","lat":"2.64906769","lon":"101.92376525"},{"id":"TAGM_AMR","name":"TAMAN ANGSAMAS","lat":"2.64906769","lon":"101.92376525"},{"id":"KGBLKN_KGBLKNR","name":"KG BELANGKAN","lat":"2.65212191","lon":"101.94060981"},{"id":"KGBLKN_KGB","name":"KG BELANGKAN","lat":"2.65237281","lon":"101.94060981"},{"id":"KGBLKN_KGBR","name":"KG BELANGKAN","lat":"2.65237281","lon":"101.94060981"},{"id":"KGBLKN_KGBLKN","name":"KG BELANGKAN","lat":"2.65237281","lon":"101.94036415"},{"id":"PROTONJR_PROTONJR","name":"PROTON RAHANG","lat":"2.71069080","lon":"101.95234716"},{"id":"PROTONJR_PROTONJRR","name":"PROTON RAHANG","lat":"2.71069080","lon":"101.95234715"},{"id":"UITMS3_UITMS32","name":"UITM SEREMBAN 3","lat":"2.67328661","lon":"101.93531701"},{"id":"UITMS3_UITMS32R","name":"UITM SEREMBAN 3","lat":"2.67328661","lon":"101.93531700"},{"id":"UITMS3_UITMS31","name":"UITM SEREMBAN 3","lat":"2.67399667","lon":"101.93586166"},{"id":"UITMS3_UITMS31R","name":"UITM SEREMBAN 3","lat":"2.67337423","lon":"101.93464994"},{"id":"BIRDP_BIRDP","name":"PUSAT PERNIAGAAN SEREMBAN 3/BIRD PARADISE","lat":"2.67749497","lon":"101.93654895"},{"id":"BIRDP_BIRDPR","name":"PUSAT PERNIAGAAN SEREMBAN 3/BIRD PARADISE","lat":"2.67749497","lon":"101.93654894"},{"id":"BIRDP_BP","name":"PUSAT PERNIAGAAN SEREMBAN 3/BIRD PARADISE","lat":"2.67749497","lon":"101.93654894"},{"id":"BIRDP_BPR","name":"PUSAT PERNIAGAAN SEREMBAN 3/BIRD PARADISE","lat":"2.67749497","lon":"101.93654894"},{"id":"SMKBDRENS_SMKBDRENS","name":"SMK BANDAR ENSTEK","lat":"2.75079443","lon":"101.76707881"},{"id":"SMKBDRENS_SMKBDRENSR","name":"SMK BANDAR ENSTEK","lat":"2.75079443","lon":"101.76707881"},{"id":"JENTAYU_JENTAYU","name":"JENTAYU","lat":"2.74483995","lon":"101.76383840"},{"id":"JENTAYU_JENTAYUR","name":"JENTAYU","lat":"2.74483995","lon":"101.76383840"},{"id":"PUSPEK_PUSPEK","name":"PUSPEK","lat":"2.74003350","lon":"101.76434189"},{"id":"PUSPEK_PUSPEKR","name":"PUSPEK","lat":"2.74003350","lon":"101.76434189"},{"id":"TTJ_TTJ","name":"TAMAN THIVY JAYA 1","lat":"2.68566000","lon":"101.94220000"},{"id":"TTJ_TTJR","name":"TAMAN THIVY JAYA 1","lat":"2.68566000","lon":"101.94220000"},{"id":"TTJ_TTV1","name":"TAMAN THIVY JAYA 1","lat":"2.68994284","lon":"101.94223523"},{"id":"TTJ_TTV1R","name":"TAMAN THIVY JAYA 1","lat":"2.68994284","lon":"101.94223523"},{"id":"SMKBM_SMKBM","name":"SMK BUKT MEWAH","lat":"2.69427251","lon":"101.94498181"},{"id":"SMKBM_SMKBMR","name":"SMK BUKT MEWAH","lat":"2.69427251","lon":"101.94498181"},{"id":"SMKBM_SMBM","name":"SMK BUKT MEWAH","lat":"2.69418865","lon":"101.94515347"},{"id":"SMKBM_SMBMR","name":"SMK BUKT MEWAH","lat":"2.69418865","lon":"101.94515347"},{"id":"LDGKBOK_LDGKBOK","name":"LADANG KOMBOK","lat":"2.63135153","lon":"101.98432982"},{"id":"LDGKBOK_LDGKBOKR","name":"LADANG KOMBOK","lat":"2.63135153","lon":"101.98432981"},{"id":"RANAGP_RANAGPR","name":"RANTAU AGRO PARK","lat":"2.61885483","lon":"101.98626637"},{"id":"RANAGP_RA","name":"RANTAU AGRO PARK","lat":"2.61571831","lon":"101.98070948"},{"id":"RANAGP_RAR","name":"RANTAU AGRO PARK","lat":"2.61571831","lon":"101.98070948"},{"id":"RANAGP_RANAGP","name":"RANTAU AGRO PARK","lat":"2.61885483","lon":"101.98626637"},{"id":"RRULLG_RRULGR","name":"RUMAH RAKYAT ULU LALANG","lat":"2.61198701","lon":"101.97362968"},{"id":"RRULLG_RRULLG","name":"RUMAH RAKYAT ULU LALANG","lat":"2.61680240","lon":"101.98332667"},{"id":"RRULLG_RRULLGR","name":"RUMAH RAKYAT ULU LALANG","lat":"2.61680240","lon":"101.98332667"},{"id":"RRULLG_RRULLGR1","name":"RUMAH RAKYAT ULU LALANG","lat":"2.61198953","lon":"101.97351451"},{"id":"SULLG_SULLG","name":"SURAU ULU LALANG","lat":"2.61272433","lon":"101.97472751"},{"id":"SULLG_SULLGR","name":"SURAU ULU LALANG","lat":"2.61272433","lon":"101.97472751"},{"id":"SULLG_SRULLG","name":"SURAU ULU LALANG","lat":"2.60940378","lon":"101.96986456"},{"id":"SULLG_SRULLG2","name":"SURAU ULU LALANG","lat":"2.60940378","lon":"101.96986455"},{"id":"TMNRUTAMA_TMNRUTAMA","name":"TMN RASHIDAH UTAMA","lat":"2.70217625","lon":"101.97591305"},{"id":"TMNRUTAMA_TMNRUTAMAR","name":"TMN RASHIDAH UTAMA","lat":"2.70217625","lon":"101.97591304"},{"id":"TMNRUTAMA_TRU","name":"TMN RASHIDAH UTAMA","lat":"2.70011609","lon":"101.97538449"},{"id":"TMNGURU_TMNGURU","name":"TMN GURU","lat":"2.70524664","lon":"101.97701275"},{"id":"TMNGURU_TMNGURUR","name":"TMN GURU","lat":"2.70524664","lon":"101.97701275"},{"id":"TMNGURU_TG","name":"TMN GURU","lat":"2.70324023","lon":"101.97626114"},{"id":"TMNGURU_TGR","name":"TMN GURU","lat":"2.70324023","lon":"101.97626114"},{"id":"INTGURU_INTGURU","name":"INT PENDIDIKAN GURU","lat":"2.72776897","lon":"101.79879930"},{"id":"INTGURU_INTGURUR","name":"INT PENDIDIKAN GURU","lat":"2.72776897","lon":"101.79879930"},{"id":"INTBAKI_INTBAKIR","name":"INT AMINUDIN BAKI TKC","lat":"2.72817815","lon":"101.79348046"},{"id":"INTBAKI_INTBAKI","name":"INT AMINUDIN BAKI TKC","lat":"2.72817815","lon":"101.79348046"},{"id":"PETRSH_PETRSH","name":"PETRON BKT RASAH","lat":"2.71466571","lon":"101.94258736"},{"id":"PETRSH_PETRSHR","name":"PETRON BKT RASAH","lat":"2.71466571","lon":"101.94258736"},{"id":"PETRSH_PETRRSH","name":"PETRON BKT RASAH","lat":"2.71466571","lon":"101.94258736"},{"id":"MPM_MPM","name":"MEDAN SELERA REMBAU","lat":"2.66993578","lon":"101.92245126"},{"id":"MPM_MPMR","name":"MEDAN SELERA REMBAU","lat":"2.66993578","lon":"101.92245126"},{"id":"MPM_MS","name":"MEDAN SELERA REMBAU","lat":"2.60371073","lon":"102.06883013"},{"id":"MPM_MSR","name":"MEDAN SELERA REMBAU","lat":"2.60371073","lon":"102.06883013"},{"id":"SKDATO_SKDATO","name":"SK DATO AHMAD MANAF","lat":"2.79776883","lon":"101.77416487"},{"id":"SKDATO_SKDATOR","name":"SK DATO AHMAD MANAF","lat":"2.79776883","lon":"101.77416487"},{"id":"LMNCMPK_LMNCMPK","name":"LAMAN CEMPAKA","lat":"2.78295727","lon":"101.77303134"},{"id":"LMNCMPK_LMNCMPKR","name":"LAMAN CEMPAKA","lat":"2.78295727","lon":"101.77303134"},{"id":"SKKLIA_SKKLIA","name":"SK KLIA","lat":"2.76595525","lon":"101.76043186"},{"id":"SKKLIA_SKKLIAR","name":"SK KLIA","lat":"2.76595525","lon":"101.76043186"},{"id":"KILPAPAN_KILPAPAN","name":"KILANG PAPAN","lat":"2.65586338","lon":"101.92390433"},{"id":"KILPAPAN_KILPAPANR","name":"KILANG PAPAN","lat":"2.65586338","lon":"101.92390433"},{"id":"KGB2_KGB2","name":"KG BELANGKAN 2","lat":"2.64808016","lon":"101.94549813"},{"id":"KGB2_KGB2R","name":"KG BELANGKAN 2","lat":"2.64808016","lon":"101.94549813"},{"id":"SJKCCH_SJK","name":"SJKC CHUNG HUA","lat":"2.59252182","lon":"101.96421366"},{"id":"SJKCCH_SJKC","name":"SJKC CHUNG HUA","lat":"2.59211561","lon":"101.96429088"},{"id":"SJKCCH_SJKCCH1","name":"SJKC CHUNG HUA","lat":"2.59195441","lon":"101.96400045"},{"id":"SJKCCH_SJKCCH","name":"SJKC CHUNG HUA","lat":"2.59252182","lon":"101.96421366"},{"id":"SJKCCH_SJKCCHR","name":"SJKC CHUNG HUA","lat":"2.59252182","lon":"101.96421366"},{"id":"SKDAZ_SKDAZ","name":"SK DATO AKHIR ZAMAN","lat":"2.59050248","lon":"101.96381289"},{"id":"SKDAZ_SKDAZR","name":"SK DATO AKHIR ZAMAN","lat":"2.59050248","lon":"101.96381289"},{"id":"KGPAS_KGPAS","name":"KG PASIR","lat":"2.58050878","lon":"101.95375235"},{"id":"KGPAS_KGPASR","name":"KG PASIR","lat":"2.58050878","lon":"101.95375235"},{"id":"KPLS_KPLS","name":"KG PASIR LIN SUM","lat":"2.57900803","lon":"101.95222549"},{"id":"KPLS_KPLSR","name":"KG PASIR LIN SUM","lat":"2.57900803","lon":"101.95222549"},{"id":"KGBC_KGBC","name":"KG BARU CINA","lat":"2.58715232","lon":"101.86459722"},{"id":"KGBC_KGBCR","name":"KG BARU CINA","lat":"2.58715232","lon":"101.86459722"},{"id":"KGBC_KBC","name":"KG BARU CINA","lat":"2.74278612","lon":"101.85808460"},{"id":"KGBC_KBCR","name":"KG BARU CINA","lat":"2.74278612","lon":"101.85808460"},{"id":"YAMTUAN_YAMTUAN","name":"SMK YAM TUAN RADEN","lat":"2.58488758","lon":"101.85542233"},{"id":"YAMTUAN_YAMTUANR","name":"SMK YAM TUAN RADEN","lat":"2.58488758","lon":"101.85542233"},{"id":"TMNIJ_TMNIJ","name":"TAMAN INDAH JAYA","lat":"2.57716589","lon":"101.83925781"},{"id":"TMNIJ_TMNIJR","name":"TAMAN INDAH JAYA","lat":"2.57716589","lon":"101.83925781"},{"id":"TMNASTHAR_TMNASTHAR","name":"TAMAN ASTANA HARMONI","lat":"2.57301983","lon":"101.83251450"},{"id":"TMNASTHAR_TMNASTHARR","name":"TAMAN ASTANA HARMONI","lat":"2.57301983","lon":"101.83251450"},{"id":"CIMBLUK_CIMBLUK","name":"CIMB LUKUT","lat":"2.56751453","lon":"101.82794316"},{"id":"CIMBLUK_CIMBLUKR","name":"CIMB LUKUT","lat":"2.56751453","lon":"101.82794316"},{"id":"TMNKLUKUT_TMNKLUKUT","name":"TAMAN KOTA LUKUT","lat":"2.56566942","lon":"101.82163673"},{"id":"TMNKLUKUT_TMNKLUKUTR","name":"TAMAN KOTA LUKUT","lat":"2.56566942","lon":"101.82163673"},{"id":"TMNPDJ_TMNPDJ","name":"TAMAN PD JASMIN","lat":"2.55571998","lon":"101.80707040"},{"id":"TMNPDJ_TMNPDJR","name":"TAMAN PD JASMIN","lat":"2.55571998","lon":"101.80707040"},{"id":"PDLAV_PDLAV","name":"TAMAN PD LAVENDER","lat":"2.53996884","lon":"101.79817438"},{"id":"PDLAV_PDLAVR","name":"TAMAN PD LAVENDER","lat":"2.53996884","lon":"101.79817437"},{"id":"SPGKS_SPGKSR","name":"SPG KOTA SERIEMAS","lat":"2.78880324","lon":"101.75851464"},{"id":"SPGKS_SPGKS","name":"SPG KOTA SERIEMAS","lat":"2.78880324","lon":"101.75851464"},{"id":"DPSBN_DPSBN","name":"DEWAN PERBANDARAN SEREMBAN","lat":"2.72349735","lon":"101.94098532"},{"id":"DPSBN_DPSBNR","name":"DEWAN PERBANDARAN SEREMBAN","lat":"2.72349735","lon":"101.94098532"},{"id":"TMNSNTSA_TMNSNTSA","name":"TMN SENTOSA","lat":"2.73856310","lon":"101.92853900"},{"id":"TMNSNTSA_TMNSNTSAR","name":"TMN SENTOSA","lat":"2.73856310","lon":"101.92853900"},{"id":"TMNSNTSA_TSTSA","name":"TMN SENTOSA","lat":"2.56407937","lon":"101.81612849"},{"id":"TMNSNTSA_TSTSAR","name":"TMN SENTOSA","lat":"2.56407937","lon":"101.81612849"},{"id":"TTJAAFAR_TTJR","name":"TAMAN TUNKU JAAFAR","lat":"2.67387200","lon":"101.99400695"},{"id":"TTJAAFAR_TTJ","name":"TAMAN TUNKU JAAFAR","lat":"2.67387200","lon":"101.99400695"},{"id":"TTJAAFAR_TTJAAFAR","name":"TAMAN TUNKU JAAFAR","lat":"2.67296697","lon":"101.98899150"},{"id":"TTJAAFAR_TTJAAFARR","name":"TAMAN TUNKU JAAFAR","lat":"2.67292946","lon":"101.98889494"},{"id":"TTJAAFAR_TJ","name":"TAMAN TUNKU JAAFAR","lat":"2.67387200","lon":"101.99400695"},{"id":"TTJAAFAR_TJR","name":"TAMAN TUNKU JAAFAR","lat":"2.67387200","lon":"101.99400695"},{"id":"BT3M_BT3M","name":"BATU 3 MAMBAU","lat":"2.67906502","lon":"101.92751151"},{"id":"KS_KS","name":"KAMPUNG SENTOSA","lat":"2.71756027","lon":"101.98794007"},{"id":"KS_KSR","name":"KAMPUNG SENTOSA","lat":"2.71756027","lon":"101.98794007"},{"id":"KS_KS1","name":"KAMPUNG SENTOSA","lat":"2.71756027","lon":"101.98794007"},{"id":"PSRRJ_PSRRJ","name":"PASAR RASAH JAYA","lat":"2.67994517","lon":"101.94342747"},{"id":"PSRRJ_PSRRJR","name":"PASAR RASAH JAYA","lat":"2.67994517","lon":"101.94342747"},{"id":"PSRRJ_PRJ","name":"PASAR RASAH JAYA","lat":"2.67994517","lon":"101.94342747"},{"id":"PSRRJ_PRSJ","name":"PASAR RASAH JAYA","lat":"2.67994517","lon":"101.94342747"},{"id":"SKAMPGAN_SKAMPGAN","name":"SK AMPANGAN","lat":"2.72625154","lon":"101.96773231"},{"id":"SKAMPGAN_SK","name":"SK AMPANGAN","lat":"2.72625154","lon":"101.96773231"},{"id":"SKAMPGAN_SK1","name":"SK AMPANGAN","lat":"2.72625154","lon":"101.96773231"},{"id":"DSMALL_DSMALL","name":"DSTREET MALL","lat":"2.77328629","lon":"101.76693824"},{"id":"DSMALL_DSMALLR","name":"DSTREET MALL","lat":"2.77328629","lon":"101.76693824"},{"id":"PETHARMAS_PETHARMAS","name":"PETRONAS HARTAMAS","lat":"2.76946702","lon":"101.76414546"},{"id":"PETHARMAS_PETHARMASR","name":"PETRONAS HARTAMAS","lat":"2.76946702","lon":"101.76414546"},{"id":"SMARAN_SMARAN","name":"SMA RANTAU","lat":"2.63251526","lon":"101.95292594"},{"id":"SMARAN_SMARANR","name":"SMA RANTAU","lat":"2.63251526","lon":"101.95292594"},{"id":"PDGMPS_PDGMPS","name":"PADANG MPS","lat":"2.72260786","lon":"101.93945646"},{"id":"PDGMPS_PDGMPSR","name":"PADANG MPS","lat":"2.72260786","lon":"101.93945646"},{"id":"PDGMPS_PMPS","name":"PADANG MPS","lat":"2.72215540","lon":"101.94135010"},{"id":"KWSP_KWSP","name":"KWSP SEREMBAN","lat":"2.71988581","lon":"101.94300771"},{"id":"KWSP_KWSPR","name":"KWSP SEREMBAN","lat":"2.71988581","lon":"101.94300770"},{"id":"KWSP_KWSPSBN","name":"KWSP SEREMBAN","lat":"2.71988581","lon":"101.94300771"},{"id":"SHELLJLNZB_SHELLJLNZB","name":"SHELL JALAN ZAABA","lat":"2.71689583","lon":"101.94570601"},{"id":"SHELLJLNZB_SHELLJLNZBR","name":"SHELL JALAN ZAABA","lat":"2.71689583","lon":"101.94570600"},{"id":"BPRHG_BPRHG1","name":"BALAI POLIS RAHANG","lat":"2.71431309","lon":"101.95125282"},{"id":"BPRHG_BPR1","name":"BALAI POLIS RAHANG","lat":"2.71431309","lon":"101.95125281"},{"id":"BPRHG_BPR2","name":"BALAI POLIS RAHANG","lat":"2.71431309","lon":"101.95125281"},{"id":"BPRHG_BPRR","name":"BALAI POLIS RAHANG","lat":"2.71431309","lon":"101.95125281"},{"id":"BPRHG_BPRRRR","name":"BALAI POLIS RAHANG","lat":"2.71431309","lon":"101.95125281"},{"id":"STDN1_STDN1","name":"SIMPANG TAMAN DUSUN NYIOR 1","lat":"2.71502575","lon":"101.95236325"},{"id":"STDN1_STDN1R","name":"SIMPANG TAMAN DUSUN NYIOR 1","lat":"2.71502575","lon":"101.95236325"},{"id":"KLJRSIPL2_N11","name":"KOLEJ SRI PILAH 2","lat":"2.79411301","lon":"102.22187941"},{"id":"KLJRSIPL2_N11R","name":"KOLEJ SRI PILAH 2","lat":"2.79411301","lon":"102.22187941"},{"id":"KGGMRH_N11","name":"KG GEMURUH","lat":"2.73485368","lon":"102.23908524"},{"id":"KGGMRH_N11R","name":"KG GEMURUH","lat":"2.73485368","lon":"102.23908524"},{"id":"SMPGFD_T71","name":"SIMPANG FELDA TITI","lat":"2.97500236","lon":"102.06069767"},{"id":"SMPGFD_T71R","name":"SIMPANG FELDA TITI","lat":"2.97500236","lon":"102.06069767"},{"id":"STACC_T71","name":"ST AUGUSTINE CATHOLIC CHURCH","lat":"2.98922024","lon":"102.07233310"},{"id":"STACC_T71R","name":"ST AUGUSTINE CATHOLIC CHURCH","lat":"2.98922024","lon":"102.07233309"},{"id":"TBKK_T71","name":"TERMINAL BAS KUALA KLAWANG","lat":"2.94148595","lon":"102.07082636"},{"id":"TBKK_T71R","name":"TERMINAL BAS KUALA KLAWANG","lat":"2.94148067","lon":"102.07084133"},{"id":"PKNTITI_T71","name":"PEKAN TITI","lat":"2.99516515","lon":"102.07912484"},{"id":"PKNTITI_T71R","name":"PEKAN TITI","lat":"2.99516515","lon":"102.07912484"},{"id":"KGBSM1_T71R","name":"KAMPUNG BARU SUNGAI MUNTOH 1","lat":"3.01836982","lon":"102.08285916"},{"id":"KGBSM1_T71","name":"KAMPUNG BARU SUNGAI MUNTOH 1","lat":"3.01836982","lon":"102.08285917"},{"id":"KGBSM2_T71","name":"KAMPUNG BARU SUNGAI MUNTOH 2","lat":"3.01949070","lon":"102.08270717"},{"id":"KGBSM2_T71R","name":"KAMPUNG BARU SUNGAI MUNTOH 2","lat":"3.01949070","lon":"102.08270716"},{"id":"KGSGM_T71","name":"KAMPUNG SUNGAI MUNTOH","lat":"3.02163408","lon":"102.08235227"},{"id":"KGSGM_T71R","name":"KAMPUNG SUNGAI MUNTOH","lat":"3.02163408","lon":"102.08235226"},{"id":"KEMK_T71","name":"KEM KONGKOI","lat":"3.03164536","lon":"102.07590261"},{"id":"KEMK_T71R","name":"KEM KONGKOI","lat":"3.03164536","lon":"102.07590261"},{"id":"TAYG_T71","name":"TERATAK APAK YUNUIH GLAMPING","lat":"3.07918933","lon":"102.10252404"},{"id":"TAYG_T71R","name":"TERATAK APAK YUNUIH GLAMPING","lat":"3.07918933","lon":"102.10252404"},{"id":"KGTELEKONG_T71","name":"KAMPUNG TELEKONG","lat":"3.08754798","lon":"102.10000723"},{"id":"KGTELEKONG_T71R","name":"KAMPUNG TELEKONG","lat":"3.08754798","lon":"102.10000723"},{"id":"TMNBKKC_T71","name":"TAMAN BIMBINGAN KNK-KNK KG CHENNAH","lat":"3.09043828","lon":"102.07359910"},{"id":"TMNBKKC_T71R","name":"TAMAN BIMBINGAN KNK-KNK KG CHENNAH","lat":"3.09043828","lon":"102.07359910"},{"id":"BPKGC_T71","name":"BALAI POLIS KG CHENNAH","lat":"3.09175199","lon":"102.07226068"},{"id":"BPKGC_T71R","name":"BALAI POLIS KG CHENNAH","lat":"3.09175199","lon":"102.07226067"},{"id":"TMNDSMLG_N11","name":"TAMAN DESA MELANG","lat":"2.73623170","lon":"102.22378804"},{"id":"TMNDSMLG_N11R","name":"TAMAN DESA MELANG","lat":"2.73623170","lon":"102.22378804"},{"id":"ESVMLG_N11","name":"ECONSAVE MELANG","lat":"2.73546383","lon":"102.23168365"},{"id":"ESVMLG_N11R","name":"ECONSAVE MELANG","lat":"2.73546383","lon":"102.23168365"},{"id":"UITMLAMA_N11","name":"UITM LAMA","lat":"2.73494406","lon":"102.23779404"},{"id":"UITMLAMA_N11R","name":"UITM LAMA","lat":"2.73494406","lon":"102.23779404"},{"id":"PEJDRH_N11","name":"PEJABAT DAERAH","lat":"2.74549034","lon":"102.24756212"},{"id":"PEJDRH_N11R","name":"PEJABAT DAERAH","lat":"2.74549034","lon":"102.24756212"},{"id":"SPGSMSTJ_N11","name":"SIMPANG SM SAINS TUANKU JAAFAR","lat":"2.75459740","lon":"102.25109001"},{"id":"SPGSMSTJ_N11R","name":"SIMPANG SM SAINS TUANKU JAAFAR","lat":"2.75459740","lon":"102.25109000"},{"id":"TMNSNMS_N11","name":"TAMAN SENIMAS","lat":"2.76840809","lon":"102.25113956"},{"id":"TMNSNMS_N11R","name":"TAMAN SENIMAS","lat":"2.76840809","lon":"102.25113955"},{"id":"TMNSNMS2_N11","name":"TAMAN SENIMAS 2","lat":"2.77186939","lon":"102.24870763"},{"id":"TMNSNMS2_N11R","name":"TAMAN SENIMAS 2","lat":"2.77186939","lon":"102.24870762"},{"id":"KGBPT_N11","name":"KAMPUNG BARU PARIT TINGGI","lat":"2.78674478","lon":"102.22244073"},{"id":"KGBPT_N11R","name":"KAMPUNG BARU PARIT TINGGI","lat":"2.78674478","lon":"102.22244072"},{"id":"SPGUITM_N11","name":"SIMPANG UITM","lat":"2.78865592","lon":"102.21782415"},{"id":"SPGUITM_N11R","name":"SIMPANG UITM","lat":"2.78865592","lon":"102.21782414"},{"id":"IPDKLPLH_N11","name":"IPD KUALA PILAH","lat":"2.73631447","lon":"102.22094894"},{"id":"IPDKLPLH_N11R","name":"IPD KUALA PILAH","lat":"2.73631447","lon":"102.22094893"},{"id":"TSJ_TS","name":"TMN SERTING JAYA","lat":"2.80800163","lon":"102.37369277"},{"id":"TSJ_TSR","name":"TMN SERTING JAYA","lat":"2.80800163","lon":"102.37369277"},{"id":"TSJ_TSJ","name":"TMN SERTING JAYA","lat":"2.80800163","lon":"102.37369277"},{"id":"TSJ_TSJR","name":"TMN SERTING JAYA","lat":"2.80800163","lon":"102.37369277"},{"id":"BGLGR_BGLGR","name":"DESA BUKIT GELUGOR","lat":"2.80677405","lon":"102.31066883"},{"id":"BGLGR_BGLGRR","name":"DESA BUKIT GELUGOR","lat":"2.80483982","lon":"102.31037915"},{"id":"BGLGR_BG","name":"DESA BUKIT GELUGOR","lat":"2.80483982","lon":"102.31037915"},{"id":"BGLGR_BGR","name":"DESA BUKIT GELUGOR","lat":"2.80483982","lon":"102.31037915"},{"id":"KVJ_KVJR","name":"KOLEJ VOKASIONAL JUASEH","lat":"2.79163230","lon":"102.30037987"},{"id":"KVJ_KV","name":"KOLEJ VOKASIONAL JUASEH","lat":"2.79164301","lon":"102.30041206"},{"id":"KVJ_KVJ","name":"KOLEJ VOKASIONAL JUASEH","lat":"2.79164301","lon":"102.30041206"},{"id":"SKGL_SKGL","name":"SK KAMPUNG GELAM","lat":"2.53484726","lon":"101.79517508"},{"id":"SKGL_SKGLR","name":"SK KAMPUNG GELAM","lat":"2.53468648","lon":"101.79501414"},{"id":"SKGL_SMKG","name":"SK KAMPUNG GELAM","lat":"2.53468648","lon":"101.79501414"},{"id":"KKPD_KKPDR","name":"KLINIK KESIHATAN PORT DICKSON 1","lat":"2.52747302","lon":"101.79223537"},{"id":"KKPD_KKPDD","name":"KLINIK KESIHATAN PORT DICKSON 1","lat":"2.52816435","lon":"101.79223537"},{"id":"KKPD_KKPDDR","name":"KLINIK KESIHATAN PORT DICKSON 1","lat":"2.52816435","lon":"101.79223537"},{"id":"KKPD_KKPD","name":"KLINIK KESIHATAN PORT DICKSON 1","lat":"2.52816435","lon":"101.79212272"},{"id":"TPD_TPD","name":"TERMINAL PORT DICKSON","lat":"2.52394130","lon":"101.79633915"},{"id":"TPD_TPDR","name":"TERMINAL PORT DICKSON","lat":"2.52394130","lon":"101.79633915"},{"id":"TPD_PD","name":"TERMINAL PORT DICKSON","lat":"2.52394130","lon":"101.79633915"},{"id":"TPD_TPD1","name":"TERMINAL PORT DICKSON","lat":"2.52394130","lon":"101.79633915"},{"id":"TPD_T300N","name":"TERMINAL PORT DICKSON","lat":"2.52394130","lon":"101.79633915"},{"id":"LDSL_LDSL","name":"LADANG SALAK SIME DARBY","lat":"2.59762839","lon":"101.87394619"},{"id":"LDSL_LDSLR","name":"LADANG SALAK SIME DARBY","lat":"2.59753728","lon":"101.87379599"},{"id":"SSIL_SSILR","name":"SIMPANG SILIAU","lat":"2.58631568","lon":"101.86950445"},{"id":"SSIL_SSSR","name":"SIMPANG SILIAU","lat":"2.58631568","lon":"101.86950445"},{"id":"SSIL_SSIL","name":"SIMPANG SILIAU","lat":"2.58637463","lon":"101.87058806"},{"id":"PKAR_PKAR","name":"PAKAR PAROI","lat":"2.71633833","lon":"102.01284333"},{"id":"PKAR_PKARR","name":"PAKAR PAROI","lat":"2.71627962","lon":"102.01288462"},{"id":"PKAR_PP","name":"PAKAR PAROI","lat":"2.71633833","lon":"102.01288462"},{"id":"PKAR_PPR","name":"PAKAR PAROI","lat":"2.71633833","lon":"102.01288462"},{"id":"GINS_GINS","name":"GIANT SENAWANG","lat":"2.70197263","lon":"101.98318183"},{"id":"GINS_GINSR","name":"GIANT SENAWANG","lat":"2.70189225","lon":"101.98290288"},{"id":"KTMS_KTMS","name":"KTM SEREMBAN","lat":"2.71884093","lon":"101.94131255"},{"id":"KTMS_KTMSR","name":"KTM SEREMBAN","lat":"2.71881949","lon":"101.94136083"},{"id":"KTMS_KTMSBN","name":"KTM SEREMBAN","lat":"2.71881949","lon":"101.94136083"},{"id":"KBK_KBK","name":"KG BKT KADIR","lat":"2.79788000","lon":"101.78373166"},{"id":"KBK_KBKR","name":"KG BKT KADIR","lat":"2.79800836","lon":"101.78357184"},{"id":"KBK_KBKTK","name":"KG BKT KADIR","lat":"2.79847703","lon":"101.78578085"},{"id":"KBK_KBKTKR","name":"KG BKT KADIR","lat":"2.79847703","lon":"101.78578085"},{"id":"KCHE_KCHE","name":"KG CHELET","lat":"2.79802666","lon":"101.77625833"},{"id":"KCHE_KCHER","name":"KG CHELET","lat":"2.79802666","lon":"101.77625833"},{"id":"KKG_KKG","name":"KG KUBANG","lat":"2.79206094","lon":"101.76198542"},{"id":"KKG_KKGR","name":"KG KUBANG","lat":"2.79206094","lon":"101.76198542"},{"id":"KPJ_KPJ","name":"KPJ","lat":"2.77992489","lon":"101.77281082"},{"id":"KPJ_KPJR","name":"KPJ","lat":"2.77992489","lon":"101.77281081"},{"id":"AAN_AAN","name":"AUDIT NEGARA","lat":"2.75027277","lon":"101.76163137"},{"id":"AAN_AANR","name":"AUDIT NEGARA","lat":"2.74906717","lon":"101.76195323"},{"id":"PTNI_PTNI","name":"POLITEKNIK NILAI","lat":"2.71896833","lon":"101.78736660"},{"id":"PTNI_PTNIR","name":"POLITEKNIK NILAI","lat":"2.72025554","lon":"101.79109812"},{"id":"PTNI_POLINILAI","name":"POLITEKNIK NILAI","lat":"2.72208554","lon":"101.79387539"},{"id":"PTNI_POLINILAIR","name":"POLITEKNIK NILAI","lat":"2.72208554","lon":"101.79387539"},{"id":"KGNYATOH_KGNYATOHR","name":"KG NYATOH","lat":"2.64194575","lon":"101.95040524"},{"id":"KGNYATOH_KGNYATOH","name":"KG NYATOH","lat":"2.64325810","lon":"101.94931260"},{"id":"PKSWH_PKSWH","name":"PEKAN KUALA SAWAH","lat":"2.62678050","lon":"101.94995999"},{"id":"PKSWH_PKSWHR","name":"PEKAN KUALA SAWAH","lat":"2.62640538","lon":"101.94968641"},{"id":"PKSWH_PS","name":"PEKAN KUALA SAWAH","lat":"2.62675520","lon":"101.95000272"},{"id":"PKSWH_PSR","name":"PEKAN KUALA SAWAH","lat":"2.62675520","lon":"101.95000272"},{"id":"TMNKRISTAL_TMNKRISTAL","name":"TAMAN KRISTAL","lat":"2.62417554","lon":"101.94782460"},{"id":"TMNKRISTAL_TMNKRISTALR","name":"TAMAN KRISTAL","lat":"2.62417554","lon":"101.94782460"},{"id":"TMNKRISTAL_TK","name":"TAMAN KRISTAL","lat":"2.62169330","lon":"101.94709212"},{"id":"TMNKRISTAL_TKR","name":"TAMAN KRISTAL","lat":"2.62169330","lon":"101.94709212"},{"id":"SURAUP2_SURAUP2","name":"SURAU P2","lat":"2.72474414","lon":"101.78005138"},{"id":"SURAUP2_SURAUP2R","name":"SURAU P2","lat":"2.72474414","lon":"101.78005138"},{"id":"SKLBJOHN_SKLBJOHN","name":"SK LB JOHNSON","lat":"2.72401973","lon":"101.78482165"},{"id":"SKLBJOHN_SKLBJOHNR","name":"SK LB JOHNSON","lat":"2.72401973","lon":"101.78482165"},{"id":"LBJP1_LBJP1","name":"GERBANG LBJ P1","lat":"2.72218946","lon":"101.78688393"},{"id":"LBJP1_LBJP1R","name":"GERBANG LBJ P1","lat":"2.72218946","lon":"101.78688393"},{"id":"RRKS_RRKSR","name":"RUMAH RAKYAT KUALA SAWAH","lat":"2.63113657","lon":"101.95235988"},{"id":"RRKS_RRKS","name":"RUMAH RAKYAT KUALA SAWAH","lat":"2.63113657","lon":"101.95235988"},{"id":"TMNBER_TMNBER","name":"TAMAN BERLIAN","lat":"2.61858689","lon":"101.94689155"},{"id":"TMNBER_TMNBERR","name":"TAMAN BERLIAN","lat":"2.61858689","lon":"101.94689154"},{"id":"CNC_CNC","name":"CYCLE N CARRIAGE","lat":"2.71410947","lon":"101.94960594"},{"id":"CNC_CNCR","name":"CYCLE N CARRIAGE","lat":"2.71410947","lon":"101.94960594"},{"id":"TMNBDRA_TMNBDRA","name":"RUMAH PANGSA TAMAN BIDARA","lat":"2.71053005","lon":"101.95845187"},{"id":"TMNBDRA_TMNBDRAR","name":"RUMAH PANGSA TAMAN BIDARA","lat":"2.71053005","lon":"101.95845186"},{"id":"KGBC2_KGBC2","name":"KG BARU BLOCK C2","lat":"2.72142902","lon":"101.96231961"},{"id":"KGBC2_KGBC2R","name":"KG BARU BLOCK C2","lat":"2.72142902","lon":"101.96231961"},{"id":"KVAMPGAN_KVAMPGAN","name":"KOLEJ VOKASIONAL AMPANGAN","lat":"2.72426359","lon":"101.97061837"},{"id":"KVAMPGAN_KVAMPGANR","name":"KOLEJ VOKASIONAL AMPANGAN","lat":"2.72426359","lon":"101.97061836"},{"id":"SMKSA_SMKSA","name":"SMK SERI AMPANGAN","lat":"2.72571571","lon":"101.96985126"},{"id":"SMKSA_SMKSAR","name":"SMK SERI AMPANGAN","lat":"2.72571571","lon":"101.96985125"},{"id":"STADPRI_STADPRI","name":"STADIUM PAROI","lat":"2.72469162","lon":"101.98134420"},{"id":"STADPRI_STADPRIR","name":"STADIUM PAROI","lat":"2.72495550","lon":"101.98130350"},{"id":"STADPRI_SP","name":"STADIUM PAROI","lat":"2.72495550","lon":"101.98130350"},{"id":"SKYTH_SKYTH","name":"SK YAM TUAN HITAM","lat":"2.74366604","lon":"102.13778973"},{"id":"SKYTH_SKYTHR","name":"SK YAM TUAN HITAM","lat":"2.74366604","lon":"102.13778972"},{"id":"KGPT_KGPT","name":"KAMPUNG PAUH TERACHI","lat":"2.74482343","lon":"102.13974237"},{"id":"KGPT_KGPTR","name":"KAMPUNG PAUH TERACHI","lat":"2.74482343","lon":"102.13974237"},{"id":"PBSM_PBSM","name":"PERKAMPUNGAN BUDAYA SERI MENANTI","lat":"2.74437560","lon":"102.14888440"},{"id":"PBSM_PBSMR","name":"PERKAMPUNGAN BUDAYA SERI MENANTI","lat":"2.74437560","lon":"102.14888440"},{"id":"MJDKGI_MJDKGI","name":"MASJID KAMPUNG IBOL","lat":"2.74402505","lon":"102.15875924"},{"id":"MJDKGI_MJDKGIR","name":"MASJID KAMPUNG IBOL","lat":"2.74402505","lon":"102.15875923"},{"id":"KGG2_KGG2","name":"KAMPUNG GEMENTIR 2","lat":"2.74260710","lon":"102.16879920"},{"id":"KGG2_KGG2R","name":"KAMPUNG GEMENTIR 2","lat":"2.74260710","lon":"102.16879920"},{"id":"KGULUG_KGULUG","name":"KAMPUNG ULU GEMENTIR","lat":"2.74207999","lon":"102.17541575"},{"id":"KGULUG_KGULUGR","name":"KAMPUNG ULU GEMENTIR","lat":"2.74207999","lon":"102.17541575"},{"id":"SMKDAS_SMKDAS","name":"SMK DATO ABDUL SAMAD","lat":"2.74256224","lon":"102.17967510"},{"id":"SMKDAS_SMKDASR","name":"SMK DATO ABDUL SAMAD","lat":"2.74256224","lon":"102.17967510"},{"id":"PPTI_PPTI","name":"PEJABAT POS TANJUNG IPOH","lat":"2.74120659","lon":"102.18422413"},{"id":"PPTI_PPTIR","name":"PEJABAT POS TANJUNG IPOH","lat":"2.74120659","lon":"102.18422412"},{"id":"SJKCCHTGIP_SJKCCHTGIP","name":"SJKC CHUNG HUA TANJUNG IPOH","lat":"2.74052073","lon":"102.18802214"},{"id":"SJKCCHTGIP_SJKCCHTGIPR","name":"SJKC CHUNG HUA TANJUNG IPOH","lat":"2.74052073","lon":"102.18802213"},{"id":"KGUTGIPH1_KGUTGIPH1","name":"KAMPUNG UJONG TANJUNG IPOH 1","lat":"2.73948123","lon":"102.19596684"},{"id":"KGUTGIPH1_KGUTGIPH1R","name":"KAMPUNG UJONG TANJUNG IPOH 1","lat":"2.73948123","lon":"102.19596683"},{"id":"KUTIPH_KUTIPH","name":"KAMPUNG UJONG TANJUNG IPOH 2","lat":"2.73936870","lon":"102.19756007"},{"id":"KUTIPH_KUTIPHR","name":"KAMPUNG UJONG TANJUNG IPOH 2","lat":"2.73936870","lon":"102.19756007"},{"id":"SPGATTG_SPGATTG","name":"SIMPANG AMPANG TINGGI","lat":"2.73712358","lon":"102.20760226"},{"id":"SPGATTG_SPGATTGR","name":"SIMPANG AMPANG TINGGI","lat":"2.73712358","lon":"102.20760226"},{"id":"IPDKP_IPDKP","name":"IPD KUALA PILAH","lat":"2.73612693","lon":"102.22551942"},{"id":"IPDKP_IPDKPR","name":"IPD KUALA PILAH","lat":"2.73612693","lon":"102.22551941"},{"id":"KDMT_KDMT","name":"KLINIK DESA MELANG TENGAH","lat":"2.73569291","lon":"102.22836256"},{"id":"KDMT_KDMTR","name":"KLINIK DESA MELANG TENGAH","lat":"2.73569291","lon":"102.22836256"},{"id":"KDMT_N11","name":"KLINIK DESA MELANG TENGAH","lat":"2.73569291","lon":"102.22836256"},{"id":"KDMT_N11R","name":"KLINIK DESA MELANG TENGAH","lat":"2.73569291","lon":"102.22836256"},{"id":"BT4JLNJ_BT4JLNJ","name":"BATU 4 JALAN JELEBU","lat":"2.73961683","lon":"101.98067348"},{"id":"BT4JLNJ_BT4JLNJR","name":"BATU 4 JALAN JELEBU","lat":"2.73961683","lon":"101.98067348"},{"id":"KLGLMABT4_KLGLMABT4","name":"KILANG LAMA BATU 4","lat":"2.73839797","lon":"101.98546090"},{"id":"KLGLMABT4_KLGLMABT4R","name":"KILANG LAMA BATU 4","lat":"2.73839797","lon":"101.98546090"},{"id":"BT412_BT412","name":"BATU 4 1/2","lat":"2.74128272","lon":"101.98987175"},{"id":"BT412_BT412R","name":"BATU 4 1/2","lat":"2.74128272","lon":"101.98987175"},{"id":"GMSBN_GMSBN","name":"GIATMARA SEREMBAN","lat":"2.76128999","lon":"101.99964860"},{"id":"GMSBN_GMSBNR","name":"GIATMARA SEREMBAN","lat":"2.76128999","lon":"101.99964860"},{"id":"KGBKTKBT_KGBKTKBT","name":"KG BKT KUBOT","lat":"2.76541506","lon":"102.00178027"},{"id":"KGBKTKBT_KGBKTKBTR","name":"KG BKT KUBOT","lat":"2.76541506","lon":"102.00178027"},{"id":"BLIRYA_BLIRYA","name":"BALAI RAYA","lat":"2.77597363","lon":"101.99119609"},{"id":"BLIRYA_BLIRYAR","name":"BALAI RAYA","lat":"2.77597363","lon":"101.99119609"},{"id":"KGBBT8_KGBBT8","name":"KG BEMBAN BATU 8","lat":"2.77855894","lon":"101.99201339"},{"id":"KGBBT8_KGBBT8R","name":"KG BEMBAN BATU 8","lat":"2.77855894","lon":"101.99201339"},{"id":"PKNPTI_PKNPTI","name":"PEKAN PANTAI","lat":"2.78163225","lon":"101.99257357"},{"id":"PKNPTI_PKNPTIR","name":"PEKAN PANTAI","lat":"2.78163225","lon":"101.99257357"},{"id":"KDPNTI_KDPNTI","name":"KLINIK DESA PANTAI","lat":"2.78458247","lon":"101.99255866"},{"id":"KDPNTI_KDPNTIR","name":"KLINIK DESA PANTAI","lat":"2.78458247","lon":"101.99255866"},{"id":"KGBRPNTI_KGBRPNTI","name":"KG BARU PANTAI","lat":"2.78619931","lon":"101.99222803"},{"id":"KGBRPNTI_KGBRPNTIR","name":"KG BARU PANTAI","lat":"2.78619931","lon":"101.99222803"},{"id":"BT814_BT814","name":"BATU 8 1/4","lat":"2.78766375","lon":"101.99197325"},{"id":"BT814_BT814R","name":"BATU 8 1/4","lat":"2.78766375","lon":"101.99197325"},{"id":"KGGYN_KGGYN","name":"KG GAYAN BATU 9","lat":"2.79255527","lon":"101.99112244"},{"id":"KGGYN_KGGYNR","name":"KG GAYAN BATU 9","lat":"2.79255527","lon":"101.99112244"},{"id":"KGGATH_KGGATH","name":"KG GATUH BATU 9","lat":"2.79670327","lon":"101.99234120"},{"id":"KGGATH_KGGATHR","name":"KG GATUH BATU 9","lat":"2.79670327","lon":"101.99234120"},{"id":"KGPJM_KGPJM","name":"KG PAJAM BATU 10","lat":"2.79959017","lon":"101.99271981"},{"id":"KGPJM_KGPJMR","name":"KG PAJAM BATU 10","lat":"2.79959017","lon":"101.99271981"},{"id":"SPGLGG_SPGLGGR","name":"SIMPANG LENGGENG","lat":"2.80979320","lon":"101.99278521"},{"id":"SPGLGG_SPGLGG","name":"SIMPANG LENGGENG","lat":"2.80979320","lon":"101.99278521"},{"id":"KGNN_KGNN","name":"KG NGOI NGOI","lat":"2.81196260","lon":"101.99548143"},{"id":"KGNN_KGNNR","name":"KG NGOI NGOI","lat":"2.81196260","lon":"101.99548143"},{"id":"TMNSTJG_TMNSTJG","name":"TAMAN SRI TANJONG","lat":"2.72158977","lon":"101.96421862"},{"id":"TMNSTJG_TMNSTJGR","name":"TAMAN SRI TANJONG","lat":"2.72158977","lon":"101.96421861"},{"id":"KGBRUBC_KGBRUBC","name":"KG BARU BLOCK C1","lat":"2.72154691","lon":"101.96233571"},{"id":"KGBRUBC_KGBRUBCR","name":"KG BARU BLOCK C1","lat":"2.72090390","lon":"101.96128964"},{"id":"KGBRUBC_KBC","name":"KG BARU BLOCK C1","lat":"2.71989117","lon":"101.95828289"},{"id":"KGBRUBC_KBCR","name":"KG BARU BLOCK C1","lat":"2.71989117","lon":"101.95828288"},{"id":"TMNNYIOR_TMNNYIOR","name":"TAMAN NYIOR","lat":"2.72085032","lon":"101.96036160"},{"id":"TMNNYIOR_TMNNYIORR","name":"TAMAN NYIOR","lat":"2.71860516","lon":"101.95717514"},{"id":"TMNNYIOR_TN","name":"TAMAN NYIOR","lat":"2.71647922","lon":"101.95894137"},{"id":"TMNNYIOR_TNR","name":"TAMAN NYIOR","lat":"2.71647922","lon":"101.95894137"},{"id":"JPLIG_JPLIG","name":"JERAM PERLING","lat":"2.82074008","lon":"101.99936137"},{"id":"JPLIG_JPLIGR","name":"JERAM PERLING","lat":"2.82074008","lon":"101.99936137"},{"id":"TCBTT_TCBTT","name":"TOKONG CINA BKT TANGGA","lat":"2.84120180","lon":"101.99971318"},{"id":"TCBTT_TCBTTR","name":"TOKONG CINA BKT TANGGA","lat":"2.84120180","lon":"101.99971318"},{"id":"JTOI_JTOI","name":"JERAM TOI","lat":"2.86489337","lon":"102.01241298"},{"id":"JTOI_JTOIR","name":"JERAM TOI","lat":"2.86489337","lon":"102.01241298"},{"id":"KGBT17_KGBT17","name":"KG BATU 17","lat":"2.87432242","lon":"102.01772578"},{"id":"KGBT17_KGBT17R","name":"KG BATU 17","lat":"2.87432242","lon":"102.01772578"},{"id":"JB1716_JB1716","name":"JALAN BATU 17/6","lat":"2.87921186","lon":"102.01981661"},{"id":"JB1716_JB1716R","name":"JALAN BATU 17/6","lat":"2.87921186","lon":"102.01981661"},{"id":"JLNKGBT18_JLNKGBT18","name":"JALAN KG BATU 18","lat":"2.88261294","lon":"102.02153176"},{"id":"JLNKGBT18_JLNKGBT18R","name":"JALAN KG BATU 18","lat":"2.88261294","lon":"102.02153176"},{"id":"PETALING_PETALING","name":"PETALING","lat":"2.94814329","lon":"102.06027272"},{"id":"PETALING_PETALINGR","name":"PETALING","lat":"2.94814329","lon":"102.06027272"},{"id":"TMNSKIBG_TMNSKIBG","name":"TAMAN SERI KIAMBANG","lat":"2.71023834","lon":"101.97864654"},{"id":"TMNSKIBG_TMNSKIBGR","name":"TAMAN SERI KIAMBANG","lat":"2.71023834","lon":"101.97864654"},{"id":"ASOFA_ASOFA","name":"SEK TINGGI ISLAM AS SOFA","lat":"2.70967270","lon":"101.99653446"},{"id":"ASOFA_ASOFAR","name":"SEK TINGGI ISLAM AS SOFA","lat":"2.70967270","lon":"101.99653446"},{"id":"MATAHARI_MATAHARI","name":"MATAHARI HEIGHTS","lat":"2.70862260","lon":"101.99540600"},{"id":"MATAHARI_MATAHARIR","name":"MATAHARI HEIGHTS","lat":"2.70862260","lon":"101.99540600"},{"id":"TAIPANSNWG_TAIPANSNWG","name":"TAIPAN SENAWANG","lat":"2.70590166","lon":"101.98856331"},{"id":"TAIPANSNWG_TAIPANSNWGR","name":"TAIPAN SENAWANG","lat":"2.70590166","lon":"101.98856331"},{"id":"MYBINSNWG_MYBINSNWG","name":"MYDIN SENAWANG","lat":"2.70033503","lon":"101.98076873"},{"id":"MYBINSNWG_MYBINSNWGR","name":"MYDIN SENAWANG","lat":"2.70033503","lon":"101.98076873"},{"id":"KITAMURA_KITAMURA","name":"KILANG MATEK KITAMURA","lat":"2.69252682","lon":"101.97963418"},{"id":"KITAMURA_KITAMURAR","name":"KILANG MATEK KITAMURA","lat":"2.69252682","lon":"101.97963418"},{"id":"ONSEMI_ONSEMI","name":"KILANG ON SEMICONDUCTOR","lat":"2.68951769","lon":"101.98210070"},{"id":"ONSEMI_ONSEMIR","name":"KILANG ON SEMICONDUCTOR","lat":"2.68951769","lon":"101.98210070"},{"id":"KIMHINCER_KIMHINCER","name":"KILANG KIM HIN CERAMIC","lat":"2.68060790","lon":"101.98774765"},{"id":"KIMHINCER_KIMHINCERR","name":"KILANG KIM HIN CERAMIC","lat":"2.68060790","lon":"101.98774765"},{"id":"INMAX_INMAX","name":"KILANG INMAX / YANO MALAYSIA","lat":"2.67668875","lon":"101.99140366"},{"id":"INMAX_INMAXR","name":"KILANG INMAX / YANO MALAYSIA","lat":"2.67668875","lon":"101.99140366"},{"id":"SJKTLSBN_SJKTLSBN","name":"SJKT LADANG SEREMBAN","lat":"2.65711714","lon":"101.99386515"},{"id":"SJKTLSBN_SJKTLSBNR","name":"SJKT LADANG SEREMBAN","lat":"2.65711714","lon":"101.99386515"},{"id":"SDAR_SDAR","name":"SEKOLAH DATO  ABDUL RAZAK","lat":"2.64683702","lon":"101.99098836"},{"id":"SDAR_SDARR","name":"SEKOLAH DATO  ABDUL RAZAK","lat":"2.64683702","lon":"101.99098836"},{"id":"RTM_RTM","name":"KOMPLEKS PENYIARAN TUANKU MUHAMMAD RTM","lat":"2.64494126","lon":"101.99077748"},{"id":"RTM_RTMR","name":"KOMPLEKS PENYIARAN TUANKU MUHAMMAD RTM","lat":"2.64494126","lon":"101.99077748"},{"id":"KCUR_KCUR","name":"KAMPUNG CINA ULU RANTAU","lat":"2.63951761","lon":"101.98951039"},{"id":"KCUR_KCURR","name":"KAMPUNG CINA ULU RANTAU","lat":"2.63951761","lon":"101.98951039"},{"id":"TMNSPRMTA_TMNSPRMTA","name":"TAMAN SRI PERMATA","lat":"2.63560433","lon":"101.98514950"},{"id":"TMNSPRMTA_TMNSPRMTAR","name":"TAMAN SRI PERMATA","lat":"2.63560433","lon":"101.98514950"},{"id":"SJKTLDGKBK_SJKTLDGKBK","name":"SKJT LADANG KOMBOK","lat":"2.61940639","lon":"101.98682654"},{"id":"SJKTLDGKBK_SJKTLDGKBKR","name":"SKJT LADANG KOMBOK","lat":"2.61940639","lon":"101.98682654"},{"id":"KGKMBK_KGKMBK","name":"KAMPUNG KOMBOK","lat":"2.61681912","lon":"101.98343021"},{"id":"KGKMBK_KGKMBKR","name":"KAMPUNG KOMBOK","lat":"2.61681912","lon":"101.98343020"},{"id":"KGULLG_KGULLG","name":"KAMPUNG ULU LALANG","lat":"2.61414231","lon":"101.97710529"},{"id":"KGULLG_KGULLGR","name":"KAMPUNG ULU LALANG","lat":"2.61414231","lon":"101.97710529"},{"id":"KGULLG_KU","name":"KAMPUNG ULU LALANG","lat":"2.79504871","lon":"102.34347616"},{"id":"KGULLG_KUR","name":"KAMPUNG ULU LALANG","lat":"2.79504871","lon":"102.34347616"},{"id":"SJKTLDGLGS_SJKTLDGLGS","name":"SKJT LADANG LINSUM","lat":"2.57174637","lon":"101.96136174"},{"id":"SJKTLDGLGS_SJKTLDGLGSR","name":"SKJT LADANG LINSUM","lat":"2.57174637","lon":"101.96136174"},{"id":"SDLS_SDLS","name":"SIME DARBY PLANTATION LADANG LINSUM","lat":"2.56894150","lon":"101.96147280"},{"id":"SDLS_SDLSR","name":"SIME DARBY PLANTATION LADANG LINSUM","lat":"2.56894150","lon":"101.96147280"},{"id":"MAJORIE_MAJORIE","name":"LADANG MAJORIE","lat":"2.56337317","lon":"101.96132030"},{"id":"MAJORIE_MAJORIER","name":"LADANG MAJORIE","lat":"2.56337317","lon":"101.96132030"},{"id":"PKNARKNG_PKNARKNG","name":"PEKAN AIR KUNING","lat":"2.54852282","lon":"101.97556088"},{"id":"PKNARKNG_PKNARKNGR","name":"PEKAN AIR KUNING","lat":"2.54852282","lon":"101.97556088"},{"id":"KGTKAU_KGTKAU","name":"KG TAKAU RANTAU","lat":"2.54289946","lon":"101.98411690"},{"id":"KGTKAU_KGTKAUR","name":"KG TAKAU RANTAU","lat":"2.54289946","lon":"101.98411690"},{"id":"KGTKAU_KTR","name":"KG TAKAU RANTAU","lat":"2.59725882","lon":"101.96351711"},{"id":"KGTKAU_KTRR","name":"KG TAKAU RANTAU","lat":"2.59725882","lon":"101.96351711"},{"id":"KGTKAU2_KGTKAU2","name":"KAMPUNG TAKAU 2","lat":"2.54005392","lon":"101.98486024"},{"id":"KGTKAU2_KGTKAU2R","name":"KAMPUNG TAKAU 2","lat":"2.54005392","lon":"101.98486024"},{"id":"SPGLRGT5_SPGLRGT5","name":"SIMPANG LORONG TAKAU 5","lat":"2.53557483","lon":"101.98692438"},{"id":"SPGLRGT5_SPGLRGT5R","name":"SIMPANG LORONG TAKAU 5","lat":"2.53557483","lon":"101.98692438"},{"id":"SJKTLTMPIN_SJKTLTMPIN","name":"SKJT LADANG TAMPIN LINGGI","lat":"2.51794969","lon":"101.99606180"},{"id":"SJKTLTMPIN_SJKTLTMPINR","name":"SKJT LADANG TAMPIN LINGGI","lat":"2.51794969","lon":"101.99606180"},{"id":"SPGLRGMTI_SPGLRGMTI","name":"SIMPANG LORONG MERANTI","lat":"2.51394708","lon":"101.99843014"},{"id":"SPGLRGMTI_SPGLRGMTIR","name":"SIMPANG LORONG MERANTI","lat":"2.51394708","lon":"101.99843014"},{"id":"PKKTLGGI_PKKTLGGI","name":"PUSAT KOMUNITI KAMPUNG TAMPIN LINGGI","lat":"2.51174453","lon":"101.99989090"},{"id":"PKKTLGGI_PKKTLGGIR","name":"PUSAT KOMUNITI KAMPUNG TAMPIN LINGGI","lat":"2.51174453","lon":"101.99989090"},{"id":"SPHLNYTH_SPHLNYTH","name":"SIMPANG LORONG NYATOH","lat":"2.50849461","lon":"102.00188605"},{"id":"SPHLNYTH_SPHLNYTHR","name":"SIMPANG LORONG NYATOH","lat":"2.50849461","lon":"102.00188605"},{"id":"FKGTPN_FKGTPN","name":"FELCRA KAMPUNG TAMPIN LINGGI","lat":"2.50683837","lon":"102.00288757"},{"id":"FKGTPN_FKGTPNR","name":"FELCRA KAMPUNG TAMPIN LINGGI","lat":"2.50683837","lon":"102.00288757"},{"id":"SPGLRGSRYA_SPGLRGSRYA","name":"SIMPANG LORONG SERAYA","lat":"2.50334175","lon":"102.00291935"},{"id":"SPGLRGSRYA_SPGLRGSRYAR","name":"SIMPANG LORONG SERAYA","lat":"2.50334175","lon":"102.00291935"},{"id":"RRLGGI_RRLGGI","name":"RUMAH RAKYAT LINGGI","lat":"2.49788303","lon":"102.00321581"},{"id":"RRLGGI_RRLGGIR","name":"RUMAH RAKYAT LINGGI","lat":"2.49788303","lon":"102.00321581"},{"id":"SMKDMYSF_SMKDMYSF","name":"SMK DATUK MUHAMMAD YUSOF","lat":"2.49502865","lon":"102.00415026"},{"id":"SMKDMYSF_SMKDMYSFR","name":"SMK DATUK MUHAMMAD YUSOF","lat":"2.49502865","lon":"102.00415026"},{"id":"GMTKMG_GMTKMG","name":"GIAT MARA TELUK KEMANG","lat":"2.49354083","lon":"102.00495082"},{"id":"GMTKMG_GMTKMGR","name":"GIAT MARA TELUK KEMANG","lat":"2.49354083","lon":"102.00495082"},{"id":"BRKLGGI_BRKLGGI","name":"BALAI RAYA KAMPUNG LINGGI","lat":"2.49044749","lon":"102.00778781"},{"id":"BRKLGGI_BRKLGGIR","name":"BALAI RAYA KAMPUNG LINGGI","lat":"2.49044749","lon":"102.00778781"},{"id":"PPMLGGI_PPMLGGI","name":"PEJABAT PENGHULU MUKIM LINGGI","lat":"2.48929549","lon":"102.00866998"},{"id":"PPMLGGI_PPMLGGIR","name":"PEJABAT PENGHULU MUKIM LINGGI","lat":"2.48929549","lon":"102.00866998"},{"id":"BPLGGI_BPLGGI","name":"BALAI POLIS LINGGI","lat":"2.48660975","lon":"102.01033311"},{"id":"BPLGGI_BPLGGIR","name":"BALAI POLIS LINGGI","lat":"2.48660975","lon":"102.01033311"},{"id":"PKNLGGI_PKNLGGI","name":"PEKAN LINGGI","lat":"2.48412079","lon":"102.01142039"},{"id":"PKNLGGI_PKNLGGIR","name":"PEKAN LINGGI","lat":"2.48412079","lon":"102.01142039"},{"id":"GTENTEN_GTENTEN","name":"GEDUNG TEN TEN","lat":"2.52573098","lon":"101.80000485"},{"id":"GTENTEN_GTENTENR","name":"GEDUNG TEN TEN","lat":"2.52573098","lon":"101.80000484"},{"id":"SPGPDWF_SPGPDWF","name":"SIMPANG PD WATERFRONT","lat":"2.52606902","lon":"101.80207028"},{"id":"SPGPDWF_SPGPDWFR","name":"SIMPANG PD WATERFRONT","lat":"2.52606902","lon":"101.80207028"},{"id":"MJPD_MJPD","name":"MASJID JAMEK PD","lat":"2.52560395","lon":"101.80528295"},{"id":"MJPD_MJPDR","name":"MASJID JAMEK PD","lat":"2.52560395","lon":"101.80528295"},{"id":"MJPD_T300","name":"MASJID JAMEK PD","lat":"2.52560395","lon":"101.80528295"},{"id":"KPPD_KPPD","name":"KOMPLEKS PENTADBIRAN PD","lat":"2.52520549","lon":"101.80727838"},{"id":"KPPD_KPPDR","name":"KOMPLEKS PENTADBIRAN PD","lat":"2.52520549","lon":"101.80727838"},{"id":"KPPD_T300N","name":"KOMPLEKS PENTADBIRAN PD","lat":"2.52520549","lon":"101.80727838"},{"id":"MRPD_MRPD","name":"MAHKAMAH RENDAH PD","lat":"2.52555113","lon":"101.81169410"},{"id":"MRPD_MRPDR","name":"MAHKAMAH RENDAH PD","lat":"2.52550737","lon":"101.81122718"},{"id":"PEJTNBPD_PEJTNBPD","name":"PEJABAT TNB","lat":"2.52390687","lon":"101.81623686"},{"id":"PEJTNBPD_PEJTNBPDR","name":"PEJABAT TNB","lat":"2.52390687","lon":"101.81623686"},{"id":"TMNTJ_TMNTJ1","name":"TAMAN TASIK JAYA 1","lat":"2.71199290","lon":"101.99615300"},{"id":"TMNTJ_TMNTJ1R","name":"TAMAN TASIK JAYA 1","lat":"2.71199290","lon":"101.99615299"},{"id":"TMNTJ_TMNTJ2","name":"TAMAN TASIK JAYA 1","lat":"2.71826222","lon":"101.99477971"},{"id":"TMNTJ_TMNTJ2R","name":"TAMAN TASIK JAYA 1","lat":"2.71826222","lon":"101.99477970"},{"id":"PWRA_TMPRAR","name":"TMN PERWIRA","lat":"2.73663597","lon":"101.97093487"},{"id":"PWRA_PWRA","name":"TMN PERWIRA","lat":"2.74262118","lon":"101.97194874"},{"id":"PWRA_PWRAR","name":"TMN PERWIRA","lat":"2.74262118","lon":"101.97194874"},{"id":"PWRA_TMPRA","name":"TMN PERWIRA","lat":"2.73663597","lon":"101.97093487"},{"id":"ZENKLIAK_ZENKLIAK","name":"ZEMART KLIA","lat":"2.75421107","lon":"101.76128805"},{"id":"ZENKLIAK_ZENKLIAKR","name":"ZEMART KLIA","lat":"2.75421107","lon":"101.76128804"},{"id":"SMKTGGIPD_SMKTGGIPD","name":"SMK TINGGI PD","lat":"2.52139814","lon":"101.82057208"},{"id":"SMKTGGIPD_SMKTGGIPDR","name":"SMK TINGGI PD","lat":"2.52139814","lon":"101.82057208"},{"id":"CPRRST_CPRRST","name":"CORUS PARADISE RESORT","lat":"2.51949305","lon":"101.82209202"},{"id":"CPRRST_CPRRSTR","name":"CORUS PARADISE RESORT","lat":"2.51949305","lon":"101.82209202"},{"id":"SPGTMNPDU_SPGTMNPDU","name":"SIMPANG TAMAN PD UTAMA","lat":"2.51738889","lon":"101.82380358"},{"id":"SPGTMNPDU_SPGTMNPDUR","name":"SIMPANG TAMAN PD UTAMA","lat":"2.51738889","lon":"101.82380358"},{"id":"TMNPDU_TMNPDU","name":"TAMAN PD UTAMA","lat":"2.51705400","lon":"101.82911530"},{"id":"TMNPDU_TMNPDUR","name":"TAMAN PD UTAMA","lat":"2.51705400","lon":"101.82911530"},{"id":"GSV_GSV","name":"GOLDEN STRAITS VILLAS","lat":"2.51188101","lon":"101.82744718"},{"id":"GSV_GSVR","name":"GOLDEN STRAITS VILLAS","lat":"2.51188101","lon":"101.82744718"},{"id":"MASKGBP_MASKGBP","name":"MASJID JAMEK KG BAGAN PINANG","lat":"2.50802166","lon":"101.83014333"},{"id":"MASKGBP_MASKGBPR","name":"MASJID JAMEK KG BAGAN PINANG","lat":"2.50802166","lon":"101.83014332"},{"id":"KFCBT4_KFCBT4","name":"KFC BT 4","lat":"2.50492583","lon":"101.83427588"},{"id":"KFCBT4_KFCBT4R","name":"KFC BT 4","lat":"2.50492583","lon":"101.83427588"},{"id":"KLIDEBGNP_KLIDEBGNP","name":"KLINIK DESA BAGAN PINANG","lat":"2.50377106","lon":"101.83566053"},{"id":"KLIDEBGNP_KLIDEBGNPR","name":"KLINIK DESA BAGAN PINANG","lat":"2.50377106","lon":"101.83566053"},{"id":"UPTOWNB4_UPTOWNB4","name":"UPTOWN BATU 4","lat":"2.50128592","lon":"101.83755396"},{"id":"UPTOWNB4_UPTOWNB4R","name":"UPTOWN BATU 4","lat":"2.50128592","lon":"101.83755396"},{"id":"PETBT4_PETBT4","name":"PETRONAS BT 4","lat":"2.49921895","lon":"101.83845965"},{"id":"PETBT4_PETBT4R","name":"PETRONAS BT 4","lat":"2.49921895","lon":"101.83845965"},{"id":"TMNDSRS_TMNDSRS","name":"TAMAN DESA RUSA","lat":"2.49553443","lon":"101.83995489"},{"id":"TMNDSRS_TMNDSRSR","name":"TAMAN DESA RUSA","lat":"2.49553443","lon":"101.83995489"},{"id":"BYBRST_BYBRST","name":"BAYU BEACH RESORT","lat":"2.49185545","lon":"101.84222463"},{"id":"BYBRST_BYBRSTR","name":"BAYU BEACH RESORT","lat":"2.49185545","lon":"101.84222463"},{"id":"REGENCY_REGENCY","name":"THE REGENCY","lat":"2.48363901","lon":"101.84773391"},{"id":"REGENCY_REGENCYR","name":"THE REGENCY","lat":"2.48363901","lon":"101.84773391"},{"id":"RDLRST_RDLRST","name":"RESIDENT DESA LAGOON RESORT","lat":"2.48174470","lon":"101.84960963"},{"id":"RDLRST_RDLRSTR","name":"RESIDENT DESA LAGOON RESORT","lat":"2.48174470","lon":"101.84960963"},{"id":"KANGTRA_KANGTRA","name":"KUARTERS ANGKATAN TENTERA","lat":"2.47894192","lon":"101.85323347"},{"id":"KANGTRA_KANGTRAR","name":"KUARTERS ANGKATAN TENTERA","lat":"2.47894192","lon":"101.85323347"},{"id":"HOSPPD_HOSPPD","name":"HOSPITAL PORT DICKSON","lat":"2.47705373","lon":"101.85537641"},{"id":"HOSPPD_HOSPPDR","name":"HOSPITAL PORT DICKSON","lat":"2.47705373","lon":"101.85537641"},{"id":"TOJLNPTI_TOJLNPTI","name":"TOKONG JALAN PANTAI","lat":"2.47233902","lon":"101.85894676"},{"id":"TOJLNPTI_TOJLNPTIR","name":"TOKONG JALAN PANTAI","lat":"2.47233902","lon":"101.85894676"},{"id":"MDNSTMNITN_MDNSTMNITN","name":"MEDAN SELERA TAMAN INTAN","lat":"2.44816173","lon":"101.86927416"},{"id":"MDNSTMNITN_MDNSTMNITNR","name":"MEDAN SELERA TAMAN INTAN","lat":"2.44816173","lon":"101.86927416"},{"id":"TMNINTAN_TMNINTAN","name":"TAMAN INTAN","lat":"2.44847037","lon":"101.87069772"},{"id":"TMNINTAN_TMNINTANR","name":"TAMAN INTAN","lat":"2.44847037","lon":"101.87069772"},{"id":"SMKITNPDA_SMKITNPDA","name":"SMK INTAN PERDANA","lat":"2.44847949","lon":"101.87398052"},{"id":"SMKITNPDA_SMKITNPDAR","name":"SMK INTAN PERDANA","lat":"2.44847949","lon":"101.87398052"},{"id":"SPGJLPL17_SPGJLPL17","name":"SIMPANG JALAN POLITEKNIK 17","lat":"2.44249554","lon":"101.86851113"},{"id":"SPGJLPL17_SPGJLPL17R","name":"SIMPANG JALAN POLITEKNIK 17","lat":"2.44249554","lon":"101.86851113"},{"id":"SPGJLNPL22_SPGJLNPL22","name":"SIMPANG JALAN POLITEKNIK 22","lat":"2.43988153","lon":"101.86874816"},{"id":"SPGJLNPL22_SPGJLNPL22R","name":"SIMPANG JALAN POLITEKNIK 22","lat":"2.43988153","lon":"101.86874816"},{"id":"SPGJLNPL2_SPGJLNPL2","name":"SIMPANG JALAN POLITEKNIK 2","lat":"2.44162401","lon":"101.86540160"},{"id":"SPGJLNPL2_SPGJLNPL2R","name":"SIMPANG JALAN POLITEKNIK 2","lat":"2.44162401","lon":"101.86540160"},{"id":"PSTPTMNPOL_PSTPTMNPOL","name":"PUSAT PERNIAGAAN TAMAN POLI","lat":"2.44215624","lon":"101.86446901"},{"id":"PSTPTMNPOL_PSTPTMNPOLR","name":"PUSAT PERNIAGAAN TAMAN POLI","lat":"2.44215624","lon":"101.86446901"},{"id":"POLIPD_POLIPD","name":"POLITEKNIK PORT DICKSON","lat":"2.44138421","lon":"101.86236248"},{"id":"POLIPD_POLIPDR","name":"POLITEKNIK PORT DICKSON","lat":"2.44138421","lon":"101.86236248"},{"id":"POLYMALL_POLYMALL","name":"POLYMALL","lat":"2.44031948","lon":"101.86138555"},{"id":"POLYMALL_POLYMALLR","name":"POLYMALL","lat":"2.44031948","lon":"101.86138555"},{"id":"POLYMALL_T33","name":"POLYMALL","lat":"2.44031948","lon":"101.86138555"},{"id":"POLYMALL_T33R","name":"POLYMALL","lat":"2.44031948","lon":"101.86138555"},{"id":"POLYMALL_T34","name":"POLYMALL","lat":"2.44031948","lon":"101.86138555"},{"id":"POLYMALL_T34R","name":"POLYMALL","lat":"2.44031948","lon":"101.86138555"},{"id":"SKTMNTSK_SKTMNTSKR","name":"SK TAMAN TASIK JAYA","lat":"2.71807468","lon":"101.99324548"},{"id":"SKTMNTSK_SKTMNTSK","name":"SK TAMAN TASIK JAYA","lat":"2.71807468","lon":"101.99324548"},{"id":"2RESD_2RESD","name":"2 RESIDENCES","lat":"2.60901166","lon":"101.87058333"},{"id":"2RESD_2RESDR","name":"2 RESIDENCES","lat":"2.60901166","lon":"101.87058333"},{"id":"KGBKTPLG_KGBKTPLG","name":"KAMPUNG BUKIT PALOH/KG LUKUT/KG SRI PARIT","lat":"2.57693925","lon":"101.83537302"},{"id":"KGBKTPLG_KGBKTPLGR","name":"KAMPUNG BUKIT PALOH/KG LUKUT/KG SRI PARIT","lat":"2.57693925","lon":"101.83537302"},{"id":"BPLISL_BPLISL","name":"BALAI POLIS LUKUT","lat":"2.57086691","lon":"101.83070839"},{"id":"BPLISL_BPLISLR","name":"BALAI POLIS LUKUT","lat":"2.57086691","lon":"101.83070839"},{"id":"TMNBGARAYA_TBR","name":"TAMAN BUNGA RAYA","lat":"2.56553821","lon":"101.82012563"},{"id":"TMNBGARAYA_TMNBGARAYAR","name":"TAMAN BUNGA RAYA","lat":"2.56553821","lon":"101.82012562"},{"id":"TMNSBYU_TMNSBYU","name":"TAMAN SRI BAYU","lat":"2.54181416","lon":"101.79904282"},{"id":"TMNSBYU_TMNSBYUR","name":"TAMAN SRI BAYU","lat":"2.54181416","lon":"101.79904282"},{"id":"PKDPD_PKDPD","name":"PEJABAT KESIHATAN DAERAH PORT DICKSON","lat":"2.53851024","lon":"101.79727793"},{"id":"PKDPD_PKDPDR","name":"PEJABAT KESIHATAN DAERAH PORT DICKSON","lat":"2.53851024","lon":"101.79727792"},{"id":"BLPPD_BLPPD","name":"BALAI POLIS PD","lat":"2.52414913","lon":"101.79418207"},{"id":"BLPPD_BLPPDR","name":"BALAI POLIS PD","lat":"2.52414913","lon":"101.79418206"},{"id":"SHLTMNRSH_SHLTMNRSH","name":"SHELL TAMAN RASAH","lat":"2.68213011","lon":"101.92860961"},{"id":"SHLTMNRSH_SHLTMNRSHR","name":"SHELL TAMAN RASAH","lat":"2.68213011","lon":"101.92860960"},{"id":"MASJRHG_MASJRHG","name":"MASJID JAMEK RAHANG","lat":"2.70802231","lon":"101.95348978"},{"id":"MASJRHG_MASJRHGR","name":"MASJID JAMEK RAHANG","lat":"2.70802231","lon":"101.95348978"},{"id":"KGSMRK_KGSMRK","name":"KAMPUNG SEMARAK","lat":"2.70505813","lon":"101.95289208"},{"id":"KGSMRK_KGSMRKR","name":"KAMPUNG SEMARAK","lat":"2.70505813","lon":"101.95289207"},{"id":"POJLTU_POJLTU","name":"PEJABAT POS JLTU","lat":"2.70185726","lon":"101.95366300"},{"id":"POJLTU_POJLTUR","name":"PEJABAT POS JLTU","lat":"2.70185726","lon":"101.95366299"},{"id":"STBKTBLSOM_STBKTBLSOM","name":"SIMPANG TAMAN BUKIT BLOSSOM","lat":"2.69752725","lon":"101.94875901"},{"id":"STBKTBLSOM_STBKTBLSOMR","name":"SIMPANG TAMAN BUKIT BLOSSOM","lat":"2.69752725","lon":"101.94875900"},{"id":"TMNSLOOP_TMNSLOOP","name":"TAMAN SRI LOOP","lat":"2.69144006","lon":"101.94227879"},{"id":"TMNSLOOP_TMNSLOOPR","name":"TAMAN SRI LOOP","lat":"2.69144006","lon":"101.94227879"},{"id":"TMNTVYJ2_TMNTVYJ2","name":"TAMAN THIVY JAYA 2","lat":"2.68787981","lon":"101.94244444"},{"id":"TMNTVYJ2_TMNTVYJ2R","name":"TAMAN THIVY JAYA 2","lat":"2.68787981","lon":"101.94244444"},{"id":"MASRSJYA_MASRSJYA","name":"MASJID QARIAH RASAH JAYA","lat":"2.68158354","lon":"101.94800198"},{"id":"MASRSJYA_MASRSJYAR","name":"MASJID QARIAH RASAH JAYA","lat":"2.68158354","lon":"101.94800198"},{"id":"TRSHJF7_TRSHJF7","name":"TAMAN RASAH JAYA FASA 7","lat":"2.67592207","lon":"101.94837368"},{"id":"TRSHJF7_TRSHJF7R","name":"TAMAN RASAH JAYA FASA 7","lat":"2.67592207","lon":"101.94837368"},{"id":"TRJF2_TRJF2","name":"TAMAN RASAH JAYA FASA 2","lat":"2.67458526","lon":"101.94551289"},{"id":"TRJF2_TRJF2R","name":"TAMAN RASAH JAYA FASA 2","lat":"2.67458526","lon":"101.94551289"},{"id":"SKTRJAYA_SKTRJAYA","name":"SK TAMAN RASAH JAYA","lat":"2.67802739","lon":"101.94443153"},{"id":"SKTRJAYA_SKTRJAYAR","name":"SK TAMAN RASAH JAYA","lat":"2.67802739","lon":"101.94443153"},{"id":"TRJFSA1_TRJFSA1","name":"TAMAN RASAH JAYA FASA 1","lat":"2.68106473","lon":"101.94282880"},{"id":"TRJFSA1_TRJFSA1R","name":"TAMAN RASAH JAYA FASA 1","lat":"2.68106473","lon":"101.94282880"},{"id":"TMNSBN31_TMNSBN31","name":"TAMAN SEREMBAN3 1","lat":"2.68097738","lon":"101.94030656"},{"id":"TMNSBN31_TMNSBN31R","name":"TAMAN SEREMBAN3 1","lat":"2.68097738","lon":"101.94030656"},{"id":"TMNSBN32_TMNSBN32R","name":"TAMAN SEREMBAN3 2","lat":"2.67290396","lon":"101.93283237"},{"id":"TMNSBN32_TMNSBN32","name":"TAMAN SEREMBAN3 2","lat":"2.67290396","lon":"101.93283237"},{"id":"TMNNEGRI2_TMNNEGRI2","name":"TAMAN NEGERI 2","lat":"2.68029525","lon":"101.92810946"},{"id":"TMNRSH2_TMNRSH2","name":"TAMAN RASAH 2","lat":"2.68131026","lon":"101.92868873"},{"id":"TMNRSH1_TMNRSH1","name":"TAMAN RASAH 1","lat":"2.68278921","lon":"101.92908436"},{"id":"TMNDCMPK_TMNDCMPK","name":"TMN DESA CEMPAKA","lat":"2.79450799","lon":"101.76450716"},{"id":"TMNDCMPK_TMNDCMPKR","name":"TMN DESA CEMPAKA","lat":"2.79450799","lon":"101.76450716"},{"id":"TMNDCMPK_TDC","name":"TMN DESA CEMPAKA","lat":"2.80427623","lon":"101.77168616"},{"id":"TMNDCMPK_TDCR","name":"TMN DESA CEMPAKA","lat":"2.80427623","lon":"101.77168616"},{"id":"HTJ_HN","name":"HOSPITAL BESAR","lat":"2.73514637","lon":"102.23269165"},{"id":"HTJ_HJR","name":"HOSPITAL BESAR","lat":"2.73514637","lon":"102.23269165"},{"id":"HTJ_HTN","name":"HOSPITAL BESAR","lat":"2.73519695","lon":"102.23253012"},{"id":"HTJ_HTNR","name":"HOSPITAL BESAR","lat":"2.73519695","lon":"102.23253012"},{"id":"HTJ_HB","name":"HOSPITAL BESAR","lat":"2.70872539","lon":"101.94140345"},{"id":"HTJ_HBR","name":"HOSPITAL BESAR","lat":"2.70872539","lon":"101.94140345"},{"id":"HTJ_HOS","name":"HOSPITAL BESAR","lat":"2.70872539","lon":"101.94140345"},{"id":"HTJ_HOSR","name":"HOSPITAL BESAR","lat":"2.70872539","lon":"101.94140345"},{"id":"SKNYA_SKNYA","name":"SK NYATOH","lat":"2.64440634","lon":"101.94836459"},{"id":"SKNYA_SKNYAR","name":"SK NYATOH","lat":"2.64440634","lon":"101.94836459"},{"id":"BT10_BT10","name":"BATU 10 KG RIBU","lat":"2.61295529","lon":"101.95099245"},{"id":"BT10_BT10R","name":"BATU 10 KG RIBU","lat":"2.61295529","lon":"101.95099245"},{"id":"TMNSILIAU_TMNSILIAU","name":"TMN SILIAU","lat":"2.57624297","lon":"101.91275736"},{"id":"TMNSILIAU_TMNSILIAUR","name":"TMN SILIAU","lat":"2.57624297","lon":"101.91275736"},{"id":"SJKTLDS_SJKTLDS","name":"SJKT LADANG SILIAU","lat":"2.57716836","lon":"101.91049637"},{"id":"SJKTLDS_SJKTLDSR","name":"SJKT LADANG SILIAU","lat":"2.57716836","lon":"101.91049637"},{"id":"KLDGS_KLDGS","name":"KG LADANG SILIAU","lat":"2.58019694","lon":"101.90330118"},{"id":"KLDGS_KLDGSR","name":"KG LADANG SILIAU","lat":"2.58019694","lon":"101.90330118"},{"id":"KMPLAZA_KMPLAZA","name":"KM PLAZA","lat":"2.72288090","lon":"101.93762920"},{"id":"KMPLAZA_KMPLAZAR","name":"KM PLAZA","lat":"2.72288090","lon":"101.93762920"},{"id":"KMPLAZA_KM","name":"KM PLAZA","lat":"2.72288090","lon":"101.93762920"},{"id":"KMPLAZA_KMP","name":"KM PLAZA","lat":"2.72288090","lon":"101.93762920"},{"id":"KMPLAZA_F508","name":"KM PLAZA","lat":"2.72288090","lon":"101.93762920"},{"id":"SCB_SD","name":"STANDARD CHARTERED BANK","lat":"2.52246484","lon":"101.79625600"},{"id":"SCB_SCB","name":"STANDARD CHARTERED BANK","lat":"2.52246484","lon":"101.79625601"},{"id":"SCB_SCBR","name":"STANDARD CHARTERED BANK","lat":"2.52246484","lon":"101.79625600"},{"id":"PEJKASTAM_PEJKASTAMR","name":"PEJABAT KASTAM","lat":"2.52202270","lon":"101.79551303"},{"id":"PEJKASTAM_PKAS","name":"PEJABAT KASTAM","lat":"2.52202270","lon":"101.79551303"},{"id":"PEJKASTAM_PEJKASTAM","name":"PEJABAT KASTAM","lat":"2.52202270","lon":"101.79551303"},{"id":"PEJKASTAM_PK","name":"PEJABAT KASTAM","lat":"2.52202270","lon":"101.79551303"},{"id":"CIC1_CIC1","name":"CHURCH IMMACULATE CONCEPTION 1","lat":"2.52545796","lon":"101.79259479"},{"id":"CIC1_CIC1R","name":"CHURCH IMMACULATE CONCEPTION 1","lat":"2.52545796","lon":"101.79259479"},{"id":"KGSP_KGSP","name":"KAMPUNG SOLOK PAKU","lat":"2.73673778","lon":"102.10413337"},{"id":"KGSP_KGSPR","name":"KAMPUNG SOLOK PAKU","lat":"2.73673778","lon":"102.10413336"},{"id":"KGSP_KS","name":"KAMPUNG SOLOK PAKU","lat":"2.73805025","lon":"102.11755877"},{"id":"KGSP_KSPR","name":"KAMPUNG SOLOK PAKU","lat":"2.73805025","lon":"102.11755877"},{"id":"KGGDG_KGGDG","name":"KAMPUNG GEDANG","lat":"2.73851939","lon":"102.12437769"},{"id":"KGGDG_KGGDGR","name":"KAMPUNG GEDANG","lat":"2.73851939","lon":"102.12437769"},{"id":"GINTMLG_GINTMLG","name":"PASARAYA BESAR GIANT MELANG","lat":"2.73678601","lon":"102.21754789"},{"id":"GINTMLG_GINTMLGR","name":"PASARAYA BESAR GIANT MELANG","lat":"2.73678601","lon":"102.21754789"},{"id":"GINTMLG_N11","name":"PASARAYA BESAR GIANT MELANG","lat":"2.73678601","lon":"102.21754789"},{"id":"GINTMLG_N11R","name":"PASARAYA BESAR GIANT MELANG","lat":"2.73678601","lon":"102.21754789"},{"id":"TMNBKTKLNA_TMNBKTKLNA","name":"TAMAN BUKIT KELANA","lat":"2.71511031","lon":"101.97889266"},{"id":"TMNBKTKLNA_TMNBKTKLNAR","name":"TAMAN BUKIT KELANA","lat":"2.71511031","lon":"101.97889266"},{"id":"TMNBVILLA_TMNBVILLA","name":"TAMAN BOURGENVILLA","lat":"2.71729412","lon":"101.97964845"},{"id":"TMNBVILLA_TMNBVILLAR","name":"TAMAN BOURGENVILLA","lat":"2.71729412","lon":"101.97964845"},{"id":"JTMYM_JTMYM","name":"JOHAN TOM YAM","lat":"2.72201667","lon":"101.98550581"},{"id":"JTMYM_JTMYMR","name":"JOHAN TOM YAM","lat":"2.72201667","lon":"101.98550580"},{"id":"KGSTSA4_KGSTSA4","name":"KAMPUNG SENTOSA 4","lat":"2.71732986","lon":"101.98934555"},{"id":"KGSTSA4_KGSTSA4R","name":"KAMPUNG SENTOSA 4","lat":"2.71732986","lon":"101.98934555"},{"id":"KGBT512_KGBT512","name":"KAMPUNG BATU 5 1/2","lat":"2.65395458","lon":"101.90910995"},{"id":"KGBT512_KGBT512R","name":"KAMPUNG BATU 5 1/2","lat":"2.65395458","lon":"101.90910995"},{"id":"PETJJ_PETJJ","name":"PETRONAS JALAN JELEBU","lat":"2.72692134","lon":"101.95947647"},{"id":"PETJJ_PETJJR","name":"PETRONAS JALAN JELEBU","lat":"2.72692134","lon":"101.95947647"},{"id":"SPGUPSR_SPGUPSR","name":"SIMPANG UJONG PASIR","lat":"2.73331180","lon":"101.96462630"},{"id":"SPGUPSR_SPGUPSRR","name":"SIMPANG UJONG PASIR","lat":"2.73331180","lon":"101.96462631"},{"id":"KLGKK_KLGKK","name":"KILANG KOKO","lat":"2.73935316","lon":"101.97589355"},{"id":"KLGKK_KLGKKR","name":"KILANG KOKO","lat":"2.73918990","lon":"101.97583530"},{"id":"JPTBN_JPTBN","name":"JAB PERTANIAN TEMBUN","lat":"2.92489099","lon":"102.05926906"},{"id":"JPTBN_JPTBNR","name":"JAB PERTANIAN TEMBUN","lat":"2.92489099","lon":"102.05926906"},{"id":"KGTBN_KGTBN","name":"KG TEMBUN","lat":"2.92732765","lon":"102.06231344"},{"id":"KGTBN_KGTBNR","name":"KG TEMBUN","lat":"2.92622275","lon":"102.06158549"},{"id":"KGBNJI_KGBNJI","name":"KG BINJAI","lat":"2.92684822","lon":"102.06204146"},{"id":"SKGBJI_SKGBJI","name":"SURAU KG BINJAI","lat":"2.93167381","lon":"102.06421940"},{"id":"SKGBJI_SKGBJIR","name":"SURAU KG BINJAI","lat":"2.93167381","lon":"102.06421940"},{"id":"TMNDUDDG_TMNDUDDG","name":"TAMAN DATO UNDANG ABDULLAH","lat":"2.93387749","lon":"102.06566095"},{"id":"TMNDUDDG_TMNDUDDGR","name":"TAMAN DATO UNDANG ABDULLAH","lat":"2.93387749","lon":"102.06566095"},{"id":"SKKKLWG_SKKKLWG","name":"SK KUALA KELAWANG / PEJABAT HUTAN","lat":"2.93524796","lon":"102.06813169"},{"id":"SKKKLWG_SKKKLWGR","name":"SK KUALA KELAWANG / PEJABAT HUTAN","lat":"2.93524796","lon":"102.06813169"},{"id":"MADAT_MADAT","name":"MUZIUM ADAT","lat":"2.93729916","lon":"102.06972063"},{"id":"SKUDGJLBU_SKUDGJLBU","name":"SK UNDANG JELEBU","lat":"2.93954051","lon":"102.06908855"},{"id":"SKUDGJLBU_SKUDGJLBUR","name":"SK UNDANG JELEBU","lat":"2.93954051","lon":"102.06908855"},{"id":"TERKLWG_TERKLWG","name":"TERMINAL KELAWANG","lat":"2.94133460","lon":"102.07057759"},{"id":"TERKLWG_TERKLWGR","name":"TERMINAL KELAWANG","lat":"2.94133460","lon":"102.07057759"},{"id":"TMNMKN_TMNMKN","name":"TAMAN MENGKAN","lat":"2.94365301","lon":"102.06539839"},{"id":"TMNMKN_TMNMKNR","name":"TAMAN MENGKAN","lat":"2.94365301","lon":"102.06539839"},{"id":"TMNMKN_T71","name":"TAMAN MENGKAN","lat":"2.94365301","lon":"102.06539839"},{"id":"TMNMKN_T71R","name":"TAMAN MENGKAN","lat":"2.94365301","lon":"102.06539839"},{"id":"KLBTKU_KLBTKU","name":"KELAB TUNKU","lat":"2.65135680","lon":"101.90777362"},{"id":"KLBTKU_KLBTKUR","name":"KELAB TUNKU","lat":"2.65135680","lon":"101.90777361"},{"id":"SJKTLDGSHI_SJKTLDGSHI","name":"SJK TAMIL LADANG SHANGHAI SEREMBAN","lat":"2.64173141","lon":"101.89757645"},{"id":"SJKTLDGSHI_SJKTLDGSHIR","name":"SJK TAMIL LADANG SHANGHAI SEREMBAN","lat":"2.64173141","lon":"101.89757645"},{"id":"SJKTLDGSHI_ST","name":"SJK TAMIL LADANG SHANGHAI SEREMBAN","lat":"2.64173141","lon":"101.89757645"},{"id":"SJKTLDGSHI_STR","name":"SJK TAMIL LADANG SHANGHAI SEREMBAN","lat":"2.64173141","lon":"101.89757645"},{"id":"LDGJM1_LDGJM1R","name":"LADANG JEMIMA 1","lat":"2.62095013","lon":"101.87510490"},{"id":"LDGJM1_LDGJM1","name":"LADANG JEMIMA 1","lat":"2.62095013","lon":"101.87510490"},{"id":"LDGJ2_LDGJ2","name":"LADANG JEMIMA 2","lat":"2.61851723","lon":"101.87490106"},{"id":"LDGJ2_LDGJ2R","name":"LADANG JEMIMA 2","lat":"2.61851723","lon":"101.87490105"},{"id":"KGSGSDYAN1_KGSGSDYAN","name":"KAMPUNG SUNGAI SENDAYAN 1","lat":"2.61485951","lon":"101.87451959"},{"id":"KGSGSDYAN1_KGSGSDYANR","name":"KAMPUNG SUNGAI SENDAYAN 1","lat":"2.61485951","lon":"101.87451959"},{"id":"KGSGSDYN2_KS","name":"KAMPUNG SUNGAI SENDAYAN 2","lat":"2.61030037","lon":"101.87412380"},{"id":"KGSGSDYN2_KGSGSDYN2","name":"KAMPUNG SUNGAI SENDAYAN 2","lat":"2.61030037","lon":"101.87412381"},{"id":"KGSGSDYN2_KGSGSDYN2R","name":"KAMPUNG SUNGAI SENDAYAN 2","lat":"2.61030037","lon":"101.87412380"},{"id":"KGLINSUM_KGLINSUM","name":"KG LINSUM","lat":"2.58088005","lon":"101.95853123"},{"id":"KGLINSUM_KGLINSUMR","name":"KG LINSUM","lat":"2.58088005","lon":"101.95853123"},{"id":"SPGKGSLIU_SPGKGSLIU","name":"SIMPANG KG SILIAU","lat":"2.57673514","lon":"101.94029224"},{"id":"SPGKGSLIU_SPGKGSLIUR","name":"SIMPANG KG SILIAU","lat":"2.57673514","lon":"101.94029224"},{"id":"KGSGBR_KGSGBRR","name":"KG SAGGA BARU","lat":"2.57853042","lon":"101.93282123"},{"id":"KGSGBR_KGSGBR","name":"KG SAGGA BARU","lat":"2.57853042","lon":"101.93282123"},{"id":"KGSGGTMNO_KGSGGTMNO","name":"KG SAGGA TMN ORKID","lat":"2.57593346","lon":"101.93025748"},{"id":"KGSGGTMNO_KGSGGTMNOR","name":"KG SAGGA TMN ORKID","lat":"2.57593346","lon":"101.93025748"},{"id":"SKAMTGGI_SKAMTGGI","name":"SK AMPANG TINGGI","lat":"2.73709859","lon":"102.21261295"},{"id":"SKAMTGGI_SKAMTGGIR","name":"SK AMPANG TINGGI","lat":"2.73709859","lon":"102.21261295"},{"id":"KGGTM_KGGTM","name":"KAMPUNG GENTAM","lat":"2.75005183","lon":"102.24817158"},{"id":"KGGTM_KGGTMR","name":"KAMPUNG GENTAM","lat":"2.75005183","lon":"102.24817158"},{"id":"PSRYASPNG_PSRYASPNG","name":"PASARAYA SRI MINANG","lat":"2.75229446","lon":"102.24939428"},{"id":"PSRYASPNG_PSRYASPNGR","name":"PASARAYA SRI MINANG","lat":"2.75229446","lon":"102.24939428"},{"id":"PSRYASPNG_N11","name":"PASARAYA SRI MINANG","lat":"2.75229446","lon":"102.24939428"},{"id":"PSRYASPNG_N11R","name":"PASARAYA SRI MINANG","lat":"2.75229446","lon":"102.24939428"},{"id":"MARDEC_MARDEC","name":"MARDEC","lat":"2.75758183","lon":"102.25215749"},{"id":"MARDEC_MARDECR","name":"MARDEC","lat":"2.75758183","lon":"102.25215749"},{"id":"MARDEC_N11","name":"MARDEC","lat":"2.75758183","lon":"102.25215749"},{"id":"MARDEC_N11R","name":"MARDEC","lat":"2.75758183","lon":"102.25215749"},{"id":"PELANGAI1_PELANGAI1","name":"PELANGAI1","lat":"2.76115338","lon":"102.26043948"},{"id":"PELANGAI1_PELANGAI1R","name":"PELANGAI1","lat":"2.76115338","lon":"102.26043948"},{"id":"PELANGAI2_PELANGAI2","name":"PELANGAI 2","lat":"2.76692775","lon":"102.26294597"},{"id":"PELANGAI2_PELANGAI2R","name":"PELANGAI 2","lat":"2.76692775","lon":"102.26294597"},{"id":"KGKJMPH_KGKJMPH","name":"KAMPUNG KUALA JEMAPOH","lat":"2.77415465","lon":"102.28144687"},{"id":"KGKJMPH_KGKJMPHR","name":"KAMPUNG KUALA JEMAPOH","lat":"2.77415465","lon":"102.28144687"},{"id":"TMNJMPH_TMNJMPH","name":"TAMAN JEMAPOH","lat":"2.77588553","lon":"102.28309132"},{"id":"TMNJMPH_TMNJMPHR","name":"TAMAN JEMAPOH","lat":"2.77588553","lon":"102.28309132"},{"id":"JUASKPTN_JUASKPTNR","name":"JUASEH KAPITAN","lat":"2.78035820","lon":"102.28700103"},{"id":"JUASKPTN_JUASKPTN","name":"JUASEH KAPITAN","lat":"2.78035820","lon":"102.28700103"},{"id":"TMNHJASH_TMNHJASH","name":"TAMAN HARMONI JUASEH","lat":"2.78815677","lon":"102.29118275"},{"id":"TMNHJASH_TMNHJASHR","name":"TAMAN HARMONI JUASEH","lat":"2.78815677","lon":"102.29118275"},{"id":"TMNHJASH_TH","name":"TAMAN HARMONI JUASEH","lat":"2.78815677","lon":"102.29118275"},{"id":"PKNJASH_PKNJASH","name":"PEKAN JUASEH","lat":"2.78600978","lon":"102.29911197"},{"id":"PKNJASH_PKNJASHR","name":"PEKAN JUASEH","lat":"2.78600978","lon":"102.29911197"},{"id":"SMKJUASEH_SMKJUASEH","name":"SMK JUASEH","lat":"2.78414706","lon":"102.30141078"},{"id":"SMKJUASEH_SMKJUASEHR","name":"SMK JUASEH","lat":"2.78414706","lon":"102.30141078"},{"id":"KGTSNULU_KGTSNULU","name":"KAMPUNG TERUSAN ULU","lat":"2.78635465","lon":"102.31132230"},{"id":"KGTSNULU_KGTSNULUR","name":"KAMPUNG TERUSAN ULU","lat":"2.78635465","lon":"102.31132230"},{"id":"KGTRSN2_KGTRSN2","name":"KAMPUNG TERUSAN 2","lat":"2.79028550","lon":"102.32585653"},{"id":"KGTRSN2_KGTRSN2R","name":"KAMPUNG TERUSAN 2","lat":"2.79028550","lon":"102.32585653"},{"id":"SBKGTRSN_SBKGTRSN","name":"SURAU BARU KAMPUNG TERUSAN","lat":"2.79192609","lon":"102.33189101"},{"id":"SBKGTRSN_SBKGTRSNR","name":"SURAU BARU KAMPUNG TERUSAN","lat":"2.79192609","lon":"102.33189101"},{"id":"PLBKTRSN_PLBKTRSNR","name":"PUSAT LATIHAN BERUNIFOM KAMPUNG TERUSAN","lat":"2.79237534","lon":"102.33354577"},{"id":"PLBKTRSN_PLBKTRSN","name":"PUSAT LATIHAN BERUNIFOM KAMPUNG TERUSAN","lat":"2.79237534","lon":"102.33354577"},{"id":"KGSGTLG_KGSGTLG","name":"KAMPUNG SUNGAI TALING","lat":"2.79409337","lon":"102.33987751"},{"id":"KGSGTLG_KGSGTLGR","name":"KAMPUNG SUNGAI TALING","lat":"2.79409337","lon":"102.33987751"},{"id":"KUPLLG1_KUPLLG1","name":"KAMPUNG ULU PADANG LALANG 1","lat":"2.79504871","lon":"102.34347616"},{"id":"KUPLLG1_KUPLLG1R","name":"KAMPUNG ULU PADANG LALANG 1","lat":"2.79504871","lon":"102.34347616"},{"id":"KUPDGLLG2_KUPDGLLG2R","name":"KAMPUNG ULU PADANG LALANG 2","lat":"2.79615004","lon":"102.34704671"},{"id":"KUPDGLLG2_KUPDGLLG2","name":"KAMPUNG ULU PADANG LALANG 2","lat":"2.79615004","lon":"102.34704671"},{"id":"KGPDGLLH_KGPDGLLH","name":"KAMPUNG PADANG LALANG HILIR","lat":"2.79745444","lon":"102.35080561"},{"id":"KGPDGLLH_KGPDGLLHR","name":"KAMPUNG PADANG LALANG HILIR","lat":"2.79745444","lon":"102.35080561"},{"id":"BT5JLNJ_BT5JLNJ","name":"BATU 5 JALAN JELEBU","lat":"2.74903394","lon":"101.99250210"},{"id":"BT5JLNJ_BT5JLNJR","name":"BATU 5 JALAN JELEBU","lat":"2.74903394","lon":"101.99250210"},{"id":"LABT6_LABT6","name":"LOJI AIR BATU 6","lat":"2.75862856","lon":"101.99681637"},{"id":"LABT6_LABT6R","name":"LOJI AIR BATU 6","lat":"2.75862856","lon":"101.99681637"},{"id":"BT7JP_BT7JP","name":"BATU 7 JALAN PANTAI","lat":"2.76696716","lon":"102.00055659"},{"id":"BT7JP_BT7JPR","name":"BATU 7 JALAN PANTAI","lat":"2.76696716","lon":"102.00055659"},{"id":"KGJRLG_KGJRLG","name":"KG JERLANG BATU 7","lat":"2.76907468","lon":"101.99824512"},{"id":"KGJRLG_KGJRLGR","name":"KG JERLANG BATU 7","lat":"2.76907468","lon":"101.99824512"},{"id":"BT712_BT712","name":"BATU 7 1/2","lat":"2.77191550","lon":"101.99418802"},{"id":"BT712_BT712R","name":"BATU 7 1/2","lat":"2.77191550","lon":"101.99418802"},{"id":"PANTAI_PANTAI","name":"PANTAI","lat":"2.77445844","lon":"101.99148418"},{"id":"PANTAI_PANTAIR","name":"PANTAI","lat":"2.77445844","lon":"101.99148418"},{"id":"KGMGKN_KGMGKN","name":"KG MENGKAN","lat":"2.94667167","lon":"102.06218533"},{"id":"KGMGKN_KGMGKNR","name":"KG MENGKAN","lat":"2.94667167","lon":"102.06218533"},{"id":"KGMGKN_T71","name":"KG MENGKAN","lat":"2.94667167","lon":"102.06218533"},{"id":"KGMGKN_T71R","name":"KG MENGKAN","lat":"2.94667167","lon":"102.06218533"},{"id":"HOSJLBU_HOSJLBU","name":"HOSPITAL JELEBU","lat":"2.95042999","lon":"102.05912931"},{"id":"HOSJLBU_HOSJLBUR","name":"HOSPITAL JELEBU","lat":"2.95042999","lon":"102.05912931"},{"id":"HOSJLBU_T71","name":"HOSPITAL JELEBU","lat":"2.95042999","lon":"102.05912931"},{"id":"HOSJLBU_T71R","name":"HOSPITAL JELEBU","lat":"2.95042999","lon":"102.05912931"},{"id":"SMKUDGJBU_SMKUDGJBU","name":"SMK UNDANG JELEBU","lat":"2.95433689","lon":"102.05994163"},{"id":"SMKUDGJBU_SMKUDGJBUR","name":"SMK UNDANG JELEBU","lat":"2.95433689","lon":"102.05994163"},{"id":"SMKUDGJBU_T71","name":"SMK UNDANG JELEBU","lat":"2.95433689","lon":"102.05994163"},{"id":"SMKUDGJBU_T71R","name":"SMK UNDANG JELEBU","lat":"2.95433689","lon":"102.05994163"},{"id":"TMNAGSNA_TMNAGSNA","name":"TAMAN ANGSANA","lat":"2.97031066","lon":"102.06012247"},{"id":"TMNAGSNA_TMNAGSNAR","name":"TAMAN ANGSANA","lat":"2.97031066","lon":"102.06012247"},{"id":"TMNAGSNA_T71","name":"TAMAN ANGSANA","lat":"2.97031066","lon":"102.06012247"},{"id":"TMNAGSNA_T71R","name":"TAMAN ANGSANA","lat":"2.97031066","lon":"102.06012247"},{"id":"JLBUEST_JLBUEST","name":"JELEBU ESTATE","lat":"2.97403397","lon":"102.06057818"},{"id":"JLBUEST_JLBUESTR","name":"JELEBU ESTATE","lat":"2.97403397","lon":"102.06057818"},{"id":"JLBUEST_T71","name":"JELEBU ESTATE","lat":"2.97403397","lon":"102.06057818"},{"id":"JLBUEST_T71R","name":"JELEBU ESTATE","lat":"2.97403397","lon":"102.06057818"},{"id":"KLJKMTI_KLJKMTI","name":"SIMPANG SEPRI / KOLEJ KOMUNITI JELEBU","lat":"2.97663940","lon":"102.06189270"},{"id":"KLJKMTI_KLJKMTIR","name":"SIMPANG SEPRI / KOLEJ KOMUNITI JELEBU","lat":"2.97663940","lon":"102.06189270"},{"id":"KLJKMTI_T71","name":"SIMPANG SEPRI / KOLEJ KOMUNITI JELEBU","lat":"2.97701976","lon":"102.06166382"},{"id":"KLJKMTI_T71R","name":"SIMPANG SEPRI / KOLEJ KOMUNITI JELEBU","lat":"2.97701976","lon":"102.06166381"},{"id":"MRSMKLWG_MRSMKLWG","name":"MRSM KUALA KLAWANG","lat":"2.97886618","lon":"102.06318145"},{"id":"MRSMKLWG_MRSMKLWGR","name":"MRSM KUALA KLAWANG","lat":"2.97886618","lon":"102.06318145"},{"id":"MRSMKLWG_T71","name":"MRSM KUALA KLAWANG","lat":"2.97886618","lon":"102.06318145"},{"id":"MRSMKLWG_T71R","name":"MRSM KUALA KLAWANG","lat":"2.97886618","lon":"102.06318145"},{"id":"SPRIGKM16_SH","name":"SPRINGHILL KM 16","lat":"2.60732797","lon":"101.87397838"},{"id":"SPRIGKM16_SPRIGKM16R","name":"SPRINGHILL KM 16","lat":"2.60732797","lon":"101.87397837"},{"id":"KUILIKM16_KI","name":"KUIL INDIA KM 16","lat":"2.60335570","lon":"101.87357202"},{"id":"KUILIKM16_KUILIKM16R","name":"KUIL INDIA KM 16","lat":"2.60335570","lon":"101.87357202"},{"id":"LDGSALAKGM_LDGSALAKGM","name":"LADANG SALAK GMP/TOP GLOVE","lat":"2.59601267","lon":"101.87394350"},{"id":"LDGSALAKGM_LDGSALAKGMR","name":"LADANG SALAK GMP/TOP GLOVE","lat":"2.59601267","lon":"101.87394350"},{"id":"SKJEMPOL_SKJEMPOL","name":"SK JEMPOL","lat":"2.79886388","lon":"102.35484121"},{"id":"SKJEMPOL_SKJEMPOLR","name":"SK JEMPOL","lat":"2.79894435","lon":"102.35506311"},{"id":"KGKJM1_KGKJM1","name":"KAMPUNG KUALA JEMPOL 1","lat":"2.79961041","lon":"102.35710859"},{"id":"KGKJM1_KGKJM1R","name":"KAMPUNG KUALA JEMPOL 1","lat":"2.79961041","lon":"102.35710859"},{"id":"KGKJ2_KGKJ2","name":"KAMPUNG KUALA JEMPOL 2","lat":"2.80045162","lon":"102.35999465"},{"id":"KGKJ2_KGKJ2R","name":"KAMPUNG KUALA JEMPOL 2","lat":"2.80045162","lon":"102.35999464"},{"id":"SMKAHM_SMKAHM","name":"SMKA HAJI MUHAMAD","lat":"2.80421257","lon":"102.37353302"},{"id":"SMKAHM_SMKAHMR","name":"SMKA HAJI MUHAMAD","lat":"2.80421257","lon":"102.37353302"},{"id":"KKBAHAU_KKBAHAU","name":"KLINIK KESIHATAN BAHAU","lat":"2.80537337","lon":"102.37792812"},{"id":"KKBAHAU_KKBAHAUR","name":"KLINIK KESIHATAN BAHAU","lat":"2.80537337","lon":"102.37792812"},{"id":"UPWELL_UPWELL","name":"PASARAYA BORONG UPWELL","lat":"2.80752063","lon":"102.38621976"},{"id":"UPWELL_UPWELLR","name":"PASARAYA BORONG UPWELL","lat":"2.80752063","lon":"102.38621976"},{"id":"UPWELL_UP","name":"PASARAYA BORONG UPWELL","lat":"2.80752063","lon":"102.38621976"},{"id":"UPWELL_UW","name":"PASARAYA BORONG UPWELL","lat":"2.80752063","lon":"102.38621976"},{"id":"SJKCBAHAU_SJKCBAHAU","name":"SJKC BAHAU","lat":"2.80833323","lon":"102.39073454"},{"id":"SJKCBAHAU_SJKCBAHAUR","name":"SJKC BAHAU","lat":"2.80833323","lon":"102.39073453"},{"id":"KKJASEH_KKJASEH","name":"KLINIK KESIHATAN JUASEH","lat":"2.79365215","lon":"102.30210916"},{"id":"KKJASEH_KKJASEHR","name":"KLINIK KESIHATAN JUASEH","lat":"2.79365215","lon":"102.30210916"},{"id":"LDGJASH_LDGJASH","name":"LADANG JUASEH","lat":"2.79777312","lon":"102.30540645"},{"id":"LDGJASH_LDGJASHR","name":"LADANG JUASEH","lat":"2.79777312","lon":"102.30540645"},{"id":"TMNPTRA_TMNPTRA","name":"TAMAN PUTRA","lat":"2.81096710","lon":"102.31077225"},{"id":"TMNPTRA_TMNPTRAR","name":"TAMAN PUTRA","lat":"2.81096710","lon":"102.31077225"},{"id":"TMNAGGERIK_TMNAGGERIK","name":"TAMAN ANGGERIK","lat":"2.81606343","lon":"102.31254918"},{"id":"TMNAGGERIK_TMNAGGERIKR","name":"TAMAN ANGGERIK","lat":"2.81606343","lon":"102.31254918"},{"id":"KOMSKNBK_KOMSKNBK","name":"KOMPLEKS SUKAN BATU KIKIR","lat":"2.82127896","lon":"102.31566113"},{"id":"KOMSKNBK_KOMSKNBKR","name":"KOMPLEKS SUKAN BATU KIKIR","lat":"2.82127896","lon":"102.31566113"},{"id":"SPGBBTKKIR_SPGBBTKKIR","name":"SIMPANG BAHAU - BATU KIKIR","lat":"2.83564199","lon":"102.32179541"},{"id":"SPGBBTKKIR_SPGBBTKKIRR","name":"SIMPANG BAHAU - BATU KIKIR","lat":"2.83564199","lon":"102.32179541"},{"id":"KGBKYKRDS_KGBKYKRDS","name":"KAMPUNG BUKIT KERDAS","lat":"2.83258585","lon":"102.32925452"},{"id":"KGBKYKRDS_KGBKYKRDSR","name":"KAMPUNG BUKIT KERDAS","lat":"2.83258585","lon":"102.32925452"},{"id":"KGGJHMTI_KGGJHMTI","name":"KAMPUNG GAJAH MATI","lat":"2.82915524","lon":"102.33334337"},{"id":"KGGJHMTI_KGGJHMTIR","name":"KAMPUNG GAJAH MATI","lat":"2.82915524","lon":"102.33334337"},{"id":"BKTKLLT_BKTKLLT","name":"BUKIT KELULUT","lat":"2.81534630","lon":"102.35962897"},{"id":"BKTKLLT_BKTKLLTR","name":"BUKIT KELULUT","lat":"2.81534630","lon":"102.35962897"},{"id":"MASKGPMTG_T31","name":"MASJID KAMPUNG PERMATANG","lat":"2.47265530","lon":"102.01709840"},{"id":"MASKGPMTG_T31R","name":"MASJID KAMPUNG PERMATANG","lat":"2.47265530","lon":"102.01709840"},{"id":"TMNBKTKMPS_T70R","name":"TAMAN BUKIT KEMPAS","lat":"2.98046670","lon":"102.06580930"},{"id":"TMNBKTKMPS_T71","name":"TAMAN BUKIT KEMPAS","lat":"2.98046670","lon":"102.06580930"},{"id":"TMNBKTKMPS_T71R","name":"TAMAN BUKIT KEMPAS","lat":"2.98046670","lon":"102.06580930"},{"id":"TMNBKTKMPS_T70","name":"TAMAN BUKIT KEMPAS","lat":"2.98046670","lon":"102.06580930"},{"id":"TMNTT_T70","name":"TAMAN TITI","lat":"2.98224525","lon":"102.06754804"},{"id":"TMNTT_T70R","name":"TAMAN TITI","lat":"2.98224525","lon":"102.06754803"},{"id":"TMNTT_T71","name":"TAMAN TITI","lat":"2.98277025","lon":"102.06792891"},{"id":"TMNTT_T71R","name":"TAMAN TITI","lat":"2.98277025","lon":"102.06792891"},{"id":"TMNNEMS_T70","name":"TAMAN NAGA EMAS","lat":"2.98436132","lon":"102.07084715"},{"id":"TMNNEMS_T70R","name":"TAMAN NAGA EMAS","lat":"2.98436132","lon":"102.07084715"},{"id":"TMNNEMS_T71","name":"TAMAN NAGA EMAS","lat":"2.98436132","lon":"102.07084715"},{"id":"TMNNEMS_T71R","name":"TAMAN NAGA EMAS","lat":"2.98436132","lon":"102.07084715"},{"id":"TMNTIARA_T33","name":"TAMAN TIARA","lat":"2.43632203","lon":"101.86254588"},{"id":"TMNTIARA_T33R","name":"TAMAN TIARA","lat":"2.43632203","lon":"101.86254588"},{"id":"TMNTIARA_T34","name":"TAMAN TIARA","lat":"2.43632203","lon":"101.86254588"},{"id":"TMNTIARA_T34R","name":"TAMAN TIARA","lat":"2.43632203","lon":"101.86254588"},{"id":"KGTLKPLNDK_T33","name":"KG TELUK PELANDUK","lat":"2.42548759","lon":"101.88739464"},{"id":"KGTLKPLNDK_T33R","name":"KG TELUK PELANDUK","lat":"2.42548759","lon":"101.88739464"},{"id":"KGTLKPLNDK_T34","name":"KG TELUK PELANDUK","lat":"2.42548759","lon":"101.88739464"},{"id":"KGTLKPLNDK_T34R","name":"KG TELUK PELANDUK","lat":"2.42548759","lon":"101.88739464"},{"id":"PKPSRPNJG_T33","name":"PEKAN PASIR PANJANG","lat":"2.42749776","lon":"101.93055152"},{"id":"PKPSRPNJG_T33R","name":"PEKAN PASIR PANJANG","lat":"2.42749776","lon":"101.93055152"},{"id":"PKPSRPNJG_T34","name":"PEKAN PASIR PANJANG","lat":"2.42749776","lon":"101.93055152"},{"id":"PKPSRPNJG_T34R","name":"PEKAN PASIR PANJANG","lat":"2.42749776","lon":"101.93055152"},{"id":"LDGSKG_T33","name":"LADANG SENGKANG","lat":"2.43805081","lon":"102.00623101"},{"id":"LDGSKG_T33R","name":"LADANG SENGKANG","lat":"2.43805081","lon":"102.00623101"},{"id":"SLSR21_T34","name":"SPG LRG SG RAYA 21","lat":"2.42573004","lon":"101.95782423"},{"id":"SLSR21_T34R","name":"SPG LRG SG RAYA 21","lat":"2.42573004","lon":"101.95782423"},{"id":"SRALHDYH_T34","name":"SURAU AL HIDAYAH","lat":"2.42337239","lon":"101.95984181"},{"id":"SRALHDYH_T34R","name":"SURAU AL HIDAYAH","lat":"2.42337239","lon":"101.95984181"},{"id":"SLSR17_T34","name":"SPG LRG SG RAYA 17","lat":"2.42028751","lon":"101.96262526"},{"id":"SLSR17_T34R","name":"SPG LRG SG RAYA 17","lat":"2.42028751","lon":"101.96262525"},{"id":"SLKKSR_T34","name":"SPG LRG KUBOR KG SG RAYA","lat":"2.41633781","lon":"101.96480339"},{"id":"SLKKSR_T34R","name":"SPG LRG KUBOR KG SG RAYA","lat":"2.41633781","lon":"101.96480339"},{"id":"SPGKLJNTI_T34","name":"SIMPANG KOLEJ UNITI","lat":"2.41110750","lon":"101.96657238"},{"id":"SPGKLJNTI_T34R","name":"SIMPANG KOLEJ UNITI","lat":"2.41110750","lon":"101.96657238"},{"id":"KOLUNITI_T34","name":"KOLEJ UNITI TANJUNG AGAS","lat":"2.40641131","lon":"101.96767375"},{"id":"KOLUNITI_T34R","name":"KOLEJ UNITI TANJUNG AGAS","lat":"2.40641131","lon":"101.96767374"},{"id":"KGGMRUH_KGGMRUH","name":"KAMPUNG GEMURUH","lat":"2.73484094","lon":"102.23865688"},{"id":"KGGMRUH_KGGMRUHR","name":"KAMPUNG GEMURUH","lat":"2.73484094","lon":"102.23865687"},{"id":"SKKP_SKKP","name":"SK KUALA PILAH","lat":"2.74410274","lon":"102.24806070"},{"id":"SKKP_SKKPR","name":"SK KUALA PILAH","lat":"2.74410274","lon":"102.24806070"},{"id":"JLNKGBT181_JLNKGBT181","name":"JALAN KG BATU 18/1","lat":"2.88528779","lon":"102.02166038"},{"id":"JLNKGBT181_JLNKGBT181R","name":"JALAN KG BATU 18/1","lat":"2.88528779","lon":"102.02166038"},{"id":"KGRMBRS_KGRMBRS","name":"KAMPUNG RAMBAI BARIS","lat":"2.88728674","lon":"102.02248477"},{"id":"KGRMBRS_KGRMBRSR","name":"KAMPUNG RAMBAI BARIS","lat":"2.88728674","lon":"102.02248477"},{"id":"KKRTAU_KKRTAU","name":"KLINIK KESIHATAN RANTAU","lat":"2.60088660","lon":"101.96262538"},{"id":"KKRTAU_KKRTAUR","name":"KLINIK KESIHATAN RANTAU","lat":"2.60088660","lon":"101.96262538"},{"id":"KKRTAU_KKR","name":"KLINIK KESIHATAN RANTAU","lat":"2.60055988","lon":"101.96268659"},{"id":"KKRTAU_KKRR","name":"KLINIK KESIHATAN RANTAU","lat":"2.60055988","lon":"101.96268659"},{"id":"TAKAU_TAKAU","name":"KAMPUNG TAKAU RANTAU","lat":"2.59775700","lon":"101.96393430"},{"id":"TAKAU_TAKAUR","name":"KAMPUNG TAKAU RANTAU","lat":"2.59775700","lon":"101.96393430"},{"id":"TAKAU_502R","name":"KAMPUNG TAKAU RANTAU","lat":"2.59775700","lon":"101.96393430"},{"id":"TAKAU_TKURNT","name":"KAMPUNG TAKAU RANTAU","lat":"2.59775700","lon":"101.96393430"},{"id":"TAKAU_TKURNTR","name":"KAMPUNG TAKAU RANTAU","lat":"2.59775700","lon":"101.96393430"},{"id":"BEKAR_BEKAR","name":"BANDAR EKAR RANTAU","lat":"2.59351810","lon":"101.96469605"},{"id":"BEKAR_BEKARR","name":"BANDAR EKAR RANTAU","lat":"2.59351810","lon":"101.96469604"},{"id":"BEKAR_BE","name":"BANDAR EKAR RANTAU","lat":"2.59351810","lon":"101.96469604"},{"id":"BEKAR_BER","name":"BANDAR EKAR RANTAU","lat":"2.59351810","lon":"101.96469604"},{"id":"BEKAR_KEKR","name":"BANDAR EKAR RANTAU","lat":"2.59351810","lon":"101.96469604"},{"id":"RANTAU_RANTAU","name":"PEKAN RANTAU","lat":"2.59054925","lon":"101.96414888"},{"id":"RANTAU_RANTAUR","name":"PEKAN RANTAU","lat":"2.58591376","lon":"101.96186900"},{"id":"RANTAU_53","name":"PEKAN RANTAU","lat":"2.58525997","lon":"101.96209431"},{"id":"RANTAU_PR","name":"PEKAN RANTAU","lat":"2.58525997","lon":"101.96209431"},{"id":"TSINTN_TSINTN","name":"TMN SRI INTAN","lat":"2.57564250","lon":"101.94394511"},{"id":"TSINTN_TSINTNR","name":"TMN SRI INTAN","lat":"2.57564250","lon":"101.94394511"},{"id":"SPGKSILIAU_SPGKSILIAU","name":"SPG KG SILIAU","lat":"2.57686246","lon":"101.94055080"},{"id":"SPGKSILIAU_SPGKSILIAUR","name":"SPG KG SILIAU","lat":"2.57685710","lon":"101.94056690"},{"id":"BRADWALL_BRADWALLR","name":"LADANG BRADWALL","lat":"2.57446294","lon":"101.92684407"},{"id":"BRADWALL_LB","name":"LADANG BRADWALL","lat":"2.57446294","lon":"101.92684407"},{"id":"BRADWALL_BRADWALL","name":"LADANG BRADWALL","lat":"2.57446294","lon":"101.92684407"},{"id":"KTMSG_KTMSG","name":"KTM SUNGAI GADUT","lat":"2.66023492","lon":"101.99636221"},{"id":"KTMSG_KTMSGR","name":"KTM SUNGAI GADUT","lat":"2.66023492","lon":"101.99636220"},{"id":"KTMSG_KTMSG509","name":"KTM SUNGAI GADUT","lat":"2.66023492","lon":"101.99636221"},{"id":"KTMSG_KTMSG509R","name":"KTM SUNGAI GADUT","lat":"2.66023492","lon":"101.99636221"},{"id":"KTMSG_KTMSG60","name":"KTM SUNGAI GADUT","lat":"2.66023492","lon":"101.99636221"},{"id":"KTMSG_KTMSG60R","name":"KTM SUNGAI GADUT","lat":"2.66023492","lon":"101.99636221"},{"id":"KTMSG_KTM1","name":"KTM SUNGAI GADUT","lat":"2.66008359","lon":"101.99631012"},{"id":"KTMSG_KM2","name":"KTM SUNGAI GADUT","lat":"2.66005840","lon":"101.99629751"},{"id":"KTMSG_K","name":"KTM SUNGAI GADUT","lat":"2.66017061","lon":"101.99539393"},{"id":"KTMSG_KR","name":"KTM SUNGAI GADUT","lat":"2.66017061","lon":"101.99539393"},{"id":"AKA_AKA","name":"AKEPT","lat":"2.73612158","lon":"101.77314878"},{"id":"AKA_AKAR","name":"AKEPT","lat":"2.73435334","lon":"101.78326607"},{"id":"AKA_AKP","name":"AKEPT","lat":"2.73501450","lon":"101.77937383"},{"id":"AKA_AKPR","name":"AKEPT","lat":"2.73501450","lon":"101.77937383"},{"id":"LBJ3_LBJ31","name":"LBJ PERINGKAT 3","lat":"2.72902500","lon":"101.77885333"},{"id":"LBJ3_LBJ31R","name":"LBJ PERINGKAT 3","lat":"2.72896822","lon":"101.77881360"},{"id":"LBJ3_LBJ32","name":"LBJ PERINGKAT 3","lat":"2.73272588","lon":"101.78489941"},{"id":"LBJ3_LBJ32R","name":"LBJ PERINGKAT 3","lat":"2.73272588","lon":"101.78489941"},{"id":"TDRNTAU_TDRNTAU","name":"TAMAN DELIMA","lat":"2.58339505","lon":"101.96146131"},{"id":"TDRNTAU_TDRNTAUR","name":"TAMAN DELIMA","lat":"2.58309495","lon":"101.96137011"},{"id":"TDRNTAU_502","name":"TAMAN DELIMA","lat":"2.58309495","lon":"101.96137011"},{"id":"KTMSG1_KTMSG1","name":"KTM SG GADUT1","lat":"2.66047257","lon":"101.99686963"},{"id":"KTMSG1_KTMSG1R","name":"KTM SG GADUT1","lat":"2.66064282","lon":"101.99669293"},{"id":"KTMSG1_KTM","name":"KTM SG GADUT1","lat":"2.66012507","lon":"101.99541539"},{"id":"KTMSG1_KTMR","name":"KTM SG GADUT1","lat":"2.66012507","lon":"101.99541538"},{"id":"MASTTJ_MTJ","name":"MASJID TUANKU JAAFAR","lat":"2.67087712","lon":"101.99403942"},{"id":"MASTTJ_MASTTJR","name":"MASJID TUANKU JAAFAR","lat":"2.67087712","lon":"101.99403941"},{"id":"MASTTJ_MASTTJ","name":"MASJID TUANKU JAAFAR","lat":"2.67087712","lon":"101.99403942"},{"id":"SKPAROI_SKPAROIR","name":"SK  PAROI","lat":"2.72268288","lon":"101.99396431"},{"id":"SKPAROI_SKPAROI","name":"SK  PAROI","lat":"2.72268288","lon":"101.99396431"},{"id":"KGPANCHOR_KGPANCHOR","name":"KAMPUNG PANCHOR","lat":"2.72755666","lon":"102.01152500"},{"id":"KGPANCHOR_KGPANCHORR","name":"KAMPUNG PANCHOR","lat":"2.72771141","lon":"102.01170062"},{"id":"KGPANCHOR_KP","name":"KAMPUNG PANCHOR","lat":"2.72149332","lon":"102.00506866"},{"id":"KGPANCHOR_KPR","name":"KAMPUNG PANCHOR","lat":"2.72149332","lon":"102.00506865"},{"id":"ACBE_ACBE","name":"TAMAN ACBE","lat":"2.80830560","lon":"102.38835229"},{"id":"ACBE_ACBER","name":"TAMAN ACBE","lat":"2.80830560","lon":"102.38835229"},{"id":"ACBE_AC","name":"TAMAN ACBE","lat":"2.80927982","lon":"102.39360809"},{"id":"ACBE_ACR","name":"TAMAN ACBE","lat":"2.80927982","lon":"102.39360809"},{"id":"ACBE_AC1","name":"TAMAN ACBE","lat":"2.80929647","lon":"102.39354782"},{"id":"ACBE_AC2","name":"TAMAN ACBE","lat":"2.80929647","lon":"102.39354782"},{"id":"AEONBIG_AEONBIG","name":"AEON BIG RAHANG","lat":"2.70512876","lon":"101.95835531"},{"id":"AEONBIG_AEONBIGR","name":"AEON BIG RAHANG","lat":"2.70512876","lon":"101.95835530"},{"id":"AEONBIG_AB","name":"AEON BIG RAHANG","lat":"2.70512876","lon":"101.95835530"},{"id":"AEONBIG_ABR","name":"AEON BIG RAHANG","lat":"2.70512876","lon":"101.95835530"},{"id":"KASTAM_KASTAM","name":"KUARTERS KASTAM KELOMPOK 12","lat":"2.76429080","lon":"101.75985905"},{"id":"KASTAM_KASTAMR","name":"KUARTERS KASTAM KELOMPOK 12","lat":"2.76429080","lon":"101.75985905"},{"id":"TMNSNGERI_TMNSNGERI","name":"TMN SRI NEGERI","lat":"2.71956967","lon":"101.97984517"},{"id":"TMNSNGERI_TMNSNGERIR","name":"TMN SRI NEGERI","lat":"2.71956967","lon":"101.97984516"},{"id":"TMNNYIORG_TMNNYIORG","name":"TAMAN NYIOR GADING","lat":"2.71656897","lon":"101.95881128"},{"id":"TMNNYIORG_TMNNYIORGR","name":"TAMAN NYIOR GADING","lat":"2.71656897","lon":"101.95881128"},{"id":"TMNNYIORG_TN","name":"TAMAN NYIOR GADING","lat":"2.71416573","lon":"101.95961863"},{"id":"TMNNYIORG_TNR","name":"TAMAN NYIOR GADING","lat":"2.71416573","lon":"101.95961862"},{"id":"GIANTSNWNG_GIANTSNWNG","name":"GIANT SENAWANG","lat":"2.70191637","lon":"101.98310405"},{"id":"GIANTSNWNG_GIANTSNWNGR","name":"GIANT SENAWANG","lat":"2.70191637","lon":"101.98310405"},{"id":"GIANTSNWNG_GIANTSNWNGR1","name":"GIANT SENAWANG","lat":"2.70160833","lon":"101.98296800"},{"id":"GIANTSNWNG_GIANTSNWNGR1R","name":"GIANT SENAWANG","lat":"2.70099500","lon":"101.98525000"},{"id":"TMNLLY_TMNLLY","name":"TAMAN LILY","lat":"2.69837710","lon":"101.97852015"},{"id":"TMNLLY_TMNLLYR","name":"TAMAN LILY","lat":"2.69837710","lon":"101.97852015"},{"id":"TMNLLY_TLL","name":"TAMAN LILY","lat":"2.69837710","lon":"101.97852015"},{"id":"TMNSP_TMNSP","name":"TAMAN SERI PAGI","lat":"2.70627198","lon":"101.98989460"},{"id":"TMNSP_TMNSPR","name":"TAMAN SERI PAGI","lat":"2.70588430","lon":"101.98840141"},{"id":"TMNSP_TSP","name":"TAMAN SERI PAGI","lat":"2.70633505","lon":"101.99000822"},{"id":"PDAKWAH_PDAKWAH","name":"PUSAT DAKWAH ISLAM","lat":"2.72346402","lon":"101.98086677"},{"id":"PDAKWAH_PDAKWAHR","name":"PUSAT DAKWAH ISLAM","lat":"2.72341044","lon":"101.98087095"},{"id":"PDAKWAH_506","name":"PUSAT DAKWAH ISLAM","lat":"2.72411892","lon":"101.98112726"},{"id":"PDAKWAH_506R","name":"PUSAT DAKWAH ISLAM","lat":"2.72411892","lon":"101.98112726"},{"id":"KBDS_KBDS","name":"KOMPLEKS BELIA DAN SUKAN NEGERI SEMBILAN","lat":"2.72579072","lon":"101.97887957"},{"id":"KBDS_KBDSR","name":"KOMPLEKS BELIA DAN SUKAN NEGERI SEMBILAN","lat":"2.72579072","lon":"101.97887957"},{"id":"KBDS_506","name":"KOMPLEKS BELIA DAN SUKAN NEGERI SEMBILAN","lat":"2.72579072","lon":"101.97887957"},{"id":"KBDS_506R","name":"KOMPLEKS BELIA DAN SUKAN NEGERI SEMBILAN","lat":"2.72579072","lon":"101.97887957"},{"id":"TMNBIDARA_TMNBIDARA","name":"TAMAN BIDARA","lat":"2.71227689","lon":"101.95940137"},{"id":"TMNBIDARA_TMNBIDARAR","name":"TAMAN BIDARA","lat":"2.71227689","lon":"101.95940136"},{"id":"TMNBIDARA_TBR","name":"TAMAN BIDARA","lat":"2.80281440","lon":"102.36838959"},{"id":"TMNBIDARA_TB","name":"TAMAN BIDARA","lat":"2.80281440","lon":"102.36838959"},{"id":"AEONFOREST_AEONFOREST","name":"AEON FOREST HEIGHTS","lat":"2.70541333","lon":"101.95820833"},{"id":"AEONFOREST_AEONFORESTR","name":"AEON FOREST HEIGHTS","lat":"2.70586822","lon":"101.95932627"},{"id":"WTUNGYING_TY","name":"WISMA TUNG YANG","lat":"2.67440833","lon":"101.92832750"},{"id":"WTUNGYING_TYR","name":"WISMA TUNG YANG","lat":"2.67440833","lon":"101.92832750"},{"id":"WTUNGYING_WTUNGYANG","name":"WISMA TUNG YANG","lat":"2.67440833","lon":"101.92834833"},{"id":"WTUNGYING_WTUNGYANGR","name":"WISMA TUNG YANG","lat":"2.67435820","lon":"101.92832750"},{"id":"FTMNRSH_FTMNRSH","name":"FLAT TAMAN RASAH JAYA FASA 3","lat":"2.67369000","lon":"101.94585500"},{"id":"FTMNRSH_FTMNRSHR","name":"FLAT TAMAN RASAH JAYA FASA 3","lat":"2.67369000","lon":"101.94585500"},{"id":"FTMNRSH_FRJ","name":"FLAT TAMAN RASAH JAYA FASA 3","lat":"2.67754823","lon":"101.94839294"},{"id":"FTMNRSH_FRJR","name":"FLAT TAMAN RASAH JAYA FASA 3","lat":"2.67754823","lon":"101.94839293"},{"id":"KI_KI","name":"KG ISMAIL","lat":"2.72860385","lon":"101.96473897"},{"id":"KI_KIR","name":"KG ISMAIL","lat":"2.73046320","lon":"101.96231425"},{"id":"KI_KGI","name":"KG ISMAIL","lat":"2.73046320","lon":"101.96231425"},{"id":"KI_KGIR","name":"KG ISMAIL","lat":"2.73046320","lon":"101.96231425"},{"id":"TMNRSHJ5_TMNRSHJ5","name":"TAMAN RASAH JAYA FASA 5","lat":"2.68307322","lon":"101.94563627"},{"id":"TMNRSHJ5_TMNRSHJ5R","name":"TAMAN RASAH JAYA FASA 5","lat":"2.68307322","lon":"101.94563627"},{"id":"TMNRSHJ5_TRJF1","name":"TAMAN RASAH JAYA FASA 5","lat":"2.68422814","lon":"101.94238892"},{"id":"TMNRSHJ5_TRJF1R","name":"TAMAN RASAH JAYA FASA 5","lat":"2.68422814","lon":"101.94238892"},{"id":"MBK_MBK","name":"MASJID BKT KADIR","lat":"2.79754757","lon":"101.78169966"},{"id":"MBK_MBKR","name":"MASJID BKT KADIR","lat":"2.79754757","lon":"101.78169965"},{"id":"TMNBE_TMNBA","name":"TAMAN BAN AIK","lat":"2.80176003","lon":"101.79134985"},{"id":"TMNBE_TMNBAR","name":"TAMAN BAN AIK","lat":"2.80197748","lon":"101.79155413"},{"id":"TMNBE_TBA","name":"TAMAN BAN AIK","lat":"2.80197748","lon":"101.79155413"},{"id":"TMNBE_TBAR","name":"TAMAN BAN AIK","lat":"2.80197748","lon":"101.79155413"},{"id":"ME_ME","name":"MERCATO ENSTEK","lat":"2.74736590","lon":"101.76295797"},{"id":"ME_MER","name":"MERCATO ENSTEK","lat":"2.74736590","lon":"101.76295797"},{"id":"PERSADA_PERSADA","name":"PERSADA AMAN","lat":"2.76091114","lon":"101.76323454"},{"id":"PERSADA_PERSADAR","name":"PERSADA AMAN","lat":"2.76091114","lon":"101.76323454"},{"id":"PERSADAIKH_PERSADAIKH","name":"PERSADA IKHLAS","lat":"2.75701285","lon":"101.76041651"},{"id":"PERSADAIKH_PERSADAIKHR","name":"PERSADA IKHLAS","lat":"2.75701285","lon":"101.76041651"},{"id":"INTUITM_INTUITM","name":"INSTITUT KEPIMPINAN DAN PEMBANGUNAN","lat":"2.73513627","lon":"101.77603532"},{"id":"INTUITM_INTUITMR","name":"INSTITUT KEPIMPINAN DAN PEMBANGUNAN","lat":"2.73513627","lon":"101.77603532"},{"id":"ALHIJRA_ALHIJRA","name":"SURAU AL HIJRA","lat":"2.73155372","lon":"101.78296524"},{"id":"ALHIJRA_ALHIJRAR","name":"SURAU AL HIJRA","lat":"2.73155372","lon":"101.78296524"},{"id":"PSRP3_PSRP3","name":"PASAR MINI LBJ P3","lat":"2.72917449","lon":"101.78125040"},{"id":"PSRP3_PSRP3R","name":"PASAR MINI LBJ P3","lat":"2.72917449","lon":"101.78125040"},{"id":"T1_T1","name":"TERMINAL ONE","lat":"2.72153619","lon":"101.93721414"},{"id":"T1_T1R","name":"TERMINAL ONE","lat":"2.72152011","lon":"101.93715513"},{"id":"T1_T54","name":"TERMINAL ONE","lat":"2.72153619","lon":"101.93721414"},{"id":"T1_T11","name":"TERMINAL ONE","lat":"2.72153619","lon":"101.93721414"},{"id":"T1_53","name":"TERMINAL ONE","lat":"2.72152011","lon":"101.93715513"},{"id":"T1_53R","name":"TERMINAL ONE","lat":"2.72152011","lon":"101.93715513"},{"id":"T1_505","name":"TERMINAL ONE","lat":"2.72152011","lon":"101.93715513"},{"id":"T1_505R","name":"TERMINAL ONE","lat":"2.72152011","lon":"101.93715513"},{"id":"T1_T10","name":"TERMINAL ONE","lat":"2.72153619","lon":"101.93721414"},{"id":"T1_F508","name":"TERMINAL ONE","lat":"2.72153619","lon":"101.93721414"},{"id":"T1_T51","name":"TERMINAL ONE","lat":"2.72153619","lon":"101.93721414"},{"id":"T1_T51R","name":"TERMINAL ONE","lat":"2.72152011","lon":"101.93715513"},{"id":"T1_T54R","name":"TERMINAL ONE","lat":"2.72152011","lon":"101.93715513"},{"id":"T1_T60","name":"TERMINAL ONE","lat":"2.72152011","lon":"101.93715513"},{"id":"T1_T60R","name":"TERMINAL ONE","lat":"2.72152011","lon":"101.93715513"},{"id":"PMN_PMN1","name":"PEJABAT MARA SEREMBAN 1","lat":"2.71883021","lon":"101.95490599"},{"id":"PMN_PMN1R","name":"PEJABAT MARA SEREMBAN 1","lat":"2.71883021","lon":"101.95490599"},{"id":"PMN_PMN","name":"PEJABAT MARA SEREMBAN 1","lat":"2.71883021","lon":"101.95490599"},{"id":"PMN_PMNR","name":"PEJABAT MARA SEREMBAN 1","lat":"2.71904990","lon":"101.95508301"},{"id":"CPOI_CPOI","name":"CENTREPOINT","lat":"2.72180947","lon":"101.95572674"},{"id":"CPOI_CPOIR","name":"CENTREPOINT","lat":"2.72238817","lon":"101.95649385"},{"id":"CPOI_CPOI1","name":"CENTREPOINT","lat":"2.72238817","lon":"101.95649385"},{"id":"CPOI_CPOI1R","name":"CENTREPOINT","lat":"2.72238817","lon":"101.95649385"},{"id":"GDLL_GDLL","name":"GEDONG LALANG","lat":"2.72640693","lon":"101.97007656"},{"id":"GDLL_GDLLR","name":"GEDONG LALANG","lat":"2.72629441","lon":"101.97011948"},{"id":"GDLL_GDLL1","name":"GEDONG LALANG","lat":"2.72668557","lon":"101.97428226"},{"id":"GDLL_GDLL1R","name":"GEDONG LALANG","lat":"2.72677666","lon":"101.97347224"},{"id":"KKAM_KKAM1","name":"KLINIK KESIHATAN AMPANGAN","lat":"2.72287578","lon":"101.98750556"},{"id":"KKAM_KKAM1R","name":"KLINIK KESIHATAN AMPANGAN","lat":"2.72287578","lon":"101.98750556"},{"id":"KKAM_KKAM","name":"KLINIK KESIHATAN AMPANGAN","lat":"2.72320264","lon":"101.98622882"},{"id":"KKAM_KKAMR","name":"KLINIK KESIHATAN AMPANGAN","lat":"2.72287578","lon":"101.98750556"},{"id":"BPTC_BPTC","name":"BALAI POLIS TERACHI","lat":"2.74395539","lon":"102.15701580"},{"id":"BPTC_BPTCR","name":"BALAI POLIS TERACHI","lat":"2.74395539","lon":"102.15701580"},{"id":"BPTC_BPTC1","name":"BALAI POLIS TERACHI","lat":"2.74395539","lon":"102.15701580"},{"id":"BPTC_BPTC1R","name":"BALAI POLIS TERACHI","lat":"2.74395539","lon":"102.15701580"},{"id":"GMTR_GMTR","name":"KAMPUNG GEMENTIR1","lat":"2.74372498","lon":"102.16391981"},{"id":"GMTR_GMTRR","name":"KAMPUNG GEMENTIR1","lat":"2.74299626","lon":"102.16655374"},{"id":"GMTR_GMTR1","name":"KAMPUNG GEMENTIR1","lat":"2.74299626","lon":"102.16655374"},{"id":"GMTR_GMTR1R","name":"KAMPUNG GEMENTIR1","lat":"2.74299626","lon":"102.16655374"},{"id":"AMPT_AMPT","name":"AMPANG TINGGI","lat":"2.73724682","lon":"102.20610023"},{"id":"AMPT_AMPTR","name":"AMPANG TINGGI","lat":"2.73713965","lon":"102.20731795"},{"id":"AMPT_AMPT1","name":"AMPANG TINGGI","lat":"2.73699277","lon":"102.20171102"},{"id":"AMPT_AMPT1R","name":"AMPANG TINGGI","lat":"2.73699277","lon":"102.20171102"},{"id":"HTAN_HTAN","name":"HOSPITAL TUNKU NAJIHA","lat":"2.73514637","lon":"102.23269165"},{"id":"HTAN_HTANR","name":"HOSPITAL TUNKU NAJIHA","lat":"2.73514637","lon":"102.23269164"},{"id":"HTAN_HTAN1","name":"HOSPITAL TUNKU NAJIHA","lat":"2.73514637","lon":"102.23269165"},{"id":"HTAN_HTAN1R","name":"HOSPITAL TUNKU NAJIHA","lat":"2.73514637","lon":"102.23269165"},{"id":"KJWM_KJWM1","name":"KOLEJ KEJURURAWATAN KUALA PILAH","lat":"2.73504456","lon":"102.24253803"},{"id":"KJWM_KJWM","name":"KOLEJ KEJURURAWATAN KUALA PILAH","lat":"2.73504456","lon":"102.24290013"},{"id":"KJWM_KJWM2","name":"KOLEJ KEJURURAWATAN KUALA PILAH","lat":"2.73504456","lon":"102.24290013"},{"id":"KJWM_KJWM1R","name":"KOLEJ KEJURURAWATAN KUALA PILAH","lat":"2.73504456","lon":"102.24253803"},{"id":"KJWM_N11","name":"KOLEJ KEJURURAWATAN KUALA PILAH","lat":"2.73518923","lon":"102.24253803"},{"id":"KJWM_N11R","name":"KOLEJ KEJURURAWATAN KUALA PILAH","lat":"2.73518923","lon":"102.24253803"},{"id":"TKP_TKP1","name":"STESEN BAS KUALA PILAH","lat":"2.74099762","lon":"102.24812776"},{"id":"TKP_TKP1R","name":"STESEN BAS KUALA PILAH","lat":"2.74099762","lon":"102.24812776"},{"id":"TKP_N11","name":"STESEN BAS KUALA PILAH","lat":"2.74099762","lon":"102.24812776"},{"id":"TKP_N11R","name":"STESEN BAS KUALA PILAH","lat":"2.74099762","lon":"102.24812776"},{"id":"TKP_TKP","name":"STESEN BAS KUALA PILAH","lat":"2.74099762","lon":"102.24812776"},{"id":"TKP_TKPR","name":"STESEN BAS KUALA PILAH","lat":"2.74099762","lon":"102.24812775"},