[
    {
        "stop_name": "(M1) Lapangan Terbang Antarabangsa Pulau Pinang",
        "stop_lat": "5.292606",
        "stop_lon": "100.2648269",
        "stop_id": "12002211",
        "stop_sequence": "1"
    },
    {
        "stop_name": "The Star Publication",
        "stop_lat": "5.298109999999999",
        "stop_lon": "100.26985",
        "stop_id": "12001418",
        "stop_sequence": "2"
    },
    {
        "stop_name": "Sungai Tiram",
        "stop_lat": "5.302697",
        "stop_lon": "100.27651",
        "stop_id": "12001422",
        "stop_sequence": "3"
    },
    {
        "stop_name": "Dynacraft Industries Sdn. Bhd.",
        "stop_lat": "5.30481",
        "stop_lon": "100.27917",
        "stop_id": "12001423",
        "stop_sequence": "4"
    },
    {
        "stop_name": "B Braun",
        "stop_lat": "5.3083800000000005",
        "stop_lon": "100.28226",
        "stop_id": "12001425",
        "stop_sequence": "5"
    },
    {
        "stop_name": "Snake Temple",
        "stop_lat": "5.314244",
        "stop_lon": "100.28605",
        "stop_id": "12001427",
        "stop_sequence": "6"
    },
    {
        "stop_name": "Jalan Tengah",
        "stop_lat": "5.31882",
        "stop_lon": "100.2873",
        "stop_id": "12001800",
        "stop_sequence": "7"
    },
    {
        "stop_name": "Pasaraya Giant",
        "stop_lat": "5.32071",
        "stop_lon": "100.28571",
        "stop_id": "12000879",
        "stop_sequence": "8"
    },
    {
        "stop_name": "Masjid Bayan Baru",
        "stop_lat": "5.323671",
        "stop_lon": "100.28688000000001",
        "stop_id": "12000882",
        "stop_sequence": "9"
    },
    {
        "stop_name": "Sunshine Square",
        "stop_lat": "5.325499",
        "stop_lon": "100.2875",
        "stop_id": "12000885",
        "stop_sequence": "10"
    },
    {
        "stop_name": "Jalan Mahsuri",
        "stop_lat": "5.32695",
        "stop_lon": "100.28878",
        "stop_id": "12000849",
        "stop_sequence": "11"
    },
    {
        "stop_name": "Taman Mahsuri",
        "stop_lat": "5.32846",
        "stop_lon": "100.29335999999999",
        "stop_id": "12001432",
        "stop_sequence": "12"
    },
    {
        "stop_name": "Krystal Point Corporate Park",
        "stop_lat": "5.330701",
        "stop_lon": "100.298996",
        "stop_id": "12001955",
        "stop_sequence": "13"
    },
    {
        "stop_name": "Queensbay Mall",
        "stop_lat": "5.331947",
        "stop_lon": "100.30790999999999",
        "stop_id": "12002059",
        "stop_sequence": "14"
    },
    {
        "stop_name": "Krystal Point Corporate Park",
        "stop_lat": "5.33108",
        "stop_lon": "100.297092",
        "stop_id": "12002483",
        "stop_sequence": "15"
    },
    {
        "stop_name": "Kompleks Bukit Jambul II",
        "stop_lat": "5.33242",
        "stop_lon": "100.29099000000001",
        "stop_id": "12001843",
        "stop_sequence": "16"
    },
    {
        "stop_name": "Masjid Al- Ittifaq",
        "stop_lat": "5.33245",
        "stop_lon": "100.28696",
        "stop_id": "12001844",
        "stop_sequence": "17"
    },
    {
        "stop_name": "Sungai Nibong Kecil",
        "stop_lat": "5.331930000000001",
        "stop_lon": "100.28465",
        "stop_id": "12001841",
        "stop_sequence": "18"
    },
    {
        "stop_name": "Kondominium Tunas Residensi",
        "stop_lat": "5.330318",
        "stop_lon": "100.27852",
        "stop_id": "12000437",
        "stop_sequence": "19"
    },
    {
        "stop_name": "Kompleks Golden Triangle",
        "stop_lat": "5.331664",
        "stop_lon": "100.27662",
        "stop_id": "12001002",
        "stop_sequence": "20"
    },
    {
        "stop_name": "SK Seri Relau",
        "stop_lat": "5.333880000000001",
        "stop_lon": "100.27580999999999",
        "stop_id": "12001004",
        "stop_sequence": "21"
    },
    {
        "stop_name": "Flat 88",
        "stop_lat": "5.33689",
        "stop_lon": "100.27490999999999",
        "stop_id": "12001006",
        "stop_sequence": "22"
    },
    {
        "stop_name": "Apartmen Taman Bendera",
        "stop_lat": "5.3396",
        "stop_lon": "100.27426",
        "stop_id": "12001011",
        "stop_sequence": "23"
    },
    {
        "stop_name": "Pusat Agro Pelancongan",
        "stop_lat": "5.34165",
        "stop_lon": "100.27393000000001",
        "stop_id": "12001012",
        "stop_sequence": "24"
    },
    {
        "stop_name": "Simpang Tingkat Bukit Jambul",
        "stop_lat": "5.3460589999999995",
        "stop_lon": "100.272514",
        "stop_id": "12001014",
        "stop_sequence": "25"
    },
    {
        "stop_name": "Pangsapuri Green Garden",
        "stop_lat": "5.366619",
        "stop_lon": "100.27306999999999",
        "stop_id": "12001017",
        "stop_sequence": "26"
    },
    {
        "stop_name": "(M2) Tingkat Paya Terubong4",
        "stop_lat": "5.36975",
        "stop_lon": "100.27547",
        "stop_id": "12002102",
        "stop_sequence": "27"
    },
    {
        "stop_name": "Tingkat Paya Terubong 2 - 1",
        "stop_lat": "5.37092",
        "stop_lon": "100.2774",
        "stop_id": "12002099",
        "stop_sequence": "28"
    },
    {
        "stop_name": "Tingkat Paya Terubong 2 - 2",
        "stop_lat": "5.37184",
        "stop_lon": "100.27757",
        "stop_id": "12002100",
        "stop_sequence": "29"
    },
    {
        "stop_name": "Tingkat Paya Terubong 2 - 3",
        "stop_lat": "5.37357",
        "stop_lon": "100.27785",
        "stop_id": "12002101",
        "stop_sequence": "30"
    },
    {
        "stop_name": "Oriental Garden",
        "stop_lat": "5.37547",
        "stop_lon": "100.27575999999999",
        "stop_id": "12001020",
        "stop_sequence": "31"
    },
    {
        "stop_name": "Pekan Paya Terubong",
        "stop_lat": "5.37904",
        "stop_lon": "100.27483000000001",
        "stop_id": "12002286",
        "stop_sequence": "32"
    },
    {
        "stop_name": "Paya Terubong Cemetery",
        "stop_lat": "5.380875",
        "stop_lon": "100.27495",
        "stop_id": "12001023",
        "stop_sequence": "33"
    },
    {
        "stop_name": "Apartment Lone Pine",
        "stop_lat": "5.38657",
        "stop_lon": "100.27638",
        "stop_id": "12001969",
        "stop_sequence": "34"
    },
    {
        "stop_name": "Perumahan PDRM",
        "stop_lat": "5.38794",
        "stop_lon": "100.27821",
        "stop_id": "12001971",
        "stop_sequence": "35"
    },
    {
        "stop_name": "Lebuhraya Thean Teik",
        "stop_lat": "5.38875",
        "stop_lon": "100.27956",
        "stop_id": "12001973",
        "stop_sequence": "36"
    },
    {
        "stop_name": "(M2) Lintang Angsana",
        "stop_lat": "5.388977",
        "stop_lon": "100.28198",
        "stop_id": "12002001",
        "stop_sequence": "37"
    },
    {
        "stop_name": "Lintang Angsana II",
        "stop_lat": "5.3880349999999995",
        "stop_lon": "100.28272",
        "stop_id": "12001998",
        "stop_sequence": "38"
    },
    {
        "stop_name": "Petronas Farlim",
        "stop_lat": "5.38858",
        "stop_lon": "100.28429",
        "stop_id": "12000048",
        "stop_sequence": "39"
    },
    {
        "stop_name": "Klinik Kesihatan Bandar Baru Air Itam",
        "stop_lat": "5.38964",
        "stop_lon": "100.28497",
        "stop_id": "12000050",
        "stop_sequence": "40"
    },
    {
        "stop_name": "Masjid Bandar Baru Air Itam",
        "stop_lat": "5.39384",
        "stop_lon": "100.2852",
        "stop_id": "12001812",
        "stop_sequence": "41"
    },
    {
        "stop_name": "Pasaraya Sunshine Farlim",
        "stop_lat": "5.39577",
        "stop_lon": "100.28657",
        "stop_id": "12001814",
        "stop_sequence": "42"
    },
    {
        "stop_name": "Fortune Court",
        "stop_lat": "5.3978",
        "stop_lon": "100.28845",
        "stop_id": "12001815",
        "stop_sequence": "43"
    },
    {
        "stop_name": "Apartmen Desa Mawar",
        "stop_lat": "5.40085",
        "stop_lon": "100.29066",
        "stop_id": "12001816",
        "stop_sequence": "44"
    },
    {
        "stop_name": "Wisma Yatim",
        "stop_lat": "5.4034699999999996",
        "stop_lon": "100.29143",
        "stop_id": "12001817",
        "stop_sequence": "45"
    },
    {
        "stop_name": "Balai Polis Kampung Baru",
        "stop_lat": "5.40526",
        "stop_lon": "100.29424",
        "stop_id": "12000067",
        "stop_sequence": "46"
    },
    {
        "stop_name": "Pasar Kampung Baru",
        "stop_lat": "5.40612",
        "stop_lon": "100.29637",
        "stop_id": "12000069",
        "stop_sequence": "47"
    },
    {
        "stop_name": "Masjid Negeri P.Pinang",
        "stop_lat": "5.407769999999999",
        "stop_lon": "100.29997",
        "stop_id": "12000071",
        "stop_sequence": "48"
    },
    {
        "stop_name": "Pejabat Agama Islam",
        "stop_lat": "5.413209999999999",
        "stop_lon": "100.30213",
        "stop_id": "12001367",
        "stop_sequence": "49"
    },
    {
        "stop_name": "Heritage Club",
        "stop_lat": "5.41869",
        "stop_lon": "100.30466",
        "stop_id": "12001368",
        "stop_sequence": "50"
    },
    {
        "stop_name": "St. Christoper School",
        "stop_lat": "5.42288",
        "stop_lon": "100.30614",
        "stop_id": "12000839",
        "stop_sequence": "51"
    },
    {
        "stop_name": "Kolej Disted-Stamford",
        "stop_lat": "5.422867",
        "stop_lon": "100.3085",
        "stop_id": "12000838",
        "stop_sequence": "52"
    },
    {
        "stop_name": "Buddhist Society",
        "stop_lat": "5.4223",
        "stop_lon": "100.31149",
        "stop_id": "12000835",
        "stop_sequence": "53"
    },
    {
        "stop_name": "(M2) SK Jalan Residensi",
        "stop_lat": "5.42026",
        "stop_lon": "100.31155",
        "stop_id": "12001355",
        "stop_sequence": "54"
    },
    {
        "stop_name": "Hospital P.Pinang I",
        "stop_lat": "5.4170300000000005",
        "stop_lon": "100.30933",
        "stop_id": "12001354",
        "stop_sequence": "55"
    }
]