[
    {
        "stop_name": "AJ219 LRT CEMPAKA",
        "stop_lat": "3.1383158732406",
        "stop_lon": "101.75308018712",
        "stop_id": "1001793",
        "stop_sequence": "1"
    },
    {
        "stop_name": "AJ226 PANGSAPURI DAHLIA",
        "stop_lat": "3.1342033330273",
        "stop_lon": "101.75151040436",
        "stop_id": "1000704",
        "stop_sequence": "2"
    },
    {
        "stop_name": "AJ468 HUB PANDAN INDAH",
        "stop_lat": "3.134093",
        "stop_lon": "101.753511",
        "stop_id": "1000964",
        "stop_sequence": "3"
    },
    {
        "stop_name": "AJ179 APARTMENT MERPATI",
        "stop_lat": "3.133868",
        "stop_lon": "101.75633771805",
        "stop_id": "1000728",
        "stop_sequence": "4"
    },
    {
        "stop_name": "AJ444 PANDAN INDAH AUTOCITY",
        "stop_lat": "3.132979",
        "stop_lon": "101.760232",
        "stop_id": "1003691",
        "stop_sequence": "5"
    },
    {
        "stop_name": "AJ157 PANDAN MEWAH HEIGHTS",
        "stop_lat": "3.130923",
        "stop_lon": "101.762139",
        "stop_id": "1001651",
        "stop_sequence": "6"
    },
    {
        "stop_name": "AJ158 FLAT 610",
        "stop_lat": "3.130479",
        "stop_lon": "101.760369",
        "stop_id": "1000992",
        "stop_sequence": "7"
    },
    {
        "stop_name": "AJ159 SURAU MADRASATUL SOFWA",
        "stop_lat": "3.1298841668666",
        "stop_lon": "101.75896061054",
        "stop_id": "1003749",
        "stop_sequence": "8"
    },
    {
        "stop_name": "AJ160 APARTMENT BUNGA RAYA",
        "stop_lat": "3.1292473326086",
        "stop_lon": "101.7572669952",
        "stop_id": "1000610",
        "stop_sequence": "9"
    },
    {
        "stop_name": "AJ161 MENARA MPAJ",
        "stop_lat": "3.128996",
        "stop_lon": "101.753841",
        "stop_id": "1002238",
        "stop_sequence": "10"
    },
    {
        "stop_name": "AJ162 HOSPITAL PANTAI AMPANG",
        "stop_lat": "3.1288426651762",
        "stop_lon": "101.7518377104",
        "stop_id": "1000927",
        "stop_sequence": "11"
    },
    {
        "stop_name": "AJ163 BALAI POLIS PANDAN INDAH (OPP)",
        "stop_lat": "3.127884",
        "stop_lon": "101.750843",
        "stop_id": "1000189",
        "stop_sequence": "12"
    },
    {
        "stop_name": "AJ164 SK PANDAN INDAH",
        "stop_lat": "3.125424",
        "stop_lon": "101.751033",
        "stop_id": "1003307",
        "stop_sequence": "13"
    },
    {
        "stop_name": "AJ165 SMK PANDAN INDAH",
        "stop_lat": "3.122964",
        "stop_lon": "101.751258",
        "stop_id": "1003351",
        "stop_sequence": "14"
    },
    {
        "stop_name": "AJ333 FLAT PANDAN INDAH",
        "stop_lat": "3.121507",
        "stop_lon": "101.751328",
        "stop_id": "1006900",
        "stop_sequence": "15"
    },
    {
        "stop_name": "AJ229 THE RESIDENT AMPANG SOUTH",
        "stop_lat": "3.119724",
        "stop_lon": "101.752015",
        "stop_id": "1003924",
        "stop_sequence": "16"
    },
    {
        "stop_name": "AJ230 TAMAN MUDA (BARAT)",
        "stop_lat": "3.119856",
        "stop_lon": "101.756687",
        "stop_id": "1002044",
        "stop_sequence": "17"
    },
    {
        "stop_name": "AJ231 TAMAN MUDA (TIMUR)",
        "stop_lat": "3.1199889635163",
        "stop_lon": "101.75914666354",
        "stop_id": "1001177",
        "stop_sequence": "18"
    },
    {
        "stop_name": "AJ242 KOMERSIAL TAMAN MUDA",
        "stop_lat": "3.121373",
        "stop_lon": "101.760082",
        "stop_id": "1001755",
        "stop_sequence": "19"
    },
    {
        "stop_name": "AJ249 PARAGON POINT (SELATAN)",
        "stop_lat": "3.119658",
        "stop_lon": "101.763299",
        "stop_id": "1002489",
        "stop_sequence": "20"
    },
    {
        "stop_name": "AJ342 TAMAN MELUR (BARAT)",
        "stop_lat": "3.118146",
        "stop_lon": "101.763393",
        "stop_id": "1008643",
        "stop_sequence": "21"
    },
    {
        "stop_name": "AJ404 TAMAN SERAYA (UTARA)",
        "stop_lat": "3.116481",
        "stop_lon": "101.763662",
        "stop_id": "1008644",
        "stop_sequence": "22"
    },
    {
        "stop_name": "AJ254 TAMAN SERAYA (TIMUR)",
        "stop_lat": "3.115468",
        "stop_lon": "101.763206",
        "stop_id": "1003148",
        "stop_sequence": "23"
    },
    {
        "stop_name": "AJ255 TAMAN SERAYA (BARAT)",
        "stop_lat": "3.114939",
        "stop_lon": "101.761604",
        "stop_id": "1000362",
        "stop_sequence": "24"
    },
    {
        "stop_name": "(M) AJ256 FLAT INTAN",
        "stop_lat": "3.111956",
        "stop_lon": "101.758202",
        "stop_id": "1007302",
        "stop_sequence": "25"
    },
    {
        "stop_name": "AJ257 TAMAN INDUSTRI BUKIT PERMAI",
        "stop_lat": "3.110905",
        "stop_lon": "101.756626",
        "stop_id": "1001486",
        "stop_sequence": "26"
    },
    {
        "stop_name": "AJ259 GLENVIEW VILLA",
        "stop_lat": "3.111358",
        "stop_lon": "101.753737",
        "stop_id": "1000874",
        "stop_sequence": "27"
    },
    {
        "stop_name": "AJ260 DATARAN MESTIKA",
        "stop_lat": "3.113255",
        "stop_lon": "101.755013",
        "stop_id": "1003418",
        "stop_sequence": "28"
    },
    {
        "stop_name": "AJ265 TAMAN MUDA (SELATAN)",
        "stop_lat": "3.114418",
        "stop_lon": "101.758672",
        "stop_id": "1001262",
        "stop_sequence": "29"
    },
    {
        "stop_name": "DEWAN KOMUNITI TAMAN MUDA (OPP)",
        "stop_lat": "3.116488",
        "stop_lon": "101.759597",
        "stop_id": "1006905",
        "stop_sequence": "30"
    },
    {
        "stop_name": "PASAR TAMAN MUDA (OPP)",
        "stop_lat": "3.119149",
        "stop_lon": "101.759349",
        "stop_id": "1006903",
        "stop_sequence": "31"
    },
    {
        "stop_name": "AJ266 TAMAN MUDA (BARAT)",
        "stop_lat": "3.119653",
        "stop_lon": "101.758107",
        "stop_id": "1002045",
        "stop_sequence": "32"
    },
    {
        "stop_name": "AJ267 THE RESIDENT AMPANG SOUTH",
        "stop_lat": "3.1194839634373",
        "stop_lon": "101.75312412437",
        "stop_id": "1003925",
        "stop_sequence": "33"
    },
    {
        "stop_name": "AJ168 TAMAN KENCANA (UTARA)",
        "stop_lat": "3.120468",
        "stop_lon": "101.75124",
        "stop_id": "1006901",
        "stop_sequence": "34"
    },
    {
        "stop_name": "AJ169 SMK PANDAN INDAH (OPP)",
        "stop_lat": "3.122488",
        "stop_lon": "101.751166",
        "stop_id": "1003350",
        "stop_sequence": "35"
    },
    {
        "stop_name": "AJ170 SK PANDAN INDAH",
        "stop_lat": "3.125210333429",
        "stop_lon": "101.75094395968",
        "stop_id": "1003306",
        "stop_sequence": "36"
    },
    {
        "stop_name": "AJ171 KOMERSIAL PANDAN INDAH",
        "stop_lat": "3.129133",
        "stop_lon": "101.752023",
        "stop_id": "1003689",
        "stop_sequence": "37"
    },
    {
        "stop_name": "AJ172 MENARA MAXISEGAR",
        "stop_lat": "3.129223",
        "stop_lon": "101.753449",
        "stop_id": "1001962",
        "stop_sequence": "38"
    },
    {
        "stop_name": "AJ173 RHB PANDAN INDAH",
        "stop_lat": "3.129258",
        "stop_lon": "101.754982",
        "stop_id": "1002821",
        "stop_sequence": "39"
    },
    {
        "stop_name": "AJ174 PANGSAPURI SRI INAI",
        "stop_lat": "3.129512",
        "stop_lon": "101.757193",
        "stop_id": "1000110",
        "stop_sequence": "40"
    },
    {
        "stop_name": "AJ175 PERUMAHAN PANDAN INDAH 4",
        "stop_lat": "3.1301713333459",
        "stop_lon": "101.75901428473",
        "stop_id": "1003811",
        "stop_sequence": "41"
    },
    {
        "stop_name": "AJ177 STOR MPAJ",
        "stop_lat": "3.132183",
        "stop_lon": "101.762236",
        "stop_id": "1000636",
        "stop_sequence": "42"
    },
    {
        "stop_name": "AJ434 PANDAN INDAH AUTOCITY",
        "stop_lat": "3.132713",
        "stop_lon": "101.760186",
        "stop_id": "1002320",
        "stop_sequence": "43"
    },
    {
        "stop_name": "AJ223 APARTMENT MERPATI",
        "stop_lat": "3.134151",
        "stop_lon": "101.757526",
        "stop_id": "1000354",
        "stop_sequence": "44"
    },
    {
        "stop_name": "AJ423 APARTMENT NURI COURT",
        "stop_lat": "3.135695",
        "stop_lon": "101.756302",
        "stop_id": "1000134",
        "stop_sequence": "45"
    },
    {
        "stop_name": "AJ224 APARTMENT KENARI COURT",
        "stop_lat": "3.136451",
        "stop_lon": "101.754541",
        "stop_id": "1000129",
        "stop_sequence": "46"
    },
    {
        "stop_name": "AJ219 LRT CEMPAKA",
        "stop_lat": "3.1383158732406",
        "stop_lon": "101.75308018712",
        "stop_id": "1001793",
        "stop_sequence": "47"
    }
]