[
    {
        "stop_name": "KL1117 LRT BANGSAR",
        "stop_lat": "3.1274797153797",
        "stop_lon": "101.6788029842",
        "stop_id": "1001787",
        "stop_sequence": "1"
    },
    {
        "stop_name": "KL1762 PUSAT KHIDMAT LEMBAH PANTAI",
        "stop_lat": "3.129266",
        "stop_lon": "101.674383",
        "stop_id": "1002917",
        "stop_sequence": "2"
    },
    {
        "stop_name": "KL1143 BANGSAR PARK (SELATAN)",
        "stop_lat": "3.130798",
        "stop_lon": "101.673309",
        "stop_id": "1002948",
        "stop_sequence": "3"
    },
    {
        "stop_name": "KL1158 KOMERSIAL BANGSAR BARU",
        "stop_lat": "3.132373",
        "stop_lon": "101.673216",
        "stop_id": "1001531",
        "stop_sequence": "4"
    },
    {
        "stop_name": "KL1145 BANGSAR PARK (UTARA)",
        "stop_lat": "3.1356016863173",
        "stop_lon": "101.67324332606",
        "stop_id": "1002890",
        "stop_sequence": "5"
    },
    {
        "stop_name": "KL1160 TAMAN BANDARAYA",
        "stop_lat": "3.139263868803",
        "stop_lon": "101.67210240492",
        "stop_id": "1002093",
        "stop_sequence": "6"
    },
    {
        "stop_name": "KL1136 BANGSAR SHOPPING CENTER (OPP)",
        "stop_lat": "3.142399",
        "stop_lon": "101.667978",
        "stop_id": "1000223",
        "stop_sequence": "7"
    },
    {
        "stop_name": "KL1137 SRI PENAGA CONDOMINIUM",
        "stop_lat": "3.1422064106571",
        "stop_lon": "101.66458715895",
        "stop_id": "1001657",
        "stop_sequence": "8"
    },
    {
        "stop_name": "KL1162 DC MALL",
        "stop_lat": "3.145951",
        "stop_lon": "101.660649",
        "stop_id": "1000632",
        "stop_sequence": "9"
    },
    {
        "stop_name": "KL1174 MRT SEMANTAN PINTU B",
        "stop_lat": "3.151704",
        "stop_lon": "101.665622",
        "stop_id": "1007137",
        "stop_sequence": "10"
    },
    {
        "stop_name": "KL1175 HP TOWERS",
        "stop_lat": "3.151841",
        "stop_lon": "101.663715",
        "stop_id": "1003214",
        "stop_sequence": "11"
    },
    {
        "stop_name": "KL2424 DAMANLELA CARPARK",
        "stop_lat": "3.149055",
        "stop_lon": "101.66251",
        "stop_id": "1006702",
        "stop_sequence": "12"
    },
    {
        "stop_name": "(M) KL1163 DC MALL (TIMUR)",
        "stop_lat": "3.1467470145649",
        "stop_lon": "101.66279871027",
        "stop_id": "1002013",
        "stop_sequence": "13"
    },
    {
        "stop_name": "KL1138 BANGSAR SHOPPING CENTER (TIMUR)",
        "stop_lat": "3.143125",
        "stop_lon": "101.668006",
        "stop_id": "1000224",
        "stop_sequence": "14"
    },
    {
        "stop_name": "KL1148 SMK BUKIT BANDARAYA",
        "stop_lat": "3.1425084184586",
        "stop_lon": "101.67180830063",
        "stop_id": "1003372",
        "stop_sequence": "15"
    },
    {
        "stop_name": "KL1149 APT BANGSAR INDAH",
        "stop_lat": "3.1402867373031",
        "stop_lon": "101.67274448637",
        "stop_id": "1002918",
        "stop_sequence": "16"
    },
    {
        "stop_name": "KL1150 RUMAH NO 164",
        "stop_lat": "3.1380614131037",
        "stop_lon": "101.67342031975",
        "stop_id": "1002905",
        "stop_sequence": "17"
    },
    {
        "stop_name": "KL1153 BANGSAR PARK (SELATAN)",
        "stop_lat": "3.130729",
        "stop_lon": "101.673479",
        "stop_id": "1002959",
        "stop_sequence": "18"
    },
    {
        "stop_name": "KL1154 PUSAT KHIDMAT LEMBAH PANTAI",
        "stop_lat": "3.129343",
        "stop_lon": "101.674519",
        "stop_id": "1000060",
        "stop_sequence": "19"
    },
    {
        "stop_name": "KL1142 DATARAN MAYBANK",
        "stop_lat": "3.126412",
        "stop_lon": "101.677303",
        "stop_id": "1000519",
        "stop_sequence": "20"
    },
    {
        "stop_name": "KL1117 LRT BANGSAR",
        "stop_lat": "3.1274797153797",
        "stop_lon": "101.6788029842",
        "stop_id": "1001787",
        "stop_sequence": "21"
    }
]